[
    {
        "circlename": "Assam Circle",
        "regionname": "Dibrugarh Region",
        "divisionname": "Dibrugarh Division",
        "officename": "Diksam Ouphulia B.O",
        "pincode": "786613",
        "officetype": "BO",
        "delivery": "Delivery",
        "district": "DIBRUGARH",
        "statename": "ASSAM",
        "latitude": "27.2400000",
        "longitude": "94.9800000"
    },
    {
        "circlename": "Assam Circle",
        "regionname": "Dibrugarh Region",
        "divisionname": "Dibrugarh Division",
        "officename": "Lengeri Bazar B.O",
        "pincode": "786613",
        "officetype": "BO",
        "delivery": "Delivery",
        "district": "DIBRUGARH",
        "statename": "ASSAM",
        "latitude": "27.2400000",
        "longitude": "94.9800000"
    },
    {
        "circlename": "Assam Circle",
        "regionname": "Dibrugarh Region",
        "divisionname": "Dibrugarh Division",
        "officename": "Balaibari B.O",
        "pincode": "786007",
        "officetype": "BO",
        "delivery": "Delivery",
        "district": "DIBRUGARH",
        "statename": "ASSAM",
        "latitude": "27.1000000",
        "longitude": "95.2200000"
    },
    {
        "circlename": "Assam Circle",
        "regionname": "Dibrugarh Region",
        "divisionname": "Dibrugarh Division",
        "officename": "Gohaingaon B.O",
        "pincode": "786007",
        "officetype": "BO",
        "delivery": "Delivery",
        "district": "DIBRUGARH",
        "statename": "ASSAM",
        "latitude": "27.1000000",
        "longitude": "95.2200000"
    },
    {
        "circlename": "Assam Circle",
        "regionname": "Dibrugarh Region",
        "divisionname": "Dibrugarh Division",
        "officename": "Kalakhowa Chariali B.O",
        "pincode": "786007",
        "officetype": "BO",
        "delivery": "Delivery",
        "district": "DIBRUGARH",
        "statename": "ASSAM",
        "latitude": "27.1000000",
        "longitude": "95.2200000"
    },
    {
        "circlename": "Assam Circle",
        "regionname": "Dibrugarh Region",
        "divisionname": "Dibrugarh Division",
        "officename": "Lalmati Gaon B.O",
        "pincode": "786007",
        "officetype": "BO",
        "delivery": "Delivery",
        "district": "DIBRUGARH",
        "statename": "ASSAM",
        "latitude": "27.1000000",
        "longitude": "95.2200000"
    },
    {
        "circlename": "Assam Circle",
        "regionname": "Dibrugarh Region",
        "divisionname": "Dibrugarh Division",
        "officename": "Behating Tiniali B.O",
        "pincode": "786004",
        "officetype": "BO",
        "delivery": "Delivery",
        "district": "DIBRUGARH",
        "statename": "ASSAM",
        "latitude": "27.4400000",
        "longitude": "94.8900000"
    },
    {
        "circlename": "Assam Circle",
        "regionname": "Dibrugarh Region",
        "divisionname": "Dibrugarh Division",
        "officename": "Chaulkhowa B.O",
        "pincode": "786004",
        "officetype": "BO",
        "delivery": "Delivery",
        "district": "DIBRUGARH",
        "statename": "ASSAM",
        "latitude": "27.4400000",
        "longitude": "94.8900000"
    },
    {
        "circlename": "Assam Circle",
        "regionname": "Dibrugarh Region",
        "divisionname": "Dibrugarh Division",
        "officename": "Garpara B.O",
        "pincode": "786101",
        "officetype": "BO",
        "delivery": "Delivery",
        "district": "DIBRUGARH",
        "statename": "ASSAM",
        "latitude": "27.4500000",
        "longitude": "95.0800000"
    },
    {
        "circlename": "Assam Circle",
        "regionname": "Dibrugarh Region",
        "divisionname": "Dibrugarh Division",
        "officename": "Phukanarkhat B.O",
        "pincode": "786101",
        "officetype": "BO",
        "delivery": "Delivery",
        "district": "DIBRUGARH",
        "statename": "ASSAM",
        "latitude": "27.4500000",
        "longitude": "95.0800000"
    },
    {
        "circlename": "Assam Circle",
        "regionname": "Dibrugarh Region",
        "divisionname": "Dibrugarh Division",
        "officename": "Kamargaon B.O",
        "pincode": "786614",
        "officetype": "BO",
        "delivery": "Delivery",
        "district": "DIBRUGARH",
        "statename": "ASSAM",
        "latitude": "27.2800000",
        "longitude": "95.2400000"
    },
    {
        "circlename": "Assam Circle",
        "regionname": "Dibrugarh Region",
        "divisionname": "Dibrugarh Division",
        "officename": "Tipam B.O",
        "pincode": "786614",
        "officetype": "BO",
        "delivery": "Delivery",
        "district": "DIBRUGARH",
        "statename": "ASSAM",
        "latitude": "27.2800000",
        "longitude": "95.2400000"
    },
    {
        "circlename": "Assam Circle",
        "regionname": "Dibrugarh Region",
        "divisionname": "Dibrugarh Division",
        "officename": "Ushapur B.O",
        "pincode": "786614",
        "officetype": "BO",
        "delivery": "Delivery",
        "district": "DIBRUGARH",
        "statename": "ASSAM",
        "latitude": "27.2800000",
        "longitude": "95.2400000"
    },
    {
        "circlename": "Assam Circle",
        "regionname": "Dibrugarh Region",
        "divisionname": "Dibrugarh Division",
        "officename": "Baligaon B.O",
        "pincode": "785676",
        "officetype": "BO",
        "delivery": "Delivery",
        "district": "DIBRUGARH",
        "statename": "ASSAM",
        "latitude": "27.2700000",
        "longitude": "94.8900000"
    },
    {
        "circlename": "Assam Circle",
        "regionname": "Dibrugarh Region",
        "divisionname": "Dibrugarh Division",
        "officename": "Erameshlow Gaon B.O",
        "pincode": "785676",
        "officetype": "BO",
        "delivery": "Delivery",
        "district": "DIBRUGARH",
        "statename": "ASSAM",
        "latitude": "27.2700000",
        "longitude": "94.8900000"
    },
    {
        "circlename": "Assam Circle",
        "regionname": "Dibrugarh Region",
        "divisionname": "Dibrugarh Division",
        "officename": "Padumoni Gaon No 1 B.O",
        "pincode": "785676",
        "officetype": "BO",
        "delivery": "Delivery",
        "district": "DIBRUGARH",
        "statename": "ASSAM",
        "latitude": "27.2600000",
        "longitude": "94.8800000"
    },
    {
        "circlename": "Assam Circle",
        "regionname": "Dibrugarh Region",
        "divisionname": "Dibrugarh Division",
        "officename": "Gozpuria B.O",
        "pincode": "785675",
        "officetype": "BO",
        "delivery": "Delivery",
        "district": "DIBRUGARH",
        "statename": "ASSAM",
        "latitude": "27.2700000",
        "longitude": "94.8900000"
    },
    {
        "circlename": "Assam Circle",
        "regionname": "Dibrugarh Region",
        "divisionname": "Dibrugarh Division",
        "officename": "Majbam Chariali B.O",
        "pincode": "785675",
        "officetype": "BO",
        "delivery": "Delivery",
        "district": "DIBRUGARH",
        "statename": "ASSAM",
        "latitude": "27.2700000",
        "longitude": "94.8900000"
    },
    {
        "circlename": "Assam Circle",
        "regionname": "Dibrugarh Region",
        "divisionname": "Dibrugarh Division",
        "officename": "Konwaripathar B.O",
        "pincode": "786010",
        "officetype": "BO",
        "delivery": "Delivery",
        "district": "DIBRUGARH",
        "statename": "ASSAM",
        "latitude": "27.4500000",
        "longitude": "95.0000000"
    },
    {
        "circlename": "Assam Circle",
        "regionname": "Dibrugarh Region",
        "divisionname": "Dibrugarh Division",
        "officename": "Sarbodaya B.O",
        "pincode": "786010",
        "officetype": "BO",
        "delivery": "Delivery",
        "district": "DIBRUGARH",
        "statename": "ASSAM",
        "latitude": "27.4500000",
        "longitude": "95.0000000"
    },
    {
        "circlename": "Assam Circle",
        "regionname": "Dibrugarh Region",
        "divisionname": "Dibrugarh Division",
        "officename": "Raja Bheta B.O",
        "pincode": "786008",
        "officetype": "BO",
        "delivery": "Delivery",
        "district": "DIBRUGARH",
        "statename": "ASSAM",
        "latitude": "27.4700000",
        "longitude": "94.8900000"
    },
    {
        "circlename": "Assam Circle",
        "regionname": "Dibrugarh Region",
        "divisionname": "Dibrugarh Division",
        "officename": "Desam B.O",
        "pincode": "786610",
        "officetype": "BO",
        "delivery": "Delivery",
        "district": "DIBRUGARH",
        "statename": "ASSAM",
        "latitude": "27.2800000",
        "longitude": "95.2400000"
    },
    {
        "circlename": "Assam Circle",
        "regionname": "Dibrugarh Region",
        "divisionname": "Dibrugarh Division",
        "officename": "Gojpuria B.O",
        "pincode": "786610",
        "officetype": "BO",
        "delivery": "Delivery",
        "district": "DIBRUGARH",
        "statename": "ASSAM",
        "latitude": "27.2800000",
        "longitude": "95.2400000"
    },
    {
        "circlename": "Assam Circle",
        "regionname": "Dibrugarh Region",
        "divisionname": "Dibrugarh Division",
        "officename": "Salmari B.O",
        "pincode": "786610",
        "officetype": "BO",
        "delivery": "Delivery",
        "district": "DIBRUGARH",
        "statename": "ASSAM",
        "latitude": "27.2800000",
        "longitude": "95.2400000"
    },
    {
        "circlename": "Assam Circle",
        "regionname": "Dibrugarh Region",
        "divisionname": "Dibrugarh Division",
        "officename": "Tiniali Tea Estate B.O",
        "pincode": "786610",
        "officetype": "BO",
        "delivery": "Delivery",
        "district": "DIBRUGARH",
        "statename": "ASSAM",
        "latitude": "27.2800000",
        "longitude": "95.2400000"
    },
    {
        "circlename": "Assam Circle",
        "regionname": "Dibrugarh Region",
        "divisionname": "Dibrugarh Division",
        "officename": "Ashabam B.O",
        "pincode": "786621",
        "officetype": "BO",
        "delivery": "Delivery",
        "district": "DIBRUGARH",
        "statename": "ASSAM",
        "latitude": "27.1800000",
        "longitude": "95.3400000"
    },
    {
        "circlename": "Assam Circle",
        "regionname": "Dibrugarh Region",
        "divisionname": "Dibrugarh Division",
        "officename": "Nigam B.O",
        "pincode": "786621",
        "officetype": "BO",
        "delivery": "Delivery",
        "district": "DIBRUGARH",
        "statename": "ASSAM",
        "latitude": "27.1800000",
        "longitude": "95.3400000"
    },
    {
        "circlename": "Assam Circle",
        "regionname": "Dibrugarh Region",
        "divisionname": "Dibrugarh Division",
        "officename": "Bhadoi Pachali B.O",
        "pincode": "786191",
        "officetype": "BO",
        "delivery": "Delivery",
        "district": "DIBRUGARH",
        "statename": "ASSAM",
        "latitude": "27.3400000",
        "longitude": "95.3500000"
    },
    {
        "circlename": "Assam Circle",
        "regionname": "Dibrugarh Region",
        "divisionname": "Dibrugarh Division",
        "officename": "Bokuloni Chariali B.O",
        "pincode": "786191",
        "officetype": "BO",
        "delivery": "Delivery",
        "district": "DIBRUGARH",
        "statename": "ASSAM",
        "latitude": "27.3400000",
        "longitude": "95.3500000"
    },
    {
        "circlename": "Assam Circle",
        "regionname": "Dibrugarh Region",
        "divisionname": "Dibrugarh Division",
        "officename": "Kenduguri Te B.O",
        "pincode": "786611",
        "officetype": "BO",
        "delivery": "Delivery",
        "district": "DIBRUGARH",
        "statename": "ASSAM",
        "latitude": "27.1800000",
        "longitude": "95.1100000"
    },
    {
        "circlename": "Assam Circle",
        "regionname": "Dibrugarh Region",
        "divisionname": "Dibrugarh Division",
        "officename": "Lachit Nagar B.O",
        "pincode": "786611",
        "officetype": "BO",
        "delivery": "Delivery",
        "district": "DIBRUGARH",
        "statename": "ASSAM",
        "latitude": "27.1800000",
        "longitude": "95.1100000"
    },
    {
        "circlename": "Assam Circle",
        "regionname": "Dibrugarh Region",
        "divisionname": "Dibrugarh Division",
        "officename": "Pithaguti B.O",
        "pincode": "786611",
        "officetype": "BO",
        "delivery": "Delivery",
        "district": "DIBRUGARH",
        "statename": "ASSAM",
        "latitude": "27.1800000",
        "longitude": "95.1100000"
    },
    {
        "circlename": "Assam Circle",
        "regionname": "Dibrugarh Region",
        "divisionname": "Dibrugarh Division",
        "officename": "Bhajoni B.O",
        "pincode": "786103",
        "officetype": "BO",
        "delivery": "Delivery",
        "district": "DIBRUGARH",
        "statename": "ASSAM",
        "latitude": "27.3800000",
        "longitude": "95.1700000"
    },
    {
        "circlename": "Assam Circle",
        "regionname": "Dibrugarh Region",
        "divisionname": "Dibrugarh Division",
        "officename": "Ouguri B.O",
        "pincode": "786612",
        "officetype": "BO",
        "delivery": "Delivery",
        "district": "DIBRUGARH",
        "statename": "ASSAM",
        "latitude": "27.2200000",
        "longitude": "95.1700000"
    },
    {
        "circlename": "Assam Circle",
        "regionname": "Dibrugarh Region",
        "divisionname": "Dibrugarh Division",
        "officename": "Hollowdanga B.O",
        "pincode": "787026",
        "officetype": "BO",
        "delivery": "Delivery",
        "district": "DHEMAJI",
        "statename": "ASSAM",
        "latitude": "27.4200000",
        "longitude": "94.4300000"
    },
    {
        "circlename": "Assam Circle",
        "regionname": "Dibrugarh Region",
        "divisionname": "Dibrugarh Division",
        "officename": "Salmari No.2 B.O",
        "pincode": "787026",
        "officetype": "BO",
        "delivery": "Delivery",
        "district": "DHEMAJI",
        "statename": "ASSAM",
        "latitude": "27.4200000",
        "longitude": "94.4300000"
    },
    {
        "circlename": "Assam Circle",
        "regionname": "Dibrugarh Region",
        "divisionname": "Dibrugarh Division",
        "officename": "Bahpara B.O",
        "pincode": "787055",
        "officetype": "BO",
        "delivery": "Delivery",
        "district": "LAKHIMPUR",
        "statename": "ASSAM",
        "latitude": "27.3100000",
        "longitude": "94.4500000"
    },
    {
        "circlename": "Assam Circle",
        "regionname": "Dibrugarh Region",
        "divisionname": "Dibrugarh Division",
        "officename": "Joysagar B.O",
        "pincode": "787055",
        "officetype": "BO",
        "delivery": "Delivery",
        "district": "LAKHIMPUR",
        "statename": "ASSAM",
        "latitude": "27.3100000",
        "longitude": "94.4500000"
    },
    {
        "circlename": "Assam Circle",
        "regionname": "Dibrugarh Region",
        "divisionname": "Dibrugarh Division",
        "officename": "Patrichuk B.O",
        "pincode": "787055",
        "officetype": "BO",
        "delivery": "Delivery",
        "district": "LAKHIMPUR",
        "statename": "ASSAM",
        "latitude": "27.3100000",
        "longitude": "94.4500000"
    },
    {
        "circlename": "Assam Circle",
        "regionname": "Dibrugarh Region",
        "divisionname": "Dibrugarh Division",
        "officename": "Kachua B.O",
        "pincode": "784165",
        "officetype": "BO",
        "delivery": "Delivery",
        "district": "LAKHIMPUR",
        "statename": "ASSAM",
        "latitude": "26.9100000",
        "longitude": "93.7900000"
    },
    {
        "circlename": "Assam Circle",
        "regionname": "Dibrugarh Region",
        "divisionname": "Dibrugarh Division",
        "officename": "Rangati Charali B.O",
        "pincode": "784165",
        "officetype": "BO",
        "delivery": "Delivery",
        "district": "LAKHIMPUR",
        "statename": "ASSAM",
        "latitude": "26.9100000",
        "longitude": "93.7900000"
    },
    {
        "circlename": "Assam Circle",
        "regionname": "Dibrugarh Region",
        "divisionname": "Dibrugarh Division",
        "officename": "Bauli B.O",
        "pincode": "787057",
        "officetype": "BO",
        "delivery": "Delivery",
        "district": "DHEMAJI",
        "statename": "ASSAM",
        "latitude": "27.6000000",
        "longitude": "94.7600000"
    },
    {
        "circlename": "Assam Circle",
        "regionname": "Dibrugarh Region",
        "divisionname": "Dibrugarh Division",
        "officename": "Goalchapori B.O",
        "pincode": "787057",
        "officetype": "BO",
        "delivery": "Delivery",
        "district": "DHEMAJI",
        "statename": "ASSAM",
        "latitude": "27.6000000",
        "longitude": "94.7600000"
    },
    {
        "circlename": "Assam Circle",
        "regionname": "Dibrugarh Region",
        "divisionname": "Dibrugarh Division",
        "officename": "Hatigarh B.O",
        "pincode": "787057",
        "officetype": "BO",
        "delivery": "Delivery",
        "district": "DHEMAJI",
        "statename": "ASSAM",
        "latitude": "27.6000000",
        "longitude": "94.7600000"
    },
    {
        "circlename": "Assam Circle",
        "regionname": "Dibrugarh Region",
        "divisionname": "Dibrugarh Division",
        "officename": "Khubalia B.O",
        "pincode": "787057",
        "officetype": "BO",
        "delivery": "Non Delivery",
        "district": "DHEMAJI",
        "statename": "ASSAM",
        "latitude": "27.6000000",
        "longitude": "94.7600000"
    },
    {
        "circlename": "Assam Circle",
        "regionname": "Dibrugarh Region",
        "divisionname": "Dibrugarh Division",
        "officename": "Moridhal B.O",
        "pincode": "787057",
        "officetype": "BO",
        "delivery": "Delivery",
        "district": "DHEMAJI",
        "statename": "ASSAM",
        "latitude": "27.6000000",
        "longitude": "94.7600000"
    },
    {
        "circlename": "Assam Circle",
        "regionname": "Dibrugarh Region",
        "divisionname": "Dibrugarh Division",
        "officename": "Kinapathar B.O",
        "pincode": "784164",
        "officetype": "BO",
        "delivery": "Delivery",
        "district": "LAKHIMPUR",
        "statename": "ASSAM",
        "latitude": "27.2300000",
        "longitude": "94.0900000"
    },
    {
        "circlename": "Assam Circle",
        "regionname": "Dibrugarh Region",
        "divisionname": "Dibrugarh Division",
        "officename": "Bilmukh B.O",
        "pincode": "787053",
        "officetype": "BO",
        "delivery": "Delivery",
        "district": "LAKHIMPUR",
        "statename": "ASSAM",
        "latitude": "27.3000000",
        "longitude": "94.4100000"
    },
    {
        "circlename": "Assam Circle",
        "regionname": "Dibrugarh Region",
        "divisionname": "Dibrugarh Division",
        "officename": "Ga Dangar Chuk B.O",
        "pincode": "787053",
        "officetype": "BO",
        "delivery": "Delivery",
        "district": "LAKHIMPUR",
        "statename": "ASSAM",
        "latitude": "27.3000000",
        "longitude": "94.4100000"
    },
    {
        "circlename": "Assam Circle",
        "regionname": "Dibrugarh Region",
        "divisionname": "Dibrugarh Division",
        "officename": "Ghatapara B.O",
        "pincode": "787053",
        "officetype": "BO",
        "delivery": "Delivery",
        "district": "LAKHIMPUR",
        "statename": "ASSAM",
        "latitude": "27.5300000",
        "longitude": "94.4100000"
    },
    {
        "circlename": "Assam Circle",
        "regionname": "Dibrugarh Region",
        "divisionname": "Dibrugarh Division",
        "officename": "Ghughuhadal B.O",
        "pincode": "787053",
        "officetype": "BO",
        "delivery": "Delivery",
        "district": "DHEMAJI",
        "statename": "ASSAM",
        "latitude": "27.3000000",
        "longitude": "94.4100000"
    },
    {
        "circlename": "Assam Circle",
        "regionname": "Dibrugarh Region",
        "divisionname": "Dibrugarh Division",
        "officename": "Khalihamari B.O",
        "pincode": "787053",
        "officetype": "BO",
        "delivery": "Delivery",
        "district": "DHEMAJI",
        "statename": "ASSAM",
        "latitude": "27.3000000",
        "longitude": "94.4100000"
    },
    {
        "circlename": "Assam Circle",
        "regionname": "Dibrugarh Region",
        "divisionname": "Dibrugarh Division",
        "officename": "Likhakchapori B.O",
        "pincode": "787054",
        "officetype": "BO",
        "delivery": "Delivery",
        "district": "LAKHIMPUR",
        "statename": "ASSAM",
        "latitude": "27.2300000",
        "longitude": "94.0900000"
    },
    {
        "circlename": "Assam Circle",
        "regionname": "Dibrugarh Region",
        "divisionname": "Dibrugarh Division",
        "officename": "Mornoikhora B.O",
        "pincode": "787054",
        "officetype": "BO",
        "delivery": "Delivery",
        "district": "LAKHIMPUR",
        "statename": "ASSAM",
        "latitude": "27.2300000",
        "longitude": "94.0900000"
    },
    {
        "circlename": "Assam Circle",
        "regionname": "Dibrugarh Region",
        "divisionname": "Dibrugarh Division",
        "officename": "Laimekuri B.O",
        "pincode": "787060",
        "officetype": "BO",
        "delivery": "Delivery",
        "district": "DHEMAJI",
        "statename": "ASSAM",
        "latitude": "27.8300000",
        "longitude": "95.2200000"
    },
    {
        "circlename": "Assam Circle",
        "regionname": "Dibrugarh Region",
        "divisionname": "Dibrugarh Division",
        "officename": "Angerkhowa B.O",
        "pincode": "787031",
        "officetype": "BO",
        "delivery": "Delivery",
        "district": "LAKHIMPUR",
        "statename": "ASSAM",
        "latitude": "27.2300000",
        "longitude": "94.0900000"
    },
    {
        "circlename": "Assam Circle",
        "regionname": "Dibrugarh Region",
        "divisionname": "Dibrugarh Division",
        "officename": "Azad B.O",
        "pincode": "787031",
        "officetype": "BO",
        "delivery": "Delivery",
        "district": "LAKHIMPUR",
        "statename": "ASSAM",
        "latitude": "27.2300000",
        "longitude": "94.0900000"
    },
    {
        "circlename": "Assam Circle",
        "regionname": "Dibrugarh Region",
        "divisionname": "Dibrugarh Division",
        "officename": "Budhbazar B.O",
        "pincode": "787031",
        "officetype": "BO",
        "delivery": "Delivery",
        "district": "LAKHIMPUR",
        "statename": "ASSAM",
        "latitude": "27.2300000",
        "longitude": "94.0900000"
    },
    {
        "circlename": "Assam Circle",
        "regionname": "Dibrugarh Region",
        "divisionname": "Dibrugarh Division",
        "officename": "Japisajia B.O",
        "pincode": "787031",
        "officetype": "BO",
        "delivery": "Delivery",
        "district": "LAKHIMPUR",
        "statename": "ASSAM",
        "latitude": "27.2300000",
        "longitude": "94.0900000"
    },
    {
        "circlename": "Assam Circle",
        "regionname": "Dibrugarh Region",
        "divisionname": "Dibrugarh Division",
        "officename": "Silonibari B.O",
        "pincode": "787031",
        "officetype": "BO",
        "delivery": "Delivery",
        "district": "LAKHIMPUR",
        "statename": "ASSAM",
        "latitude": "27.2300000",
        "longitude": "94.0900000"
    },
    {
        "circlename": "Assam Circle",
        "regionname": "Dibrugarh Region",
        "divisionname": "Dibrugarh Division",
        "officename": "Dharmapur B.O",
        "pincode": "784160",
        "officetype": "BO",
        "delivery": "Delivery",
        "district": "LAKHIMPUR",
        "statename": "ASSAM",
        "latitude": "27.1200000",
        "longitude": "93.9300000"
    },
    {
        "circlename": "Assam Circle",
        "regionname": "Dibrugarh Region",
        "divisionname": "Dibrugarh Division",
        "officename": "Joriguri B.O",
        "pincode": "784160",
        "officetype": "BO",
        "delivery": "Delivery",
        "district": "LAKHIMPUR",
        "statename": "ASSAM",
        "latitude": "27.1200000",
        "longitude": "93.9300000"
    },
    {
        "circlename": "Assam Circle",
        "regionname": "Dibrugarh Region",
        "divisionname": "Dibrugarh Division",
        "officename": "Kalakata B.O",
        "pincode": "787058",
        "officetype": "BO",
        "delivery": "Delivery",
        "district": "DHEMAJI",
        "statename": "ASSAM",
        "latitude": "27.4100000",
        "longitude": "94.5500000"
    },
    {
        "circlename": "Assam Circle",
        "regionname": "Dibrugarh Region",
        "divisionname": "Dibrugarh Division",
        "officename": "Ghunasuti B.O",
        "pincode": "787032",
        "officetype": "BO",
        "delivery": "Delivery",
        "district": "LAKHIMPUR",
        "statename": "ASSAM",
        "latitude": "27.4500000",
        "longitude": "95.0100000"
    },
    {
        "circlename": "Assam Circle",
        "regionname": "Dibrugarh Region",
        "divisionname": "Dibrugarh Division",
        "officename": "Gorumoria B.O",
        "pincode": "787032",
        "officetype": "BO",
        "delivery": "Delivery",
        "district": "LAKHIMPUR",
        "statename": "ASSAM",
        "latitude": "27.4500000",
        "longitude": "95.0100000"
    },
    {
        "circlename": "Assam Circle",
        "regionname": "Dibrugarh Region",
        "divisionname": "Dibrugarh Division",
        "officename": "Kadam B.O",
        "pincode": "787032",
        "officetype": "BO",
        "delivery": "Delivery",
        "district": "LAKHIMPUR",
        "statename": "ASSAM",
        "latitude": "27.4500000",
        "longitude": "95.0100000"
    },
    {
        "circlename": "Assam Circle",
        "regionname": "Dibrugarh Region",
        "divisionname": "Dibrugarh Division",
        "officename": "Rongpuria B.O",
        "pincode": "787032",
        "officetype": "BO",
        "delivery": "Delivery",
        "district": "LAKHIMPUR",
        "statename": "ASSAM",
        "latitude": "27.4500000",
        "longitude": "95.0100000"
    },
    {
        "circlename": "Assam Circle",
        "regionname": "Dibrugarh Region",
        "divisionname": "Dibrugarh Division",
        "officename": "Singra B.O",
        "pincode": "787023",
        "officetype": "BO",
        "delivery": "Delivery",
        "district": "LAKHIMPUR",
        "statename": "ASSAM",
        "latitude": "27.1600000",
        "longitude": "94.0100000"
    },
    {
        "circlename": "Assam Circle",
        "regionname": "Dibrugarh Region",
        "divisionname": "Dibrugarh Division",
        "officename": "Echarikata Balijan B.O",
        "pincode": "787052",
        "officetype": "BO",
        "delivery": "Delivery",
        "district": "MAJULI",
        "statename": "ASSAM",
        "latitude": "27.1400000",
        "longitude": "94.1100000"
    },
    {
        "circlename": "Assam Circle",
        "regionname": "Dibrugarh Region",
        "divisionname": "Dibrugarh Division",
        "officename": "Kharkati B.O",
        "pincode": "787052",
        "officetype": "BO",
        "delivery": "Delivery",
        "district": "LAKHIMPUR",
        "statename": "ASSAM",
        "latitude": "27.1400000",
        "longitude": "94.1100000"
    },
    {
        "circlename": "Assam Circle",
        "regionname": "Dibrugarh Region",
        "divisionname": "Dibrugarh Division",
        "officename": "Na Ali Mirigaon B.O",
        "pincode": "787052",
        "officetype": "BO",
        "delivery": "Delivery",
        "district": "MAJULI",
        "statename": "ASSAM",
        "latitude": "27.1400000",
        "longitude": "94.1100000"
    },
    {
        "circlename": "Assam Circle",
        "regionname": "Dibrugarh Region",
        "divisionname": "Dibrugarh Division",
        "officename": "Subansiri Koibarta Adarsha Gao B.O",
        "pincode": "787056",
        "officetype": "BO",
        "delivery": "Delivery",
        "district": "LAKHIMPUR",
        "statename": "ASSAM",
        "latitude": "27.4600000",
        "longitude": "94.2300000"
    },
    {
        "circlename": "Assam Circle",
        "regionname": "Dibrugarh Region",
        "divisionname": "Dibrugarh Division",
        "officename": "Betanipam B.O",
        "pincode": "787059",
        "officetype": "BO",
        "delivery": "Delivery",
        "district": "DHEMAJI",
        "statename": "ASSAM",
        "latitude": "27.5900000",
        "longitude": "94.7200000"
    },
    {
        "circlename": "Assam Circle",
        "regionname": "Dibrugarh Region",
        "divisionname": "Dibrugarh Division",
        "officename": "Madhuripathar B.O",
        "pincode": "787059",
        "officetype": "BO",
        "delivery": "Delivery",
        "district": "DHEMAJI",
        "statename": "ASSAM",
        "latitude": "27.5900000",
        "longitude": "94.7200000"
    },
    {
        "circlename": "Assam Circle",
        "regionname": "Dibrugarh Region",
        "divisionname": "Dibrugarh Division",
        "officename": "Aktai B.O",
        "pincode": "787110",
        "officetype": "BO",
        "delivery": "Delivery",
        "district": "DHEMAJI",
        "statename": "ASSAM",
        "latitude": "27.5200000",
        "longitude": "94.6700000"
    },
    {
        "circlename": "Assam Circle",
        "regionname": "Dibrugarh Region",
        "divisionname": "Dibrugarh Division",
        "officename": "Batuamukh B.O",
        "pincode": "787110",
        "officetype": "BO",
        "delivery": "Delivery",
        "district": "DHEMAJI",
        "statename": "ASSAM",
        "latitude": "27.5200000",
        "longitude": "94.6700000"
    },
    {
        "circlename": "Assam Circle",
        "regionname": "Dibrugarh Region",
        "divisionname": "Dibrugarh Division",
        "officename": "Bhebeli Gaon B.O",
        "pincode": "787110",
        "officetype": "BO",
        "delivery": "Delivery",
        "district": "DHEMAJI",
        "statename": "ASSAM",
        "latitude": "27.5200000",
        "longitude": "94.6700000"
    },
    {
        "circlename": "Assam Circle",
        "regionname": "Dibrugarh Region",
        "divisionname": "Dibrugarh Division",
        "officename": "Nilakh Chariali B.O",
        "pincode": "787110",
        "officetype": "BO",
        "delivery": "Delivery",
        "district": "DHEMAJI",
        "statename": "ASSAM",
        "latitude": "27.5200000",
        "longitude": "94.6700000"
    },
    {
        "circlename": "Assam Circle",
        "regionname": "Dibrugarh Region",
        "divisionname": "Nagaon Division",
        "officename": "Barpani B.O",
        "pincode": "782450",
        "officetype": "BO",
        "delivery": "Delivery",
        "district": "NAGAON",
        "statename": "ASSAM",
        "latitude": "25.8071000",
        "longitude": "92.4658000"
    },
    {
        "circlename": "Assam Circle",
        "regionname": "Dibrugarh Region",
        "divisionname": "Nagaon Division",
        "officename": "Panjaborpathar B.O",
        "pincode": "782450",
        "officetype": "BO",
        "delivery": "Delivery",
        "district": "WEST KARBI ANGLONG",
        "statename": "ASSAM",
        "latitude": "25.8071000",
        "longitude": "92.4658000"
    },
    {
        "circlename": "Assam Circle",
        "regionname": "Dibrugarh Region",
        "divisionname": "Nagaon Division",
        "officename": "Langbangdingpi B.O",
        "pincode": "782482",
        "officetype": "BO",
        "delivery": "Delivery",
        "district": "KARBI ANGLONG",
        "statename": "ASSAM",
        "latitude": "25.8415000",
        "longitude": "93.4246000"
    },
    {
        "circlename": "Assam Circle",
        "regionname": "Dibrugarh Region",
        "divisionname": "Nagaon Division",
        "officename": "Shyampathar B.O",
        "pincode": "782482",
        "officetype": "BO",
        "delivery": "Delivery",
        "district": "KARBI ANGLONG",
        "statename": "ASSAM",
        "latitude": "25.8415000",
        "longitude": "93.4246000"
    },
    {
        "circlename": "Assam Circle",
        "regionname": "Dibrugarh Region",
        "divisionname": "Nagaon Division",
        "officename": "Silputa Tiniali B.O",
        "pincode": "782482",
        "officetype": "BO",
        "delivery": "Delivery",
        "district": "KARBI ANGLONG",
        "statename": "ASSAM",
        "latitude": "25.8415000",
        "longitude": "93.4246000"
    },
    {
        "circlename": "Assam Circle",
        "regionname": "Dibrugarh Region",
        "divisionname": "Nagaon Division",
        "officename": "Deihari B.O",
        "pincode": "782490",
        "officetype": "BO",
        "delivery": "Delivery",
        "district": "KARBI ANGLONG",
        "statename": "ASSAM",
        "latitude": "26.1777000",
        "longitude": "93.6625000"
    },
    {
        "circlename": "Assam Circle",
        "regionname": "Dibrugarh Region",
        "divisionname": "Nagaon Division",
        "officename": "Tengelijan B.O",
        "pincode": "782470",
        "officetype": "BO",
        "delivery": "Delivery",
        "district": "KARBI ANGLONG",
        "statename": "ASSAM",
        "latitude": "25.3219000",
        "longitude": "92.1619000"
    },
    {
        "circlename": "Assam Circle",
        "regionname": "Dibrugarh Region",
        "divisionname": "Nagaon Division",
        "officename": "Phanglangso B.O",
        "pincode": "782462",
        "officetype": "BO",
        "delivery": "Delivery",
        "district": "KARBI ANGLONG",
        "statename": "ASSAM",
        "latitude": "25.8394444",
        "longitude": "93.4376944"
    },
    {
        "circlename": "Assam Circle",
        "regionname": "Dibrugarh Region",
        "divisionname": "Nagaon Division",
        "officename": "Baghpani B.O",
        "pincode": "782441",
        "officetype": "BO",
        "delivery": "Delivery",
        "district": "KARBI ANGLONG",
        "statename": "ASSAM",
        "latitude": "26.2092000",
        "longitude": "93.0527000"
    },
    {
        "circlename": "Assam Circle",
        "regionname": "Dibrugarh Region",
        "divisionname": "Nagaon Division",
        "officename": "Bheleoghat B.O",
        "pincode": "782441",
        "officetype": "BO",
        "delivery": "Delivery",
        "district": "KARBI ANGLONG",
        "statename": "ASSAM",
        "latitude": "26.2092000",
        "longitude": "93.0527000"
    },
    {
        "circlename": "Assam Circle",
        "regionname": "Dibrugarh Region",
        "divisionname": "Nagaon Division",
        "officename": "Dentaghat B.O",
        "pincode": "782441",
        "officetype": "BO",
        "delivery": "Delivery",
        "district": "KARBI ANGLONG",
        "statename": "ASSAM",
        "latitude": "26.2092000",
        "longitude": "93.0527000"
    },
    {
        "circlename": "Assam Circle",
        "regionname": "Dibrugarh Region",
        "divisionname": "Nagaon Division",
        "officename": "Langhin Manikpur B.O",
        "pincode": "782441",
        "officetype": "BO",
        "delivery": "Delivery",
        "district": "KARBI ANGLONG",
        "statename": "ASSAM",
        "latitude": "26.2092000",
        "longitude": "93.0527000"
    },
    {
        "circlename": "Assam Circle",
        "regionname": "Dibrugarh Region",
        "divisionname": "Nagaon Division",
        "officename": "Parakhowa Bazar B.O",
        "pincode": "782441",
        "officetype": "BO",
        "delivery": "Delivery",
        "district": "KARBI ANGLONG",
        "statename": "ASSAM",
        "latitude": "26.2092000",
        "longitude": "93.0527000"
    },
    {
        "circlename": "Assam Circle",
        "regionname": "Dibrugarh Region",
        "divisionname": "Nagaon Division",
        "officename": "Kania Engti BO",
        "pincode": "782441",
        "officetype": "BO",
        "delivery": "Delivery",
        "district": "KARBI ANGLONG",
        "statename": "ASSAM",
        "latitude": "26.357800000000001",
        "longitude": "93.016900000000007"
    },
    {
        "circlename": "Assam Circle",
        "regionname": "Dibrugarh Region",
        "divisionname": "Nagaon Division",
        "officename": "Padumpukhuri B.O",
        "pincode": "782435",
        "officetype": "BO",
        "delivery": "Delivery",
        "district": "HOJAI",
        "statename": "ASSAM",
        "latitude": "26.3486944",
        "longitude": "92.7005000"
    },
    {
        "circlename": "Assam Circle",
        "regionname": "Dibrugarh Region",
        "divisionname": "Nagaon Division",
        "officename": "Debasthan Bazar B.O",
        "pincode": "782481",
        "officetype": "BO",
        "delivery": "Delivery",
        "district": "HOJAI",
        "statename": "ASSAM",
        "latitude": "25.8415000",
        "longitude": "93.4246000"
    },
    {
        "circlename": "Assam Circle",
        "regionname": "Dibrugarh Region",
        "divisionname": "Nagaon Division",
        "officename": "Uttar Borbil B.O",
        "pincode": "782481",
        "officetype": "BO",
        "delivery": "Delivery",
        "district": "KARBI ANGLONG",
        "statename": "ASSAM",
        "latitude": "25.8415000",
        "longitude": "93.4246000"
    },
    {
        "circlename": "Assam Circle",
        "regionname": "Dibrugarh Region",
        "divisionname": "Nagaon Division",
        "officename": "Anneria B.O",
        "pincode": "782446",
        "officetype": "BO",
        "delivery": "Delivery",
        "district": "HOJAI",
        "statename": "ASSAM",
        "latitude": "26.3486944",
        "longitude": "92.7005000"
    },
    {
        "circlename": "Assam Circle",
        "regionname": "Dibrugarh Region",
        "divisionname": "Nagaon Division",
        "officename": "Hawaipur B.O",
        "pincode": "782446",
        "officetype": "BO",
        "delivery": "Delivery",
        "district": "HOJAI",
        "statename": "ASSAM",
        "latitude": "26.3486944",
        "longitude": "92.7005000"
    },
    {
        "circlename": "Assam Circle",
        "regionname": "Dibrugarh Region",
        "divisionname": "Nagaon Division",
        "officename": "Udalani Bazar B.O",
        "pincode": "782446",
        "officetype": "BO",
        "delivery": "Delivery",
        "district": "HOJAI",
        "statename": "ASSAM",
        "latitude": "26.3486944",
        "longitude": "92.7005000"
    },
    {
        "circlename": "Assam Circle",
        "regionname": "Dibrugarh Region",
        "divisionname": "Nagaon Division",
        "officename": "Longnit B.O",
        "pincode": "782461",
        "officetype": "BO",
        "delivery": "Delivery",
        "district": "KARBI ANGLONG",
        "statename": "ASSAM",
        "latitude": "25.8394444",
        "longitude": "93.4376944"
    },
    {
        "circlename": "Assam Circle",
        "regionname": "Dibrugarh Region",
        "divisionname": "Nagaon Division",
        "officename": "Choudhury Bazar B.O",
        "pincode": "782439",
        "officetype": "BO",
        "delivery": "Delivery",
        "district": "HOJAI",
        "statename": "ASSAM",
        "latitude": "26.3503000",
        "longitude": "92.6922000"
    },
    {
        "circlename": "Assam Circle",
        "regionname": "Dibrugarh Region",
        "divisionname": "Nagaon Division",
        "officename": "Kathpara Bazar B.O",
        "pincode": "782120",
        "officetype": "BO",
        "delivery": "Delivery",
        "district": "NAGAON",
        "statename": "ASSAM",
        "latitude": "26.3503000",
        "longitude": "92.6922000"
    },
    {
        "circlename": "Assam Circle",
        "regionname": "Dibrugarh Region",
        "divisionname": "Nagaon Division",
        "officename": "Borkola B.O",
        "pincode": "782144",
        "officetype": "BO",
        "delivery": "Delivery",
        "district": "NAGAON",
        "statename": "ASSAM",
        "latitude": "26.2627800",
        "longitude": "92.6417800"
    },
    {
        "circlename": "Assam Circle",
        "regionname": "Dibrugarh Region",
        "divisionname": "Nagaon Division",
        "officename": "Balikatia B.O",
        "pincode": "782122",
        "officetype": "BO",
        "delivery": "Delivery",
        "district": "NAGAON",
        "statename": "ASSAM",
        "latitude": "26.3503000",
        "longitude": "92.6922000"
    },
    {
        "circlename": "Assam Circle",
        "regionname": "Dibrugarh Region",
        "divisionname": "Nagaon Division",
        "officename": "Chalapathar B.O",
        "pincode": "782122",
        "officetype": "BO",
        "delivery": "Delivery",
        "district": "NAGAON",
        "statename": "ASSAM",
        "latitude": "26.3503000",
        "longitude": "92.6922000"
    },
    {
        "circlename": "Assam Circle",
        "regionname": "Dibrugarh Region",
        "divisionname": "Nagaon Division",
        "officename": "Dhaniabheti B.O",
        "pincode": "782122",
        "officetype": "BO",
        "delivery": "Delivery",
        "district": "NAGAON",
        "statename": "ASSAM",
        "latitude": "26.3503000",
        "longitude": "92.6922000"
    },
    {
        "circlename": "Assam Circle",
        "regionname": "Dibrugarh Region",
        "divisionname": "Nagaon Division",
        "officename": "Gakhajua B.O",
        "pincode": "782142",
        "officetype": "BO",
        "delivery": "Delivery",
        "district": "NAGAON",
        "statename": "ASSAM",
        "latitude": "26.3029166",
        "longitude": "92.6258888"
    },
    {
        "circlename": "Assam Circle",
        "regionname": "Dibrugarh Region",
        "divisionname": "Nagaon Division",
        "officename": "Dungarpar B.O",
        "pincode": "782121",
        "officetype": "BO",
        "delivery": "Delivery",
        "district": "MARIGAON",
        "statename": "ASSAM",
        "latitude": "26.3503000",
        "longitude": "92.6922000"
    },
    {
        "circlename": "Assam Circle",
        "regionname": "Dibrugarh Region",
        "divisionname": "Nagaon Division",
        "officename": "Gagalmari B.O",
        "pincode": "782121",
        "officetype": "BO",
        "delivery": "Delivery",
        "district": "MARIGAON",
        "statename": "ASSAM",
        "latitude": "26.3503000",
        "longitude": "92.6922000"
    },
    {
        "circlename": "Assam Circle",
        "regionname": "Dibrugarh Region",
        "divisionname": "Nagaon Division",
        "officename": "Geruagaon B.O",
        "pincode": "782121",
        "officetype": "BO",
        "delivery": "Delivery",
        "district": "MARIGAON",
        "statename": "ASSAM",
        "latitude": "26.3503000",
        "longitude": "92.6922000"
    },
    {
        "circlename": "Assam Circle",
        "regionname": "Dibrugarh Region",
        "divisionname": "Nagaon Division",
        "officename": "Sondoba B.O",
        "pincode": "782121",
        "officetype": "BO",
        "delivery": "Delivery",
        "district": "MARIGAON",
        "statename": "ASSAM",
        "latitude": "26.3503000",
        "longitude": "92.6922000"
    },
    {
        "circlename": "Assam Circle",
        "regionname": "Dibrugarh Region",
        "divisionname": "Nagaon Division",
        "officename": "Beltola B.O",
        "pincode": "782425",
        "officetype": "BO",
        "delivery": "Delivery",
        "district": "NAGAON",
        "statename": "ASSAM",
        "latitude": "26.1214000",
        "longitude": "92.3057000"
    },
    {
        "circlename": "Assam Circle",
        "regionname": "Dibrugarh Region",
        "divisionname": "Nagaon Division",
        "officename": "Kakatigaon B.O",
        "pincode": "782425",
        "officetype": "BO",
        "delivery": "Delivery",
        "district": "NAGAON",
        "statename": "ASSAM",
        "latitude": "26.1214000",
        "longitude": "92.3057000"
    },
    {
        "circlename": "Assam Circle",
        "regionname": "Dibrugarh Region",
        "divisionname": "Nagaon Division",
        "officename": "Laopani B.O",
        "pincode": "782425",
        "officetype": "BO",
        "delivery": "Delivery",
        "district": "NAGAON",
        "statename": "ASSAM",
        "latitude": "26.1214000",
        "longitude": "92.3057000"
    },
    {
        "circlename": "Assam Circle",
        "regionname": "Dibrugarh Region",
        "divisionname": "Nagaon Division",
        "officename": "Alikuchi B.O",
        "pincode": "782106",
        "officetype": "BO",
        "delivery": "Delivery",
        "district": "NAGAON",
        "statename": "ASSAM",
        "latitude": "26.2521000",
        "longitude": "92.3423000"
    },
    {
        "circlename": "Assam Circle",
        "regionname": "Dibrugarh Region",
        "divisionname": "Nagaon Division",
        "officename": "Chatabar B.O",
        "pincode": "782106",
        "officetype": "BO",
        "delivery": "Delivery",
        "district": "NAGAON",
        "statename": "ASSAM",
        "latitude": "26.2521000",
        "longitude": "92.3423000"
    },
    {
        "circlename": "Assam Circle",
        "regionname": "Dibrugarh Region",
        "divisionname": "Nagaon Division",
        "officename": "Modertoli B.O",
        "pincode": "782440",
        "officetype": "BO",
        "delivery": "Delivery",
        "district": "HOJAI",
        "statename": "ASSAM",
        "latitude": "26.1166000",
        "longitude": "92.8666000"
    },
    {
        "circlename": "Assam Circle",
        "regionname": "Dibrugarh Region",
        "divisionname": "Nagaon Division",
        "officename": "Ahatguri B.O",
        "pincode": "782412",
        "officetype": "BO",
        "delivery": "Delivery",
        "district": "MARIGAON",
        "statename": "ASSAM",
        "latitude": "26.190300000000001",
        "longitude": "92.373900000000006"
    },
    {
        "circlename": "Assam Circle",
        "regionname": "Dibrugarh Region",
        "divisionname": "Nagaon Division",
        "officename": "Chamuagaon B.O",
        "pincode": "782123",
        "officetype": "BO",
        "delivery": "Delivery",
        "district": "NAGAON",
        "statename": "ASSAM",
        "latitude": "26.4665277",
        "longitude": "92.4740277"
    },
    {
        "circlename": "Assam Circle",
        "regionname": "Dibrugarh Region",
        "divisionname": "Nagaon Division",
        "officename": "Dhing Bazar B.O",
        "pincode": "782123",
        "officetype": "BO",
        "delivery": "Delivery",
        "district": "NAGAON",
        "statename": "ASSAM",
        "latitude": "26.4665277",
        "longitude": "92.4740277"
    },
    {
        "circlename": "Assam Circle",
        "regionname": "Dibrugarh Region",
        "divisionname": "Nagaon Division",
        "officename": "Dhupaguri B.O",
        "pincode": "782123",
        "officetype": "BO",
        "delivery": "Delivery",
        "district": "NAGAON",
        "statename": "ASSAM",
        "latitude": "26.4665277",
        "longitude": "92.4740277"
    },
    {
        "circlename": "Assam Circle",
        "regionname": "Dibrugarh Region",
        "divisionname": "Nagaon Division",
        "officename": "Sonarigaon B.O",
        "pincode": "782123",
        "officetype": "BO",
        "delivery": "Delivery",
        "district": "NAGAON",
        "statename": "ASSAM",
        "latitude": "26.4665277",
        "longitude": "92.4740277"
    },
    {
        "circlename": "Assam Circle",
        "regionname": "Dibrugarh Region",
        "divisionname": "Nagaon Division",
        "officename": "Chillangani B.O",
        "pincode": "782002",
        "officetype": "BO",
        "delivery": "Delivery",
        "district": "NAGAON",
        "statename": "ASSAM",
        "latitude": "26.3517500",
        "longitude": "92.6782777"
    },
    {
        "circlename": "Assam Circle",
        "regionname": "Dibrugarh Region",
        "divisionname": "Nagaon Division",
        "officename": "Kachamari Boragaon B.O",
        "pincode": "782002",
        "officetype": "BO",
        "delivery": "Delivery",
        "district": "NAGAON",
        "statename": "ASSAM",
        "latitude": "26.3517500",
        "longitude": "92.6782777"
    },
    {
        "circlename": "Assam Circle",
        "regionname": "Dibrugarh Region",
        "divisionname": "Nagaon Division",
        "officename": "Senchowa B.O",
        "pincode": "782002",
        "officetype": "BO",
        "delivery": "Delivery",
        "district": "NAGAON",
        "statename": "ASSAM",
        "latitude": "26.3517500",
        "longitude": "92.6782777"
    },
    {
        "circlename": "Assam Circle",
        "regionname": "Dibrugarh Region",
        "divisionname": "Nagaon Division",
        "officename": "Solmari B.O",
        "pincode": "782002",
        "officetype": "BO",
        "delivery": "Delivery",
        "district": "NAGAON",
        "statename": "ASSAM",
        "latitude": "26.3517500",
        "longitude": "92.6782777"
    },
    {
        "circlename": "Assam Circle",
        "regionname": "Dibrugarh Region",
        "divisionname": "Nagaon Division",
        "officename": "Dimaruguri B.O",
        "pincode": "782003",
        "officetype": "BO",
        "delivery": "Delivery",
        "district": "NAGAON",
        "statename": "ASSAM",
        "latitude": "26.3503000",
        "longitude": "92.6922000"
    },
    {
        "circlename": "Assam Circle",
        "regionname": "Dibrugarh Region",
        "divisionname": "Nagaon Division",
        "officename": "Madhupur B.O",
        "pincode": "782003",
        "officetype": "BO",
        "delivery": "Delivery",
        "district": "NAGAON",
        "statename": "ASSAM",
        "latitude": "26.3503000",
        "longitude": "92.6922000"
    },
    {
        "circlename": "Assam Circle",
        "regionname": "Dibrugarh Region",
        "divisionname": "Nagaon Division",
        "officename": "Mohkhuli B.O",
        "pincode": "782003",
        "officetype": "BO",
        "delivery": "Delivery",
        "district": "NAGAON",
        "statename": "ASSAM",
        "latitude": "26.3503000",
        "longitude": "92.6922000"
    },
    {
        "circlename": "Assam Circle",
        "regionname": "Dibrugarh Region",
        "divisionname": "Nagaon Division",
        "officename": "Palasani B.O",
        "pincode": "782003",
        "officetype": "BO",
        "delivery": "Delivery",
        "district": "NAGAON",
        "statename": "ASSAM",
        "latitude": "26.3503000",
        "longitude": "92.6922000"
    },
    {
        "circlename": "Assam Circle",
        "regionname": "Dibrugarh Region",
        "divisionname": "Nagaon Division",
        "officename": "Pathori B.O",
        "pincode": "782003",
        "officetype": "BO",
        "delivery": "Delivery",
        "district": "NAGAON",
        "statename": "ASSAM",
        "latitude": "26.3503000",
        "longitude": "92.6922000"
    },
    {
        "circlename": "Assam Circle",
        "regionname": "Dibrugarh Region",
        "divisionname": "Nagaon Division",
        "officename": "Uriagaon B.O",
        "pincode": "782003",
        "officetype": "BO",
        "delivery": "Delivery",
        "district": "NAGAON",
        "statename": "ASSAM",
        "latitude": "26.3503000",
        "longitude": "92.6922000"
    },
    {
        "circlename": "Assam Circle",
        "regionname": "Dibrugarh Region",
        "divisionname": "Nagaon Division",
        "officename": "Amguri B.O",
        "pincode": "782136",
        "officetype": "BO",
        "delivery": "Delivery",
        "district": "NAGAON",
        "statename": "ASSAM",
        "latitude": "26.6357777",
        "longitude": "92.9842778"
    },
    {
        "circlename": "Assam Circle",
        "regionname": "Dibrugarh Region",
        "divisionname": "Nagaon Division",
        "officename": "Kathterongaon B.O",
        "pincode": "782136",
        "officetype": "BO",
        "delivery": "Delivery",
        "district": "KARBI ANGLONG",
        "statename": "ASSAM",
        "latitude": "26.6357777",
        "longitude": "92.9842778"
    },
    {
        "circlename": "Assam Circle",
        "regionname": "Dibrugarh Region",
        "divisionname": "Nagaon Division",
        "officename": "Kuthori B.O",
        "pincode": "782136",
        "officetype": "BO",
        "delivery": "Delivery",
        "district": "NAGAON",
        "statename": "ASSAM",
        "latitude": "26.6357777",
        "longitude": "92.9842778"
    },
    {
        "circlename": "Assam Circle",
        "regionname": "Dibrugarh Region",
        "divisionname": "Nagaon Division",
        "officename": "Seconee Borhola B.O",
        "pincode": "782136",
        "officetype": "BO",
        "delivery": "Delivery",
        "district": "NAGAON",
        "statename": "ASSAM",
        "latitude": "26.6357777",
        "longitude": "92.9842778"
    },
    {
        "circlename": "Assam Circle",
        "regionname": "Dibrugarh Region",
        "divisionname": "Nagaon Division",
        "officename": "Bhurbandha B.O",
        "pincode": "782104",
        "officetype": "BO",
        "delivery": "Delivery",
        "district": "MARIGAON",
        "statename": "ASSAM",
        "latitude": "26.2521000",
        "longitude": "92.3423000"
    },
    {
        "circlename": "Assam Circle",
        "regionname": "Dibrugarh Region",
        "divisionname": "Nagaon Division",
        "officename": "Nizdandua B.O",
        "pincode": "782104",
        "officetype": "BO",
        "delivery": "Delivery",
        "district": "MARIGAON",
        "statename": "ASSAM",
        "latitude": "26.2521000",
        "longitude": "92.3423000"
    },
    {
        "circlename": "Assam Circle",
        "regionname": "Dibrugarh Region",
        "divisionname": "Nagaon Division",
        "officename": "Patrabori B.O",
        "pincode": "782104",
        "officetype": "BO",
        "delivery": "Delivery",
        "district": "MARIGAON",
        "statename": "ASSAM",
        "latitude": "26.2521000",
        "longitude": "92.3423000"
    },
    {
        "circlename": "Assam Circle",
        "regionname": "Dibrugarh Region",
        "divisionname": "Nagaon Division",
        "officename": "Patuakata B.O",
        "pincode": "782104",
        "officetype": "BO",
        "delivery": "Delivery",
        "district": "MARIGAON",
        "statename": "ASSAM",
        "latitude": "26.2521000",
        "longitude": "92.3423000"
    },
    {
        "circlename": "Assam Circle",
        "regionname": "Dibrugarh Region",
        "divisionname": "Nagaon Division",
        "officename": "Sapmarigaon B.O",
        "pincode": "782104",
        "officetype": "BO",
        "delivery": "Delivery",
        "district": "MARIGAON",
        "statename": "ASSAM",
        "latitude": "26.2521000",
        "longitude": "92.3423000"
    },
    {
        "circlename": "Assam Circle",
        "regionname": "Dibrugarh Region",
        "divisionname": "Nagaon Division",
        "officename": "Tarabori Kalsila Satra B.O",
        "pincode": "782104",
        "officetype": "BO",
        "delivery": "Delivery",
        "district": "MARIGAON",
        "statename": "ASSAM",
        "latitude": "26.2521000",
        "longitude": "92.3423000"
    },
    {
        "circlename": "Assam Circle",
        "regionname": "Dibrugarh Region",
        "divisionname": "Nagaon Division",
        "officename": "Chitalmari Beel B.O",
        "pincode": "782124",
        "officetype": "BO",
        "delivery": "Delivery",
        "district": "NAGAON",
        "statename": "ASSAM",
        "latitude": "26.4132222",
        "longitude": "92.7427222"
    },
    {
        "circlename": "Assam Circle",
        "regionname": "Dibrugarh Region",
        "divisionname": "Nagaon Division",
        "officename": "Leteripar Bazar B.O",
        "pincode": "782124",
        "officetype": "BO",
        "delivery": "Delivery",
        "district": "NAGAON",
        "statename": "ASSAM",
        "latitude": "26.4132222",
        "longitude": "92.7427222"
    },
    {
        "circlename": "Assam Circle",
        "regionname": "Dibrugarh Region",
        "divisionname": "Nagaon Division",
        "officename": "Pub Baralimari B.O",
        "pincode": "782124",
        "officetype": "BO",
        "delivery": "Delivery",
        "district": "NAGAON",
        "statename": "ASSAM",
        "latitude": "26.4132222",
        "longitude": "92.7427222"
    },
    {
        "circlename": "Assam Circle",
        "regionname": "Dibrugarh Region",
        "divisionname": "Nagaon Division",
        "officename": "Deosal B.O",
        "pincode": "782413",
        "officetype": "BO",
        "delivery": "Delivery",
        "district": "MARIGAON",
        "statename": "ASSAM",
        "latitude": "26.3503000",
        "longitude": "92.6922000"
    },
    {
        "circlename": "Assam Circle",
        "regionname": "Dibrugarh Region",
        "divisionname": "Nagaon Division",
        "officename": "Patsari B.O",
        "pincode": "782413",
        "officetype": "BO",
        "delivery": "Delivery",
        "district": "WEST KARBI ANGLONG",
        "statename": "ASSAM",
        "latitude": "26.3503000",
        "longitude": "92.6922000"
    },
    {
        "circlename": "Assam Circle",
        "regionname": "Dibrugarh Region",
        "divisionname": "Nagaon Division",
        "officename": "Umlapher BO",
        "pincode": "782413",
        "officetype": "BO",
        "delivery": "Delivery",
        "district": "MARIGAON",
        "statename": "ASSAM",
        "latitude": "25.783850000000001",
        "longitude": "92.208889999999997"
    },
    {
        "circlename": "Assam Circle",
        "regionname": "Dibrugarh Region",
        "divisionname": "Nagaon Division",
        "officename": "Rumphom BO",
        "pincode": "782413",
        "officetype": "BO",
        "delivery": "Delivery",
        "district": "MARIGAON",
        "statename": "ASSAM",
        "latitude": "25.941600000000001",
        "longitude": "92.256079999999997"
    },
    {
        "circlename": "Assam Circle",
        "regionname": "Dibrugarh Region",
        "divisionname": "Nagaon Division",
        "officename": "Roman Marjong BO",
        "pincode": "782413",
        "officetype": "BO",
        "delivery": "Delivery",
        "district": "MARIGAON",
        "statename": "ASSAM",
        "latitude": "25.956849999999999",
        "longitude": "92.425719999999998"
    },
    {
        "circlename": "Assam Circle",
        "regionname": "Dibrugarh Region",
        "divisionname": "Nagaon Division",
        "officename": "Tetelisara B.O",
        "pincode": "782426",
        "officetype": "BO",
        "delivery": "Delivery",
        "district": "NAGAON",
        "statename": "ASSAM",
        "latitude": "26.1578611",
        "longitude": "92.6592777"
    },
    {
        "circlename": "Assam Circle",
        "regionname": "Dibrugarh Region",
        "divisionname": "Nagaon Division",
        "officename": "Goroimaripathar B.O",
        "pincode": "782126",
        "officetype": "BO",
        "delivery": "Delivery",
        "district": "MARIGAON",
        "statename": "ASSAM",
        "latitude": "26.4535000",
        "longitude": "92.4245000"
    },
    {
        "circlename": "Assam Circle",
        "regionname": "Dibrugarh Region",
        "divisionname": "Nagaon Division",
        "officename": "No.1 Gayangaon B.O",
        "pincode": "782126",
        "officetype": "BO",
        "delivery": "Delivery",
        "district": "NAGAON",
        "statename": "ASSAM",
        "latitude": "26.4535000",
        "longitude": "92.4245000"
    },
    {
        "circlename": "Assam Circle",
        "regionname": "Dibrugarh Region",
        "divisionname": "Nagaon Division",
        "officename": "Sagunbahipathar B.O",
        "pincode": "782126",
        "officetype": "BO",
        "delivery": "Delivery",
        "district": "MARIGAON",
        "statename": "ASSAM",
        "latitude": "26.4535000",
        "longitude": "92.4245000"
    },
    {
        "circlename": "Assam Circle",
        "regionname": "Dibrugarh Region",
        "divisionname": "Nagaon Division",
        "officename": "Ghagua B.O",
        "pincode": "782105",
        "officetype": "BO",
        "delivery": "Delivery",
        "district": "MARIGAON",
        "statename": "ASSAM",
        "latitude": "26.2529420",
        "longitude": "92.3356890"
    },
    {
        "circlename": "Assam Circle",
        "regionname": "Dibrugarh Region",
        "divisionname": "Nagaon Division",
        "officename": "Udari B.O",
        "pincode": "782105",
        "officetype": "BO",
        "delivery": "Delivery",
        "district": "MARIGAON",
        "statename": "ASSAM",
        "latitude": "26.2529420",
        "longitude": "92.3356890"
    },
    {
        "circlename": "Assam Circle",
        "regionname": "Dibrugarh Region",
        "divisionname": "Nagaon Division",
        "officename": "Chalchali B.O",
        "pincode": "782141",
        "officetype": "BO",
        "delivery": "Delivery",
        "district": "NAGAON",
        "statename": "ASSAM",
        "latitude": "26.3735000",
        "longitude": "92.7940000"
    },
    {
        "circlename": "Assam Circle",
        "regionname": "Dibrugarh Region",
        "divisionname": "Nagaon Division",
        "officename": "Barapujia B.O",
        "pincode": "782103",
        "officetype": "BO",
        "delivery": "Delivery",
        "district": "NAGAON",
        "statename": "ASSAM",
        "latitude": "26.2280000",
        "longitude": "92.5201666"
    },
    {
        "circlename": "Assam Circle",
        "regionname": "Dibrugarh Region",
        "divisionname": "Nagaon Division",
        "officename": "Fulaguri B.O",
        "pincode": "782103",
        "officetype": "BO",
        "delivery": "Delivery",
        "district": "NAGAON",
        "statename": "ASSAM",
        "latitude": "26.2280000",
        "longitude": "92.5201666"
    },
    {
        "circlename": "Assam Circle",
        "regionname": "Dibrugarh Region",
        "divisionname": "Nagaon Division",
        "officename": "Dighali B.O",
        "pincode": "782125",
        "officetype": "BO",
        "delivery": "Delivery",
        "district": "NAGAON",
        "statename": "ASSAM",
        "latitude": "26.4480833",
        "longitude": "92.6596666"
    },
    {
        "circlename": "Assam Circle",
        "regionname": "Dibrugarh Region",
        "divisionname": "Nagaon Division",
        "officename": "Gatonga B.O",
        "pincode": "782125",
        "officetype": "BO",
        "delivery": "Delivery",
        "district": "NAGAON",
        "statename": "ASSAM",
        "latitude": "26.4480833",
        "longitude": "92.6596666"
    },
    {
        "circlename": "Assam Circle",
        "regionname": "Dibrugarh Region",
        "divisionname": "Nagaon Division",
        "officename": "Saidoria B.O",
        "pincode": "782125",
        "officetype": "BO",
        "delivery": "Delivery",
        "district": "NAGAON",
        "statename": "ASSAM",
        "latitude": "26.4480083",
        "longitude": "92.6596666"
    },
    {
        "circlename": "Assam Circle",
        "regionname": "Dibrugarh Region",
        "divisionname": "Nagaon Division",
        "officename": "Teliachapari B.O",
        "pincode": "782125",
        "officetype": "BO",
        "delivery": "Delivery",
        "district": "NAGAON",
        "statename": "ASSAM",
        "latitude": "26.4480833",
        "longitude": "92.6596666"
    },
    {
        "circlename": "Assam Circle",
        "regionname": "Dibrugarh Region",
        "divisionname": "Nagaon Division",
        "officename": "Chakitop B.O",
        "pincode": "782140",
        "officetype": "BO",
        "delivery": "Delivery",
        "district": "NAGAON",
        "statename": "ASSAM",
        "latitude": "26.4159000",
        "longitude": "92.8397000"
    },
    {
        "circlename": "Assam Circle",
        "regionname": "Dibrugarh Region",
        "divisionname": "Nagaon Division",
        "officename": "Kurhimari B.O",
        "pincode": "782143",
        "officetype": "BO",
        "delivery": "Delivery",
        "district": "NAGAON",
        "statename": "ASSAM",
        "latitude": "26.3618000",
        "longitude": "92.5545000"
    },
    {
        "circlename": "Assam Circle",
        "regionname": "Dibrugarh Region",
        "divisionname": "Sibsagar Division",
        "officename": "Bholaguri B.O",
        "pincode": "785611",
        "officetype": "BO",
        "delivery": "Delivery",
        "district": "GOLAGHAT",
        "statename": "ASSAM",
        "latitude": "26.4008000",
        "longitude": "93.4834000"
    },
    {
        "circlename": "Assam Circle",
        "regionname": "Dibrugarh Region",
        "divisionname": "Sibsagar Division",
        "officename": "Nakkati B.O",
        "pincode": "785611",
        "officetype": "BO",
        "delivery": "Delivery",
        "district": "GOLAGHAT",
        "statename": "ASSAM",
        "latitude": "26.4008000",
        "longitude": "93.4834000"
    },
    {
        "circlename": "Assam Circle",
        "regionname": "Dibrugarh Region",
        "divisionname": "Sibsagar Division",
        "officename": "Kordoiguri B.O",
        "pincode": "785602",
        "officetype": "BO",
        "delivery": "Delivery",
        "district": "GOLAGHAT",
        "statename": "ASSAM",
        "latitude": "26.2813000",
        "longitude": "93.8840000"
    },
    {
        "circlename": "Assam Circle",
        "regionname": "Dibrugarh Region",
        "divisionname": "Sibsagar Division",
        "officename": "Silonijan B.O",
        "pincode": "785602",
        "officetype": "BO",
        "delivery": "Delivery",
        "district": "GOLAGHAT",
        "statename": "ASSAM",
        "latitude": "26.2813000",
        "longitude": "93.8840000"
    },
    {
        "circlename": "Assam Circle",
        "regionname": "Dibrugarh Region",
        "divisionname": "Sibsagar Division",
        "officename": "Upper Lengtha B.O",
        "pincode": "785602",
        "officetype": "BO",
        "delivery": "Delivery",
        "district": "GOLAGHAT",
        "statename": "ASSAM",
        "latitude": "26.2813000",
        "longitude": "93.8840000"
    },
    {
        "circlename": "Assam Circle",
        "regionname": "Dibrugarh Region",
        "divisionname": "Sibsagar Division",
        "officename": "Batiporia B.O",
        "pincode": "785618",
        "officetype": "BO",
        "delivery": "Delivery",
        "district": "GOLAGHAT",
        "statename": "ASSAM",
        "latitude": "26.3418000",
        "longitude": "94.0720000"
    },
    {
        "circlename": "Assam Circle",
        "regionname": "Dibrugarh Region",
        "divisionname": "Sibsagar Division",
        "officename": "Missamora B.O",
        "pincode": "785618",
        "officetype": "BO",
        "delivery": "Delivery",
        "district": "GOLAGHAT",
        "statename": "ASSAM",
        "latitude": "26.3418000",
        "longitude": "94.0720000"
    },
    {
        "circlename": "Assam Circle",
        "regionname": "Dibrugarh Region",
        "divisionname": "Sibsagar Division",
        "officename": "Naharani B.O",
        "pincode": "785618",
        "officetype": "BO",
        "delivery": "Delivery",
        "district": "GOLAGHAT",
        "statename": "ASSAM",
        "latitude": "26.3418000",
        "longitude": "94.0720000"
    },
    {
        "circlename": "Assam Circle",
        "regionname": "Dibrugarh Region",
        "divisionname": "Sibsagar Division",
        "officename": "Howtoly B.O",
        "pincode": "785702",
        "officetype": "BO",
        "delivery": "Delivery",
        "district": "GOLAGHAT",
        "statename": "ASSAM",
        "latitude": "26.5001388",
        "longitude": "93.9724444"
    },
    {
        "circlename": "Assam Circle",
        "regionname": "Dibrugarh Region",
        "divisionname": "Sibsagar Division",
        "officename": "Diffolu T.E. B.O",
        "pincode": "785612",
        "officetype": "BO",
        "delivery": "Delivery",
        "district": "GOLAGHAT",
        "statename": "ASSAM",
        "latitude": "26.6406666",
        "longitude": "93.6009166"
    },
    {
        "circlename": "Assam Circle",
        "regionname": "Dibrugarh Region",
        "divisionname": "Sibsagar Division",
        "officename": "Dolamara B.O",
        "pincode": "785612",
        "officetype": "BO",
        "delivery": "Delivery",
        "district": "GOLAGHAT",
        "statename": "ASSAM",
        "latitude": "26.6406666",
        "longitude": "93.6009166"
    },
    {
        "circlename": "Assam Circle",
        "regionname": "Dibrugarh Region",
        "divisionname": "Sibsagar Division",
        "officename": "Lakhowjaan Tiniali B.O",
        "pincode": "785612",
        "officetype": "BO",
        "delivery": "Delivery",
        "district": "GOLAGHAT",
        "statename": "ASSAM",
        "latitude": "26.6406666",
        "longitude": "93.6009166"
    },
    {
        "circlename": "Assam Circle",
        "regionname": "Dibrugarh Region",
        "divisionname": "Sibsagar Division",
        "officename": "Naharjaan B.O",
        "pincode": "785612",
        "officetype": "BO",
        "delivery": "Delivery",
        "district": "GOLAGHAT",
        "statename": "ASSAM",
        "latitude": "26.6406666",
        "longitude": "93.6009166"
    },
    {
        "circlename": "Assam Circle",
        "regionname": "Dibrugarh Region",
        "divisionname": "Sibsagar Division",
        "officename": "Dani Chapori B.O",
        "pincode": "785614",
        "officetype": "BO",
        "delivery": "Delivery",
        "district": "GOLAGHAT",
        "statename": "ASSAM",
        "latitude": "26.7092500",
        "longitude": "93.9751111"
    },
    {
        "circlename": "Assam Circle",
        "regionname": "Dibrugarh Region",
        "divisionname": "Sibsagar Division",
        "officename": "Hahpani B.O",
        "pincode": "785614",
        "officetype": "BO",
        "delivery": "Delivery",
        "district": "GOLAGHAT",
        "statename": "ASSAM",
        "latitude": "26.7092500",
        "longitude": "93.9751111"
    },
    {
        "circlename": "Assam Circle",
        "regionname": "Dibrugarh Region",
        "divisionname": "Sibsagar Division",
        "officename": "Rowmara B.O",
        "pincode": "785614",
        "officetype": "BO",
        "delivery": "Delivery",
        "district": "MAJULI",
        "statename": "ASSAM",
        "latitude": "26.7092500",
        "longitude": "93.9751111"
    },
    {
        "circlename": "Assam Circle",
        "regionname": "Dibrugarh Region",
        "divisionname": "Sibsagar Division",
        "officename": "Kathalguri B.O",
        "pincode": "785622",
        "officetype": "BO",
        "delivery": "Delivery",
        "district": "GOLAGHAT",
        "statename": "ASSAM",
        "latitude": "26.3608000",
        "longitude": "93.5906000"
    },
    {
        "circlename": "Assam Circle",
        "regionname": "Dibrugarh Region",
        "divisionname": "Sibsagar Division",
        "officename": "Nabheta B.O",
        "pincode": "785622",
        "officetype": "BO",
        "delivery": "Delivery",
        "district": "GOLAGHAT",
        "statename": "ASSAM",
        "latitude": "26.3608000",
        "longitude": "93.5906000"
    },
    {
        "circlename": "Assam Circle",
        "regionname": "Dibrugarh Region",
        "divisionname": "Sibsagar Division",
        "officename": "Goriatika Barpathar B.O",
        "pincode": "785619",
        "officetype": "BO",
        "delivery": "Delivery",
        "district": "GOLAGHAT",
        "statename": "ASSAM",
        "latitude": "26.5122500",
        "longitude": "93.9716944"
    },
    {
        "circlename": "Assam Circle",
        "regionname": "Dibrugarh Region",
        "divisionname": "Sibsagar Division",
        "officename": "Kaziranga B.O",
        "pincode": "785609",
        "officetype": "BO",
        "delivery": "Delivery",
        "district": "GOLAGHAT",
        "statename": "ASSAM",
        "latitude": "26.5355000",
        "longitude": "94.3209000"
    },
    {
        "circlename": "Assam Circle",
        "regionname": "Dibrugarh Region",
        "divisionname": "Sibsagar Division",
        "officename": "Bokial B.O",
        "pincode": "785613",
        "officetype": "BO",
        "delivery": "Delivery",
        "district": "GOLAGHAT",
        "statename": "ASSAM",
        "latitude": "26.5833000",
        "longitude": "93.8000000"
    },
    {
        "circlename": "Assam Circle",
        "regionname": "Dibrugarh Region",
        "divisionname": "Sibsagar Division",
        "officename": "Ratanpur Sishupani B.O",
        "pincode": "785705",
        "officetype": "BO",
        "delivery": "Delivery",
        "district": "GOLAGHAT",
        "statename": "ASSAM",
        "latitude": "26.2229000",
        "longitude": "94.0332000"
    },
    {
        "circlename": "Assam Circle",
        "regionname": "Dibrugarh Region",
        "divisionname": "Sibsagar Division",
        "officename": "Karuabahi Satra B.O",
        "pincode": "785615",
        "officetype": "BO",
        "delivery": "Delivery",
        "district": "GOLAGHAT",
        "statename": "ASSAM",
        "latitude": "26.7172000",
        "longitude": "93.7111000"
    },
    {
        "circlename": "Assam Circle",
        "regionname": "Dibrugarh Region",
        "divisionname": "Sibsagar Division",
        "officename": "Kuruabahi Tiniali B.O",
        "pincode": "785615",
        "officetype": "BO",
        "delivery": "Delivery",
        "district": "GOLAGHAT",
        "statename": "ASSAM",
        "latitude": "26.7172000",
        "longitude": "93.7111000"
    },
    {
        "circlename": "Assam Circle",
        "regionname": "Dibrugarh Region",
        "divisionname": "Sibsagar Division",
        "officename": "Ghiladhari B.O",
        "pincode": "785603",
        "officetype": "BO",
        "delivery": "Delivery",
        "district": "GOLAGHAT",
        "statename": "ASSAM",
        "latitude": "26.1114000",
        "longitude": "94.1426000"
    },
    {
        "circlename": "Assam Circle",
        "regionname": "Dibrugarh Region",
        "divisionname": "Sibsagar Division",
        "officename": "Chukiapather B.O",
        "pincode": "785601",
        "officetype": "BO",
        "delivery": "Delivery",
        "district": "GOLAGHAT",
        "statename": "ASSAM",
        "latitude": "26.1978333",
        "longitude": "93.8606944"
    },
    {
        "circlename": "Assam Circle",
        "regionname": "Dibrugarh Region",
        "divisionname": "Sibsagar Division",
        "officename": "Gohaingaon B.O",
        "pincode": "785601",
        "officetype": "BO",
        "delivery": "Delivery",
        "district": "GOLAGHAT",
        "statename": "ASSAM",
        "latitude": "26.1978333",
        "longitude": "93.8606944"
    },
    {
        "circlename": "Assam Circle",
        "regionname": "Dibrugarh Region",
        "divisionname": "Sibsagar Division",
        "officename": "Borkhelia Goon B.O",
        "pincode": "785101",
        "officetype": "BO",
        "delivery": "Delivery",
        "district": "JORHAT",
        "statename": "ASSAM",
        "latitude": "26.4830000",
        "longitude": "94.1426000"
    },
    {
        "circlename": "Assam Circle",
        "regionname": "Dibrugarh Region",
        "divisionname": "Sibsagar Division",
        "officename": "Mokrong B.O",
        "pincode": "785631",
        "officetype": "BO",
        "delivery": "Delivery",
        "district": "JORHAT",
        "statename": "ASSAM",
        "latitude": "26.2652000",
        "longitude": "94.0758000"
    },
    {
        "circlename": "Assam Circle",
        "regionname": "Dibrugarh Region",
        "divisionname": "Sibsagar Division",
        "officename": "Pulikaitoni B.O",
        "pincode": "785631",
        "officetype": "BO",
        "delivery": "Delivery",
        "district": "JORHAT",
        "statename": "ASSAM",
        "latitude": "26.2652000",
        "longitude": "94.0758000"
    },
    {
        "circlename": "Assam Circle",
        "regionname": "Dibrugarh Region",
        "divisionname": "Sibsagar Division",
        "officename": "L Longidong BO",
        "pincode": "785631",
        "officetype": "BO",
        "delivery": "Delivery",
        "district": "NA",
        "statename": "ASSAM",
        "latitude": "26.4685",
        "longitude": "94.8092"
    },
    {
        "circlename": "Assam Circle",
        "regionname": "Dibrugarh Region",
        "divisionname": "Sibsagar Division",
        "officename": "Gojpuria B.O",
        "pincode": "785008",
        "officetype": "BO",
        "delivery": "Delivery",
        "district": "JORHAT",
        "statename": "ASSAM",
        "latitude": "26.7249444",
        "longitude": "94.2292500"
    },
    {
        "circlename": "Assam Circle",
        "regionname": "Dibrugarh Region",
        "divisionname": "Sibsagar Division",
        "officename": "Koronga B.O",
        "pincode": "785008",
        "officetype": "BO",
        "delivery": "Delivery",
        "district": "JORHAT",
        "statename": "ASSAM",
        "latitude": "26.7249444",
        "longitude": "94.2292500"
    },
    {
        "circlename": "Assam Circle",
        "regionname": "Dibrugarh Region",
        "divisionname": "Sibsagar Division",
        "officename": "Lichubari B.O",
        "pincode": "785008",
        "officetype": "BO",
        "delivery": "Delivery",
        "district": "JORHAT",
        "statename": "ASSAM",
        "latitude": "26.7249444",
        "longitude": "94.2292500"
    },
    {
        "circlename": "Assam Circle",
        "regionname": "Dibrugarh Region",
        "divisionname": "Sibsagar Division",
        "officename": "Chumaimari Missing Gaon B.O",
        "pincode": "785102",
        "officetype": "BO",
        "delivery": "Delivery",
        "district": "MAJULI",
        "statename": "ASSAM",
        "latitude": "26.7560000",
        "longitude": "94.2094000"
    },
    {
        "circlename": "Assam Circle",
        "regionname": "Dibrugarh Region",
        "divisionname": "Sibsagar Division",
        "officename": "Chitadarchuk B.O",
        "pincode": "785104",
        "officetype": "BO",
        "delivery": "Delivery",
        "district": "MAJULI",
        "statename": "ASSAM",
        "latitude": "26.9836944",
        "longitude": "94.1563055"
    },
    {
        "circlename": "Assam Circle",
        "regionname": "Dibrugarh Region",
        "divisionname": "Sibsagar Division",
        "officename": "Goalgaon B.O",
        "pincode": "785104",
        "officetype": "BO",
        "delivery": "Delivery",
        "district": "MAJULI",
        "statename": "ASSAM",
        "latitude": "26.9836944",
        "longitude": "94.1563055"
    },
    {
        "circlename": "Assam Circle",
        "regionname": "Dibrugarh Region",
        "divisionname": "Sibsagar Division",
        "officename": "Hazarikagaon B.O",
        "pincode": "785104",
        "officetype": "BO",
        "delivery": "Delivery",
        "district": "MAJULI",
        "statename": "ASSAM",
        "latitude": "26.9836944",
        "longitude": "94.1563055"
    },
    {
        "circlename": "Assam Circle",
        "regionname": "Dibrugarh Region",
        "divisionname": "Sibsagar Division",
        "officename": "Jokaibowa B.O",
        "pincode": "785104",
        "officetype": "BO",
        "delivery": "Delivery",
        "district": "MAJULI",
        "statename": "ASSAM",
        "latitude": "26.9836944",
        "longitude": "94.1563055"
    },
    {
        "circlename": "Assam Circle",
        "regionname": "Dibrugarh Region",
        "divisionname": "Sibsagar Division",
        "officename": "Phutuki Chapori B.O",
        "pincode": "785104",
        "officetype": "BO",
        "delivery": "Delivery",
        "district": "MAJULI",
        "statename": "ASSAM",
        "latitude": "26.9836944",
        "longitude": "94.1563055"
    },
    {
        "circlename": "Assam Circle",
        "regionname": "Dibrugarh Region",
        "divisionname": "Sibsagar Division",
        "officename": "Borpomua Lakhimi B.O",
        "pincode": "785105",
        "officetype": "BO",
        "delivery": "Delivery",
        "district": "MAJULI",
        "statename": "ASSAM",
        "latitude": "26.7560000",
        "longitude": "94.2094000"
    },
    {
        "circlename": "Assam Circle",
        "regionname": "Dibrugarh Region",
        "divisionname": "Sibsagar Division",
        "officename": "Sri Ram Bonomali B.O",
        "pincode": "785105",
        "officetype": "BO",
        "delivery": "Delivery",
        "district": "MAJULI",
        "statename": "ASSAM",
        "latitude": "26.7560000",
        "longitude": "94.2094000"
    },
    {
        "circlename": "Assam Circle",
        "regionname": "Dibrugarh Region",
        "divisionname": "Sibsagar Division",
        "officename": "Bor Ahom Kathani B.O",
        "pincode": "785006",
        "officetype": "BO",
        "delivery": "Delivery",
        "district": "JORHAT",
        "statename": "ASSAM",
        "latitude": "26.7397222",
        "longitude": "94.1581944"
    },
    {
        "circlename": "Assam Circle",
        "regionname": "Dibrugarh Region",
        "divisionname": "Sibsagar Division",
        "officename": "Pulibor B.O",
        "pincode": "785006",
        "officetype": "BO",
        "delivery": "Non Delivery",
        "district": "JORHAT",
        "statename": "ASSAM",
        "latitude": "26.7397222",
        "longitude": "94.1581944"
    },
    {
        "circlename": "Assam Circle",
        "regionname": "Dibrugarh Region",
        "divisionname": "Sibsagar Division",
        "officename": "Dharigaon B.O",
        "pincode": "785107",
        "officetype": "BO",
        "delivery": "Delivery",
        "district": "JORHAT",
        "statename": "ASSAM",
        "latitude": "26.4822000",
        "longitude": "94.2141000"
    },
    {
        "circlename": "Assam Circle",
        "regionname": "Dibrugarh Region",
        "divisionname": "Sibsagar Division",
        "officename": "Kamarkhatowal B.O",
        "pincode": "785107",
        "officetype": "BO",
        "delivery": "Delivery",
        "district": "JORHAT",
        "statename": "ASSAM",
        "latitude": "26.4822000",
        "longitude": "94.2141000"
    },
    {
        "circlename": "Assam Circle",
        "regionname": "Dibrugarh Region",
        "divisionname": "Sibsagar Division",
        "officename": "Nahatia B.O",
        "pincode": "785108",
        "officetype": "BO",
        "delivery": "Delivery",
        "district": "JORHAT",
        "statename": "ASSAM",
        "latitude": "26.4924000",
        "longitude": "94.0959000"
    },
    {
        "circlename": "Assam Circle",
        "regionname": "Dibrugarh Region",
        "divisionname": "Sibsagar Division",
        "officename": "Bengenati Satra B.O",
        "pincode": "785106",
        "officetype": "BO",
        "delivery": "Delivery",
        "district": "MAJULI",
        "statename": "ASSAM",
        "latitude": "26.9445555",
        "longitude": "94.1636666"
    },
    {
        "circlename": "Assam Circle",
        "regionname": "Dibrugarh Region",
        "divisionname": "Sibsagar Division",
        "officename": "Botiamari B.O",
        "pincode": "785106",
        "officetype": "BO",
        "delivery": "Delivery",
        "district": "MAJULI",
        "statename": "ASSAM",
        "latitude": "26.9445555",
        "longitude": "94.1636666"
    },
    {
        "circlename": "Assam Circle",
        "regionname": "Dibrugarh Region",
        "divisionname": "Sibsagar Division",
        "officename": "Solmora B.O",
        "pincode": "785110",
        "officetype": "BO",
        "delivery": "Delivery",
        "district": "MAJULI",
        "statename": "ASSAM",
        "latitude": "26.7560000",
        "longitude": "94.2094000"
    },
    {
        "circlename": "Assam Circle",
        "regionname": "Dibrugarh Region",
        "divisionname": "Sibsagar Division",
        "officename": "Khatisona B.O",
        "pincode": "785635",
        "officetype": "BO",
        "delivery": "Delivery",
        "district": "JORHAT",
        "statename": "ASSAM",
        "latitude": "26.7080277",
        "longitude": "94.3964722"
    },
    {
        "circlename": "Assam Circle",
        "regionname": "Dibrugarh Region",
        "divisionname": "Sibsagar Division",
        "officename": "Mogroigaon B.O",
        "pincode": "785635",
        "officetype": "BO",
        "delivery": "Delivery",
        "district": "JORHAT",
        "statename": "ASSAM",
        "latitude": "26.7080277",
        "longitude": "94.3964722"
    },
    {
        "circlename": "Assam Circle",
        "regionname": "Dibrugarh Region",
        "divisionname": "Sibsagar Division",
        "officename": "Birina Shayek B.O",
        "pincode": "785632",
        "officetype": "BO",
        "delivery": "Delivery",
        "district": "JORHAT",
        "statename": "ASSAM",
        "latitude": "26.3530000",
        "longitude": "94.1140000"
    },
    {
        "circlename": "Assam Circle",
        "regionname": "Dibrugarh Region",
        "divisionname": "Sibsagar Division",
        "officename": "Hemlai B.O",
        "pincode": "785636",
        "officetype": "BO",
        "delivery": "Delivery",
        "district": "JORHAT",
        "statename": "ASSAM",
        "latitude": "26.7317000",
        "longitude": "94.4677000"
    },
    {
        "circlename": "Assam Circle",
        "regionname": "Dibrugarh Region",
        "divisionname": "Sibsagar Division",
        "officename": "Japichajia B.O",
        "pincode": "785636",
        "officetype": "BO",
        "delivery": "Delivery",
        "district": "JORHAT",
        "statename": "ASSAM",
        "latitude": "26.7317000",
        "longitude": "94.4677000"
    },
    {
        "circlename": "Assam Circle",
        "regionname": "Dibrugarh Region",
        "divisionname": "Sibsagar Division",
        "officename": "Majnoi B.O",
        "pincode": "785636",
        "officetype": "BO",
        "delivery": "Delivery",
        "district": "JORHAT",
        "statename": "ASSAM",
        "latitude": "26.7317000",
        "longitude": "94.4677000"
    },
    {
        "circlename": "Assam Circle",
        "regionname": "Dibrugarh Region",
        "divisionname": "Sibsagar Division",
        "officename": "Jhanjimukh B.O",
        "pincode": "785112",
        "officetype": "BO",
        "delivery": "Delivery",
        "district": "JORHAT",
        "statename": "ASSAM",
        "latitude": "26.4947000",
        "longitude": "94.2422000"
    },
    {
        "circlename": "Assam Circle",
        "regionname": "Dibrugarh Region",
        "divisionname": "Sibsagar Division",
        "officename": "Mudoijan Tiniali B.O",
        "pincode": "785112",
        "officetype": "BO",
        "delivery": "Delivery",
        "district": "JORHAT",
        "statename": "ASSAM",
        "latitude": "26.4947000",
        "longitude": "94.2422000"
    },
    {
        "circlename": "Assam Circle",
        "regionname": "Dibrugarh Region",
        "divisionname": "Sibsagar Division",
        "officename": "Deogharia B.O",
        "pincode": "785630",
        "officetype": "BO",
        "delivery": "Delivery",
        "district": "JORHAT",
        "statename": "ASSAM",
        "latitude": "26.6003888",
        "longitude": "94.2015277"
    },
    {
        "circlename": "Assam Circle",
        "regionname": "Dibrugarh Region",
        "divisionname": "Sibsagar Division",
        "officename": "Dihingia B.O",
        "pincode": "785630",
        "officetype": "BO",
        "delivery": "Delivery",
        "district": "JORHAT",
        "statename": "ASSAM",
        "latitude": "26.7317000",
        "longitude": "94.2015277"
    },
    {
        "circlename": "Assam Circle",
        "regionname": "Dibrugarh Region",
        "divisionname": "Sibsagar Division",
        "officename": "Sodial Kochari Gaon B.O",
        "pincode": "785630",
        "officetype": "BO",
        "delivery": "Delivery",
        "district": "JORHAT",
        "statename": "ASSAM",
        "latitude": "26.6003888",
        "longitude": "94.2015277"
    },
    {
        "circlename": "Assam Circle",
        "regionname": "Dibrugarh Region",
        "divisionname": "Sibsagar Division",
        "officename": "Borahibari B.O",
        "pincode": "785680",
        "officetype": "BO",
        "delivery": "Delivery",
        "district": "SIVASAGAR",
        "statename": "ASSAM",
        "latitude": "26.8118333",
        "longitude": "94.5207222"
    },
    {
        "circlename": "Assam Circle",
        "regionname": "Dibrugarh Region",
        "divisionname": "Sibsagar Division",
        "officename": "Charingia  Pukhuri B.O",
        "pincode": "785680",
        "officetype": "BO",
        "delivery": "Delivery",
        "district": "SIVASAGAR",
        "statename": "ASSAM",
        "latitude": "26.8118333",
        "longitude": "94.5207222"
    },
    {
        "circlename": "Assam Circle",
        "regionname": "Dibrugarh Region",
        "divisionname": "Sibsagar Division",
        "officename": "Majbari B.O",
        "pincode": "785680",
        "officetype": "BO",
        "delivery": "Delivery",
        "district": "SIVASAGAR",
        "statename": "ASSAM",
        "latitude": "26.8118333",
        "longitude": "94.5207222"
    },
    {
        "circlename": "Assam Circle",
        "regionname": "Dibrugarh Region",
        "divisionname": "Sibsagar Division",
        "officename": "Bharali Pukhuri B.O",
        "pincode": "785691",
        "officetype": "BO",
        "delivery": "Delivery",
        "district": "CHARAIDEO",
        "statename": "ASSAM",
        "latitude": "26.1234000",
        "longitude": "91.1234000"
    },
    {
        "circlename": "Assam Circle",
        "regionname": "Dibrugarh Region",
        "divisionname": "Sibsagar Division",
        "officename": "Timon B.O",
        "pincode": "785691",
        "officetype": "BO",
        "delivery": "Delivery",
        "district": "CHARAIDEO",
        "statename": "ASSAM",
        "latitude": "26.1234000",
        "longitude": "91.1234000"
    },
    {
        "circlename": "Assam Circle",
        "regionname": "Dibrugarh Region",
        "divisionname": "Sibsagar Division",
        "officename": "Barpatra Te B.O",
        "pincode": "785693",
        "officetype": "BO",
        "delivery": "Delivery",
        "district": "CHARAIDEO",
        "statename": "ASSAM",
        "latitude": "27.0857000",
        "longitude": "95.1701000"
    },
    {
        "circlename": "Assam Circle",
        "regionname": "Dibrugarh Region",
        "divisionname": "Sibsagar Division",
        "officename": "Changmai B.O",
        "pincode": "785693",
        "officetype": "BO",
        "delivery": "Delivery",
        "district": "CHARAIDEO",
        "statename": "ASSAM",
        "latitude": "27.0857000",
        "longitude": "95.1701000"
    },
    {
        "circlename": "Assam Circle",
        "regionname": "Dibrugarh Region",
        "divisionname": "Sibsagar Division",
        "officename": "Deopani  Habigaon B.O",
        "pincode": "785693",
        "officetype": "BO",
        "delivery": "Delivery",
        "district": "CHARAIDEO",
        "statename": "ASSAM",
        "latitude": "27.0857000",
        "longitude": "95.1701000"
    },
    {
        "circlename": "Assam Circle",
        "regionname": "Dibrugarh Region",
        "divisionname": "Sibsagar Division",
        "officename": "Dillighat B.O",
        "pincode": "785693",
        "officetype": "BO",
        "delivery": "Delivery",
        "district": "CHARAIDEO",
        "statename": "ASSAM",
        "latitude": "27.0857000",
        "longitude": "95.1701000"
    },
    {
        "circlename": "Assam Circle",
        "regionname": "Dibrugarh Region",
        "divisionname": "Sibsagar Division",
        "officename": "Nahat B.O",
        "pincode": "785662",
        "officetype": "BO",
        "delivery": "Delivery",
        "district": "SIVASAGAR",
        "statename": "ASSAM",
        "latitude": "27.1266666",
        "longitude": "94.7400277"
    },
    {
        "circlename": "Assam Circle",
        "regionname": "Dibrugarh Region",
        "divisionname": "Sibsagar Division",
        "officename": "Banmukh B.O",
        "pincode": "785663",
        "officetype": "BO",
        "delivery": "Delivery",
        "district": "SIVASAGAR",
        "statename": "ASSAM",
        "latitude": "25.1518000",
        "longitude": "92.5816000"
    },
    {
        "circlename": "Assam Circle",
        "regionname": "Dibrugarh Region",
        "divisionname": "Sibsagar Division",
        "officename": "Kaliori B.O",
        "pincode": "785664",
        "officetype": "BO",
        "delivery": "Delivery",
        "district": "SIVASAGAR",
        "statename": "ASSAM",
        "latitude": "26.5628000",
        "longitude": "94.3211000"
    },
    {
        "circlename": "Assam Circle",
        "regionname": "Dibrugarh Region",
        "divisionname": "Sibsagar Division",
        "officename": "Nakhana B.O",
        "pincode": "785664",
        "officetype": "BO",
        "delivery": "Delivery",
        "district": "SIVASAGAR",
        "statename": "ASSAM",
        "latitude": "26.5628000",
        "longitude": "94.3211000"
    },
    {
        "circlename": "Assam Circle",
        "regionname": "Dibrugarh Region",
        "divisionname": "Sibsagar Division",
        "officename": "Nogagaon B.O",
        "pincode": "785701",
        "officetype": "BO",
        "delivery": "Delivery",
        "district": "SIVASAGAR",
        "statename": "ASSAM",
        "latitude": "26.5933000",
        "longitude": "93.3713000"
    },
    {
        "circlename": "Assam Circle",
        "regionname": "Dibrugarh Region",
        "divisionname": "Sibsagar Division",
        "officename": "Bamunpukhuri B.O",
        "pincode": "785683",
        "officetype": "BO",
        "delivery": "Delivery",
        "district": "JORHAT",
        "statename": "ASSAM",
        "latitude": "26.5046000",
        "longitude": "94.2934000"
    },
    {
        "circlename": "Assam Circle",
        "regionname": "Dibrugarh Region",
        "divisionname": "Sibsagar Division",
        "officename": "Pathalial B.O",
        "pincode": "785683",
        "officetype": "BO",
        "delivery": "Delivery",
        "district": "JORHAT",
        "statename": "ASSAM",
        "latitude": "26.5046000",
        "longitude": "94.2934000"
    },
    {
        "circlename": "Assam Circle",
        "regionname": "Dibrugarh Region",
        "divisionname": "Sibsagar Division",
        "officename": "Phulpanichiga B.O",
        "pincode": "785683",
        "officetype": "BO",
        "delivery": "Delivery",
        "district": "SIVASAGAR",
        "statename": "ASSAM",
        "latitude": "26.5046000",
        "longitude": "94.2934000"
    },
    {
        "circlename": "Assam Circle",
        "regionname": "Dibrugarh Region",
        "divisionname": "Sibsagar Division",
        "officename": "Mogorahat B.O",
        "pincode": "785666",
        "officetype": "BO",
        "delivery": "Delivery",
        "district": "SIVASAGAR",
        "statename": "ASSAM",
        "latitude": "26.5903000",
        "longitude": "94.3740000"
    },