[
    {
        "circlename": "Delhi Circle",
        "regionname": "DivReportingCircle",
        "divisionname": "Delhi East Division",
        "officename": "New Usmanpur BO",
        "pincode": "110053",
        "officetype": "BO",
        "delivery": "Non Delivery",
        "district": "NORTH EAST",
        "statename": "DELHI",
        "latitude": "28.6922500",
        "longitude": "77.3042222"
    },
    {
        "circlename": "Delhi Circle",
        "regionname": "DivReportingCircle",
        "divisionname": "Delhi North Division",
        "officename": "Jagatpur BO",
        "pincode": "110084",
        "officetype": "BO",
        "delivery": "Delivery",
        "district": "NORTH",
        "statename": "DELHI",
        "latitude": "28.7572222",
        "longitude": "77.1977777"
    },
    {
        "circlename": "Delhi Circle",
        "regionname": "DivReportingCircle",
        "divisionname": "Delhi North Division",
        "officename": "Jharoda Majraa BO",
        "pincode": "110084",
        "officetype": "BO",
        "delivery": "Delivery",
        "district": "NORTH",
        "statename": "DELHI",
        "latitude": "28.757222200000001",
        "longitude": "77.197777700000003"
    },
    {
        "circlename": "Delhi Circle",
        "regionname": "DivReportingCircle",
        "divisionname": "Delhi North Division",
        "officename": "Kadipur BO",
        "pincode": "110036",
        "officetype": "BO",
        "delivery": "Delivery",
        "district": "NORTH",
        "statename": "DELHI",
        "latitude": "28.7978055",
        "longitude": "77.1300000"
    },
    {
        "circlename": "Delhi Circle",
        "regionname": "DivReportingCircle",
        "divisionname": "Delhi North Division",
        "officename": "Auchandi BO",
        "pincode": "110039",
        "officetype": "BO",
        "delivery": "Delivery",
        "district": "NORTH",
        "statename": "DELHI",
        "latitude": "28.7996944",
        "longitude": "77.0380555"
    },
    {
        "circlename": "Delhi Circle",
        "regionname": "DivReportingCircle",
        "divisionname": "Delhi North Division",
        "officename": "Jat Khore BO",
        "pincode": "110039",
        "officetype": "BO",
        "delivery": "Delivery",
        "district": "NORTH",
        "statename": "DELHI",
        "latitude": "28.7996944",
        "longitude": "77.038055499999999"
    },
    {
        "circlename": "Delhi Circle",
        "regionname": "DivReportingCircle",
        "divisionname": "Delhi North Division",
        "officename": "Mungeshpur BO",
        "pincode": "110039",
        "officetype": "BO",
        "delivery": "Delivery",
        "district": "NORTH",
        "statename": "DELHI",
        "latitude": "28.7996944",
        "longitude": "77.038055499999999"
    },
    {
        "circlename": "Delhi Circle",
        "regionname": "DivReportingCircle",
        "divisionname": "Delhi North Division",
        "officename": "Jaunti BO",
        "pincode": "110081",
        "officetype": "BO",
        "delivery": "Delivery",
        "district": "NORTH WEST",
        "statename": "DELHI",
        "latitude": "28.734916599999998",
        "longitude": "77.0055555"
    },
    {
        "circlename": "Delhi Circle",
        "regionname": "DivReportingCircle",
        "divisionname": "Delhi North Division",
        "officename": "Majra Dabas BO",
        "pincode": "110081",
        "officetype": "BO",
        "delivery": "Delivery",
        "district": "NORTH WEST",
        "statename": "DELHI",
        "latitude": "28.7349166",
        "longitude": "77.0055555"
    },
    {
        "circlename": "Delhi Circle",
        "regionname": "DivReportingCircle",
        "divisionname": "Delhi North Division",
        "officename": "Punjab Khor BO",
        "pincode": "110081",
        "officetype": "BO",
        "delivery": "Delivery",
        "district": "NORTH WEST",
        "statename": "DELHI",
        "latitude": "28.7349166",
        "longitude": "77.0055555"
    },
    {
        "circlename": "Delhi Circle",
        "regionname": "DivReportingCircle",
        "divisionname": "Delhi North Division",
        "officename": "Naya Bans BO",
        "pincode": "110082",
        "officetype": "BO",
        "delivery": "Delivery",
        "district": "NORTH",
        "statename": "DELHI",
        "latitude": "28.772166599999998",
        "longitude": "77.119"
    },
    {
        "circlename": "Delhi Circle",
        "regionname": "DivReportingCircle",
        "divisionname": "Delhi North Division",
        "officename": "Pooth Kalan BO",
        "pincode": "110086",
        "officetype": "BO",
        "delivery": "Delivery",
        "district": "NORTH WEST",
        "statename": "DELHI",
        "latitude": "28.7016111",
        "longitude": "77.0797222"
    },
    {
        "circlename": "Delhi Circle",
        "regionname": "DivReportingCircle",
        "divisionname": "Delhi North Division",
        "officename": "Prem Nagar BO",
        "pincode": "110086",
        "officetype": "BO",
        "delivery": "Delivery",
        "district": "NORTH WEST",
        "statename": "DELHI",
        "latitude": "28.701611100000001",
        "longitude": "77.079722200000006"
    },
    {
        "circlename": "Delhi Circle",
        "regionname": "DivReportingCircle",
        "divisionname": "New Delhi South Division",
        "officename": "Village Tugalkabad BO",
        "pincode": "110044",
        "officetype": "BO",
        "delivery": "Non Delivery",
        "district": "SOUTH",
        "statename": "DELHI",
        "latitude": "28.5100000",
        "longitude": "77.2600000"
    },
    {
        "circlename": "Delhi Circle",
        "regionname": "DivReportingCircle",
        "divisionname": "New Delhi South Division",
        "officename": "Tehkhand BO",
        "pincode": "110020",
        "officetype": "BO",
        "delivery": "Non Delivery",
        "district": "SOUTH",
        "statename": "DELHI",
        "latitude": "28.5200000",
        "longitude": "77.2900000"
    },
    {
        "circlename": "Delhi Circle",
        "regionname": "DivReportingCircle",
        "divisionname": "New Delhi South Division",
        "officename": "Madanpur Khadar BO",
        "pincode": "110076",
        "officetype": "BO",
        "delivery": "Non Delivery",
        "district": "SOUTH",
        "statename": "DELHI",
        "latitude": "28.5300000",
        "longitude": "77.3000000"
    },
    {
        "circlename": "Delhi Circle",
        "regionname": "DivReportingCircle",
        "divisionname": "New Delhi West Division",
        "officename": "Khaira B.O",
        "pincode": "110043",
        "officetype": "BO",
        "delivery": "Non Delivery",
        "district": "WEST",
        "statename": "DELHI",
        "latitude": "24.8715350",
        "longitude": "86.2071060"
    },
    {
        "circlename": "Delhi Circle",
        "regionname": "DivReportingCircle",
        "divisionname": "New Delhi West Division",
        "officename": "Kakrola B.O",
        "pincode": "110078",
        "officetype": "BO",
        "delivery": "Delivery",
        "district": "SOUTH WEST",
        "statename": "DELHI",
        "latitude": "28.598434999999998",
        "longitude": "77.022020999999995"
    },
    {
        "circlename": "Delhi Circle",
        "regionname": "DivReportingCircle",
        "divisionname": "New Delhi West Division",
        "officename": "Daulatpur B.O",
        "pincode": "110043",
        "officetype": "BO",
        "delivery": "Delivery",
        "district": "WEST",
        "statename": "DELHI",
        "latitude": "31.774749",
        "longitude": "75.998544999999993"
    },
    {
        "circlename": "Delhi Circle",
        "regionname": "DivReportingCircle",
        "divisionname": "New Delhi West Division",
        "officename": "Jhatikara B.O",
        "pincode": "110043",
        "officetype": "BO",
        "delivery": "Delivery",
        "district": "WEST",
        "statename": "DELHI",
        "latitude": "28.520904999999999",
        "longitude": "76.964010999999999"
    },
    {
        "circlename": "Delhi Circle",
        "regionname": "DivReportingCircle",
        "divisionname": "New Delhi West Division",
        "officename": "Papravat B.O",
        "pincode": "110043",
        "officetype": "BO",
        "delivery": "Delivery",
        "district": "WEST",
        "statename": "DELHI",
        "latitude": "28.5803200",
        "longitude": "76.9782030"
    },
    {
        "circlename": "Delhi Circle",
        "regionname": "DivReportingCircle",
        "divisionname": "New Delhi West Division",
        "officename": "Surehra B.O",
        "pincode": "110043",
        "officetype": "BO",
        "delivery": "Delivery",
        "district": "WEST",
        "statename": "DELHI",
        "latitude": "28.597121999999999",
        "longitude": "76.937870000000004"
    },
    {
        "circlename": "Delhi Circle",
        "regionname": "DivReportingCircle",
        "divisionname": "New Delhi West Division",
        "officename": "Nasirpur B.O",
        "pincode": "110045",
        "officetype": "BO",
        "delivery": "Delivery",
        "district": "SOUTH WEST",
        "statename": "DELHI",
        "latitude": "28.597176000000001",
        "longitude": "77.090783000000002"
    },
    {
        "circlename": "Delhi Circle",
        "regionname": "DivReportingCircle",
        "divisionname": "New Delhi West Division",
        "officename": "Galib Pur B.O",
        "pincode": "110073",
        "officetype": "BO",
        "delivery": "Delivery",
        "district": "SOUTH WEST",
        "statename": "DELHI",
        "latitude": "25.8906790",
        "longitude": "83.3675860"
    },
    {
        "circlename": "Delhi Circle",
        "regionname": "DivReportingCircle",
        "divisionname": "New Delhi West Division",
        "officename": "Neelwal BO",
        "pincode": "110041",
        "officetype": "BO",
        "delivery": "Delivery",
        "district": "WEST",
        "statename": "DELHI",
        "latitude": "28.666378000000002",
        "longitude": "76.979653999999996"
    },
    {
        "circlename": "Delhi Circle",
        "regionname": "DivReportingCircle",
        "divisionname": "Delhi East Division",
        "officename": "Brahampuri SO",
        "pincode": "110053",
        "officetype": "PO",
        "delivery": "Non Delivery",
        "district": "NORTH EAST",
        "statename": "DELHI",
        "latitude": "28.6871944",
        "longitude": "77.2633056"
    },
    {
        "circlename": "Delhi Circle",
        "regionname": "DivReportingCircle",
        "divisionname": "Delhi East Division",
        "officename": "Housing Complex Loni Road SO",
        "pincode": "110093",
        "officetype": "PO",
        "delivery": "Non Delivery",
        "district": "NORTH EAST",
        "statename": "DELHI",
        "latitude": "28.6952500",
        "longitude": "77.2953333"
    },
    {
        "circlename": "Delhi Circle",
        "regionname": "DivReportingCircle",
        "divisionname": "Delhi East Division",
        "officename": "Man Sarovar Park SO",
        "pincode": "110032",
        "officetype": "PO",
        "delivery": "Non Delivery",
        "district": "SHAHDARA",
        "statename": "DELHI",
        "latitude": "28.6774167",
        "longitude": "77.2990833"
    },
    {
        "circlename": "Delhi Circle",
        "regionname": "DivReportingCircle",
        "divisionname": "Delhi East Division",
        "officename": "JHILMIL NDC",
        "pincode": "110195",
        "officetype": "PO",
        "delivery": "Delivery",
        "district": "SHAHDARA",
        "statename": "DELHI",
        "latitude": "28.673961",
        "longitude": "77.319696"
    },
    {
        "circlename": "Delhi Circle",
        "regionname": "DivReportingCircle",
        "divisionname": "Delhi East Division",
        "officename": "Azad Nagar SO East Delhi",
        "pincode": "110051",
        "officetype": "PO",
        "delivery": "Non Delivery",
        "district": "SHAHDARA",
        "statename": "DELHI",
        "latitude": "28.6922500",
        "longitude": "77.3042222"
    },
    {
        "circlename": "Delhi Circle",
        "regionname": "DivReportingCircle",
        "divisionname": "Delhi East Division",
        "officename": "Gandhi Nagar Bazar SO",
        "pincode": "110031",
        "officetype": "PO",
        "delivery": "Non Delivery",
        "district": "SHAHDARA",
        "statename": "DELHI",
        "latitude": "28.6606111",
        "longitude": "77.2664167"
    },
    {
        "circlename": "Delhi Circle",
        "regionname": "DivReportingCircle",
        "divisionname": "Delhi East Division",
        "officename": "IP Extension SO",
        "pincode": "110092",
        "officetype": "PO",
        "delivery": "Non Delivery",
        "district": "EAST",
        "statename": "DELHI",
        "latitude": "28.6336389",
        "longitude": "77.3111944"
    },
    {
        "circlename": "Delhi Circle",
        "regionname": "DivReportingCircle",
        "divisionname": "Delhi East Division",
        "officename": "Mayur Vihar PhI SO",
        "pincode": "110091",
        "officetype": "PO",
        "delivery": "Non Delivery",
        "district": "EAST",
        "statename": "DELHI",
        "latitude": "28.6070000",
        "longitude": "77.2945833"
    },
    {
        "circlename": "Delhi Circle",
        "regionname": "DivReportingCircle",
        "divisionname": "Delhi East Division",
        "officename": "Mayur Vihar PhIII SO",
        "pincode": "110096",
        "officetype": "PO",
        "delivery": "Non Delivery",
        "district": "EAST",
        "statename": "DELHI",
        "latitude": "28.608638899999999",
        "longitude": "77.336416700000001"
    },
    {
        "circlename": "Delhi Circle",
        "regionname": "DivReportingCircle",
        "divisionname": "Delhi East Division",
        "officename": "Ram Nagar SO East Delhi",
        "pincode": "110051",
        "officetype": "PO",
        "delivery": "Non Delivery",
        "district": "EAST",
        "statename": "DELHI",
        "latitude": "28.6592500",
        "longitude": "77.2742222"
    },
    {
        "circlename": "Delhi Circle",
        "regionname": "DivReportingCircle",
        "divisionname": "Delhi East Division",
        "officename": "Surajmal Vihar SO",
        "pincode": "110092",
        "officetype": "PO",
        "delivery": "Non Delivery",
        "district": "SHAHDARA",
        "statename": "DELHI",
        "latitude": "28.6617778",
        "longitude": "77.3059722"
    },
    {
        "circlename": "Delhi Circle",
        "regionname": "DivReportingCircle",
        "divisionname": "Delhi East Division",
        "officename": "Vishwakarma Nagar SO",
        "pincode": "110095",
        "officetype": "PO",
        "delivery": "Non Delivery",
        "district": "SHAHDARA",
        "statename": "DELHI",
        "latitude": "28.6721111",
        "longitude": "77.3069722"
    },
    {
        "circlename": "Delhi Circle",
        "regionname": "DivReportingCircle",
        "divisionname": "Delhi East Division",
        "officename": "Laxmi Nagar Extension SO",
        "pincode": "110092",
        "officetype": "PO",
        "delivery": "Non Delivery",
        "district": "EAST",
        "statename": "DELHI",
        "latitude": "28.6921111",
        "longitude": "77.3042222"
    },
    {
        "circlename": "Delhi Circle",
        "regionname": "DivReportingCircle",
        "divisionname": "Delhi East Division",
        "officename": "New Ashok Nagar S.O",
        "pincode": "110096",
        "officetype": "PO",
        "delivery": "Non Delivery",
        "district": "EAST",
        "statename": "DELHI",
        "latitude": "28.596722",
        "longitude": "77.312114"
    },
    {
        "circlename": "Delhi Circle",
        "regionname": "DivReportingCircle",
        "divisionname": "Delhi North Division",
        "officename": "District Courts SO North Delhi",
        "pincode": "110054",
        "officetype": "PO",
        "delivery": "Non Delivery",
        "district": "CENTRAL",
        "statename": "DELHI",
        "latitude": "28.6670940",
        "longitude": "77.2165340"
    },
    {
        "circlename": "Delhi Circle",
        "regionname": "DivReportingCircle",
        "divisionname": "Delhi North Division",
        "officename": "Gulabi Bagh SO",
        "pincode": "110007",
        "officetype": "PO",
        "delivery": "Non Delivery",
        "district": "NORTH WEST",
        "statename": "DELHI",
        "latitude": "28.6736944",
        "longitude": "77.1918333"
    },
    {
        "circlename": "Delhi Circle",
        "regionname": "DivReportingCircle",
        "divisionname": "Delhi North Division",
        "officename": "Malka Ganj SO",
        "pincode": "110007",
        "officetype": "PO",
        "delivery": "Delivery",
        "district": "CENTRAL",
        "statename": "DELHI",
        "latitude": "28.6765833",
        "longitude": "77.2088333"
    },
    {
        "circlename": "Delhi Circle",
        "regionname": "DivReportingCircle",
        "divisionname": "Delhi North Division",
        "officename": "Avantika SO",
        "pincode": "110085",
        "officetype": "PO",
        "delivery": "Non Delivery",
        "district": "NORTH WEST",
        "statename": "DELHI",
        "latitude": "28.7079620",
        "longitude": "77.1170330"
    },
    {
        "circlename": "Delhi Circle",
        "regionname": "DivReportingCircle",
        "divisionname": "Delhi North Division",
        "officename": "Badli SO North West Delhi",
        "pincode": "110042",
        "officetype": "PO",
        "delivery": "Non Delivery",
        "district": "NORTH WEST",
        "statename": "DELHI",
        "latitude": "28.7446900",
        "longitude": "77.1450370"
    },
    {
        "circlename": "Delhi Circle",
        "regionname": "DivReportingCircle",
        "divisionname": "Delhi North Division",
        "officename": "DrMukerjee Nagar SO",
        "pincode": "110009",
        "officetype": "PO",
        "delivery": "Non Delivery",
        "district": "NORTH",
        "statename": "DELHI",
        "latitude": "28.7108611",
        "longitude": "77.2158333"
    },
    {
        "circlename": "Delhi Circle",
        "regionname": "DivReportingCircle",
        "divisionname": "Delhi North Division",
        "officename": "Jahangir Puri A Block SO",
        "pincode": "110033",
        "officetype": "PO",
        "delivery": "Non Delivery",
        "district": "NORTH",
        "statename": "DELHI",
        "latitude": "28.7277500",
        "longitude": "77.1636111"
    },
    {
        "circlename": "Delhi Circle",
        "regionname": "DivReportingCircle",
        "divisionname": "Delhi North Division",
        "officename": "Mangolpuri I  Block SO",
        "pincode": "110083",
        "officetype": "PO",
        "delivery": "Non Delivery",
        "district": "NORTH WEST",
        "statename": "DELHI",
        "latitude": "28.7147778",
        "longitude": "77.0878333"
    },
    {
        "circlename": "Delhi Circle",
        "regionname": "DivReportingCircle",
        "divisionname": "Delhi North Division",
        "officename": "Mangolpuri N Block SO",
        "pincode": "110083",
        "officetype": "PO",
        "delivery": "Delivery",
        "district": "NORTH WEST",
        "statename": "DELHI",
        "latitude": "28.6936667",
        "longitude": "77.0900000"
    },
    {
        "circlename": "Delhi Circle",
        "regionname": "DivReportingCircle",
        "divisionname": "Delhi North Division",
        "officename": "Mangolpuri S Block SO",
        "pincode": "110083",
        "officetype": "PO",
        "delivery": "Non Delivery",
        "district": "NORTH WEST",
        "statename": "DELHI",
        "latitude": "28.6904722",
        "longitude": "77.0822778"
    },
    {
        "circlename": "Delhi Circle",
        "regionname": "DivReportingCircle",
        "divisionname": "Delhi North Division",
        "officename": "Nirankari Colony SO",
        "pincode": "110009",
        "officetype": "PO",
        "delivery": "Non Delivery",
        "district": "NORTH",
        "statename": "DELHI",
        "latitude": "28.7152500",
        "longitude": "77.2044444"
    },
    {
        "circlename": "Delhi Circle",
        "regionname": "DivReportingCircle",
        "divisionname": "Delhi North Division",
        "officename": "Prashant Vihar SO",
        "pincode": "110085",
        "officetype": "PO",
        "delivery": "Non Delivery",
        "district": "NORTH WEST",
        "statename": "DELHI",
        "latitude": "28.7168889",
        "longitude": "77.1380556"
    },
    {
        "circlename": "Delhi Circle",
        "regionname": "DivReportingCircle",
        "divisionname": "Delhi North Division",
        "officename": "Rohini Sector7 SO",
        "pincode": "110085",
        "officetype": "PO",
        "delivery": "Delivery",
        "district": "NORTH WEST",
        "statename": "DELHI",
        "latitude": "28.6933611",
        "longitude": "77.1713889"
    },
    {
        "circlename": "Delhi Circle",
        "regionname": "DivReportingCircle",
        "divisionname": "Delhi North Division",
        "officename": "Shakur Basti Depot SO",
        "pincode": "110056",
        "officetype": "PO",
        "delivery": "Delivery",
        "district": "NORTH WEST",
        "statename": "DELHI",
        "latitude": "28.6827222",
        "longitude": "77.1111111"
    },
    {
        "circlename": "Delhi Circle",
        "regionname": "DivReportingCircle",
        "divisionname": "Delhi North Division",
        "officename": "Sultanpuri B Block SO",
        "pincode": "110086",
        "officetype": "PO",
        "delivery": "Non Delivery",
        "district": "NORTH WEST",
        "statename": "DELHI",
        "latitude": "28.6963611",
        "longitude": "77.0764167"
    },
    {
        "circlename": "Delhi Circle",
        "regionname": "DivReportingCircle",
        "divisionname": "Delhi North Division",
        "officename": "Sultanpuri F Block SO",
        "pincode": "110086",
        "officetype": "PO",
        "delivery": "Non Delivery",
        "district": "NORTH WEST",
        "statename": "DELHI",
        "latitude": "28.6900278",
        "longitude": "77.0685833"
    },
    {
        "circlename": "Delhi Circle",
        "regionname": "DivReportingCircle",
        "divisionname": "Delhi North Division",
        "officename": "Wazir Pur III SO",
        "pincode": "110052",
        "officetype": "PO",
        "delivery": "Non Delivery",
        "district": "NORTH",
        "statename": "DELHI",
        "latitude": "28.6797500",
        "longitude": "77.1721389"
    },
    {
        "circlename": "Delhi Circle",
        "regionname": "DivReportingCircle",
        "divisionname": "Delhi North Division",
        "officename": "KIRARI SULEMAN NAGAR SO",
        "pincode": "110086",
        "officetype": "PO",
        "delivery": "Non Delivery",
        "district": "NORTH WEST",
        "statename": "DELHI",
        "latitude": "28.6979500",
        "longitude": "77.0643610"
    },
    {
        "circlename": "Delhi Circle",
        "regionname": "DivReportingCircle",
        "divisionname": "Delhi North Division",
        "officename": "Nathupura Village SO",
        "pincode": "110084",
        "officetype": "PO",
        "delivery": "Non Delivery",
        "district": "CENTRAL",
        "statename": "DELHI",
        "latitude": "28.7691574",
        "longitude": "77.17729"
    },
    {
        "circlename": "Delhi Circle",
        "regionname": "DivReportingCircle",
        "divisionname": "Delhi North Division",
        "officename": "Shahbad Dairy PO",
        "pincode": "110042",
        "officetype": "PO",
        "delivery": "Non Delivery",
        "district": "NORTH",
        "statename": "DELHI",
        "latitude": "28.741421",
        "longitude": "77.094711"
    },
    {
        "circlename": "Delhi Circle",
        "regionname": "DivReportingCircle",
        "divisionname": "Delhi North Division",
        "officename": "Sant Nagar SO",
        "pincode": "110084",
        "officetype": "PO",
        "delivery": "Non Delivery",
        "district": "CENTRAL",
        "statename": "DELHI",
        "latitude": "28.7572222",
        "longitude": "77.1977777"
    },
    {
        "circlename": "Delhi Circle",
        "regionname": "DivReportingCircle",
        "divisionname": "Delhi North Division",
        "officename": "NARELA TOWN",
        "pincode": "110040",
        "officetype": "PO",
        "delivery": "Non Delivery",
        "district": "NORTH",
        "statename": "DELHI",
        "latitude": "28.8400000",
        "longitude": "77.0800000"
    },
    {
        "circlename": "Delhi Circle",
        "regionname": "DivReportingCircle",
        "divisionname": "Delhi North Division",
        "officename": "Baratooti SO",
        "pincode": "110006",
        "officetype": "PO",
        "delivery": "Non Delivery",
        "district": "NORTH",
        "statename": "DELHI",
        "latitude": "28.6594167",
        "longitude": "77.2130556"
    },
    {
        "circlename": "Delhi Circle",
        "regionname": "DivReportingCircle",
        "divisionname": "Delhi North Division",
        "officename": "Chawri Bazar SO",
        "pincode": "110006",
        "officetype": "PO",
        "delivery": "Non Delivery",
        "district": "NORTH",
        "statename": "DELHI",
        "latitude": "28.6511389",
        "longitude": "77.2241667"
    },
    {
        "circlename": "Delhi Circle",
        "regionname": "DivReportingCircle",
        "divisionname": "Delhi North Division",
        "officename": "Dareeba SO",
        "pincode": "110006",
        "officetype": "PO",
        "delivery": "Non Delivery",
        "district": "NORTH",
        "statename": "DELHI",
        "latitude": "28.6557222",
        "longitude": "77.2335833"
    },
    {
        "circlename": "Delhi Circle",
        "regionname": "DivReportingCircle",
        "divisionname": "New Delhi Central Division",
        "officename": "Ajmeri Gate Extn SO",
        "pincode": "110002",
        "officetype": "PO",
        "delivery": "Non Delivery",
        "district": "CENTRAL",
        "statename": "DELHI",
        "latitude": "28.6445000",
        "longitude": "77.2231389"
    },
    {
        "circlename": "Delhi Circle",
        "regionname": "DivReportingCircle",
        "divisionname": "New Delhi Central Division",
        "officename": "Minto Road SO",
        "pincode": "110002",
        "officetype": "PO",
        "delivery": "Non Delivery",
        "district": "CENTRAL",
        "statename": "DELHI",
        "latitude": "28.6339722",
        "longitude": "77.2175556"
    },
    {
        "circlename": "Delhi Circle",
        "regionname": "DivReportingCircle",
        "divisionname": "New Delhi Central Division",
        "officename": "Pragati Maidan SO",
        "pincode": "110001",
        "officetype": "PO",
        "delivery": "Non Delivery",
        "district": "NEW DELHI",
        "statename": "DELHI",
        "latitude": "28.6167500",
        "longitude": "77.2934444"
    },
    {
        "circlename": "Delhi Circle",
        "regionname": "DivReportingCircle",
        "divisionname": "New Delhi Central Division",
        "officename": "Rouse Avenue Extension Counter SO",
        "pincode": "110002",
        "officetype": "PO",
        "delivery": "Non Delivery",
        "district": "CENTRAL",
        "statename": "DELHI",
        "latitude": "28.6352",
        "longitude": "77.2469"
    },
    {
        "circlename": "Delhi Circle",
        "regionname": "DivReportingCircle",
        "divisionname": "New Delhi Central Division",
        "officename": "Bengali Market SO",
        "pincode": "110001",
        "officetype": "PO",
        "delivery": "Non Delivery",
        "district": "NEW DELHI",
        "statename": "DELHI",
        "latitude": "28.6286944",
        "longitude": "77.2338611"
    },
    {
        "circlename": "Delhi Circle",
        "regionname": "DivReportingCircle",
        "divisionname": "New Delhi Central Division",
        "officename": "Nirman Bhawan SO",
        "pincode": "110011",
        "officetype": "PO",
        "delivery": "Delivery",
        "district": "NEW DELHI",
        "statename": "DELHI",
        "latitude": "28.6108611",
        "longitude": "77.2148611"
    },
    {
        "circlename": "Delhi Circle",
        "regionname": "DivReportingCircle",
        "divisionname": "New Delhi Central Division",
        "officename": "Rashtrapati Bhawan SO",
        "pincode": "110004",
        "officetype": "PO",
        "delivery": "Delivery",
        "district": "NEW DELHI",
        "statename": "DELHI",
        "latitude": "28.6210833",
        "longitude": "77.1961389"
    },
    {
        "circlename": "Delhi Circle",
        "regionname": "DivReportingCircle",
        "divisionname": "New Delhi Central Division",
        "officename": "Sansadiya Soudh SO",
        "pincode": "110001",
        "officetype": "PO",
        "delivery": "Non Delivery",
        "district": "NEW DELHI",
        "statename": "DELHI",
        "latitude": "28.6198611",
        "longitude": "77.2078333"
    },
    {
        "circlename": "Delhi Circle",
        "regionname": "DivReportingCircle",
        "divisionname": "New Delhi Central Division",
        "officename": "Secretariat North SO",
        "pincode": "110001",
        "officetype": "PO",
        "delivery": "Non Delivery",
        "district": "NEW DELHI",
        "statename": "DELHI",
        "latitude": "28.6178889",
        "longitude": "77.2019167"
    },
    {
        "circlename": "Delhi Circle",
        "regionname": "DivReportingCircle",
        "divisionname": "New Delhi Central Division",
        "officename": "Union Public Service Commission SO",
        "pincode": "110069",
        "officetype": "PO",
        "delivery": "Delivery",
        "district": "NEW DELHI",
        "statename": "DELHI",
        "latitude": "28.6225833",
        "longitude": "77.2127222"
    },
    {
        "circlename": "Delhi Circle",
        "regionname": "DivReportingCircle",
        "divisionname": "New Delhi Central Division",
        "officename": "Anand Parbat Indl Area SO",
        "pincode": "110005",
        "officetype": "PO",
        "delivery": "Non Delivery",
        "district": "CENTRAL",
        "statename": "DELHI",
        "latitude": "28.6614722",
        "longitude": "77.1780556"
    },
    {
        "circlename": "Delhi Circle",
        "regionname": "DivReportingCircle",
        "divisionname": "New Delhi Central Division",
        "officename": "Rajender Nagar SO",
        "pincode": "110060",
        "officetype": "PO",
        "delivery": "Delivery",
        "district": "CENTRAL",
        "statename": "DELHI",
        "latitude": "28.6367222",
        "longitude": "77.1831111"
    },
    {
        "circlename": "Delhi Circle",
        "regionname": "DivReportingCircle",
        "divisionname": "New Delhi South Division",
        "officename": "C R R I SO South Delhi",
        "pincode": "110020",
        "officetype": "PO",
        "delivery": "Non Delivery",
        "district": "South East",
        "statename": "DELHI",
        "latitude": "28.551707",
        "longitude": "77.275149"
    },
    {
        "circlename": "Delhi Circle",
        "regionname": "DivReportingCircle",
        "divisionname": "New Delhi South Division",
        "officename": "Dakshinpuri PhaseII SO",
        "pincode": "110062",
        "officetype": "PO",
        "delivery": "Non Delivery",
        "district": "SOUTH",
        "statename": "DELHI",
        "latitude": "28.5201111",
        "longitude": "77.2397500"
    },
    {
        "circlename": "Delhi Circle",
        "regionname": "DivReportingCircle",
        "divisionname": "New Delhi South Division",
        "officename": "F F C Okhla SO",
        "pincode": "110020",
        "officetype": "PO",
        "delivery": "Non Delivery",
        "district": "South East",
        "statename": "DELHI",
        "latitude": "28.5577222",
        "longitude": "77.2648333"
    },
    {
        "circlename": "Delhi Circle",
        "regionname": "DivReportingCircle",
        "divisionname": "New Delhi South Division",
        "officename": "Kailash Colony SO",
        "pincode": "110048",
        "officetype": "PO",
        "delivery": "Non Delivery",
        "district": "South East",
        "statename": "DELHI",
        "latitude": "28.5471667",
        "longitude": "77.2438056"
    },
    {
        "circlename": "Delhi Circle",
        "regionname": "DivReportingCircle",
        "divisionname": "New Delhi South Division",
        "officename": "Zakir Nagar SO",
        "pincode": "110025",
        "officetype": "PO",
        "delivery": "Non Delivery",
        "district": "South East",
        "statename": "DELHI",
        "latitude": "28.5671667",
        "longitude": "77.2787778"
    },
    {
        "circlename": "Delhi Circle",
        "regionname": "DivReportingCircle",
        "divisionname": "New Delhi South Division",
        "officename": "Amar Colony SO",
        "pincode": "110024",
        "officetype": "PO",
        "delivery": "Non Delivery",
        "district": "South East",
        "statename": "DELHI",
        "latitude": "28.5631667",
        "longitude": "77.2487500"
    },
    {
        "circlename": "Delhi Circle",
        "regionname": "DivReportingCircle",
        "divisionname": "New Delhi South Division",
        "officename": "Distt Court Complex Saket SO",
        "pincode": "110017",
        "officetype": "PO",
        "delivery": "Non Delivery",
        "district": "SOUTH",
        "statename": "DELHI",
        "latitude": "28.5288420",
        "longitude": "77.2225570"
    },
    {
        "circlename": "Delhi Circle",
        "regionname": "DivReportingCircle",
        "divisionname": "New Delhi South Division",
        "officename": "Golf Links SO",
        "pincode": "110003",
        "officetype": "PO",
        "delivery": "Non Delivery",
        "district": "South East",
        "statename": "DELHI",
        "latitude": "28.5872500",
        "longitude": "77.2300833"
    },
    {
        "circlename": "Delhi Circle",
        "regionname": "DivReportingCircle",
        "divisionname": "New Delhi South Division",
        "officename": "Gulmohar Park SO",
        "pincode": "110049",
        "officetype": "PO",
        "delivery": "Non Delivery",
        "district": "South East",
        "statename": "DELHI",
        "latitude": "28.5578611",
        "longitude": "77.2131944"
    },
    {
        "circlename": "Delhi Circle",
        "regionname": "DivReportingCircle",
        "divisionname": "New Delhi South Division",
        "officename": "Kasturba Nagar SO South Delhi",
        "pincode": "110003",
        "officetype": "PO",
        "delivery": "Non Delivery",
        "district": "South East",
        "statename": "DELHI",
        "latitude": "28.5765440",
        "longitude": "77.2246540"
    },
    {
        "circlename": "Delhi Circle",
        "regionname": "DivReportingCircle",
        "divisionname": "New Delhi South Division",
        "officename": "Krishna Market SO",
        "pincode": "110024",
        "officetype": "PO",
        "delivery": "Non Delivery",
        "district": "South East",
        "statename": "DELHI",
        "latitude": "28.5740556",
        "longitude": "77.2423090"
    },
    {
        "circlename": "Delhi Circle",
        "regionname": "DivReportingCircle",
        "divisionname": "New Delhi South Division",
        "officename": "Panchsheel Enclave SO",
        "pincode": "110017",
        "officetype": "PO",
        "delivery": "Non Delivery",
        "district": "SOUTH",
        "statename": "DELHI",
        "latitude": "28.5441340",
        "longitude": "77.2284420"
    },
    {
        "circlename": "Delhi Circle",
        "regionname": "DivReportingCircle",
        "divisionname": "New Delhi South Division",
        "officename": "Pratap Market SO",
        "pincode": "110014",
        "officetype": "PO",
        "delivery": "Non Delivery",
        "district": "South East",
        "statename": "DELHI",
        "latitude": "28.5829444",
        "longitude": "77.2520278"
    },
    {
        "circlename": "Delhi Circle",
        "regionname": "DivReportingCircle",
        "divisionname": "New Delhi South West Division",
        "officename": "Ansari Nagar SO",
        "pincode": "110029",
        "officetype": "PO",
        "delivery": "Non Delivery",
        "district": "SOUTH",
        "statename": "DELHI",
        "latitude": "28.5649167",
        "longitude": "77.2068056"
    },
    {
        "circlename": "Delhi Circle",
        "regionname": "DivReportingCircle",
        "divisionname": "New Delhi South West Division",
        "officename": "CVD SO",
        "pincode": "110010",
        "officetype": "PO",
        "delivery": "Non Delivery",
        "district": "NEW DELHI",
        "statename": "DELHI",
        "latitude": "28.5988889",
        "longitude": "77.1085833"
    },
    {
        "circlename": "Delhi Circle",
        "regionname": "DivReportingCircle",
        "divisionname": "New Delhi South West Division",
        "officename": "COD SO South West Delhi",
        "pincode": "110010",
        "officetype": "PO",
        "delivery": "Non Delivery",
        "district": "NEW DELHI",
        "statename": "DELHI",
        "latitude": "25.59",
        "longitude": "77.15"
    },
    {
        "circlename": "Delhi Circle",
        "regionname": "DivReportingCircle",
        "divisionname": "New Delhi South West Division",
        "officename": "JNU SO",
        "pincode": "110067",
        "officetype": "PO",
        "delivery": "Delivery",
        "district": "NEW DELHI",
        "statename": "DELHI",
        "latitude": "28.5507500",
        "longitude": "77.1792778"
    },
    {
        "circlename": "Delhi Circle",
        "regionname": "DivReportingCircle",
        "divisionname": "New Delhi South West Division",
        "officename": "Nanak Pura SO",
        "pincode": "110021",
        "officetype": "PO",
        "delivery": "Non Delivery",
        "district": "NEW DELHI",
        "statename": "DELHI",
        "latitude": "28.5807778",
        "longitude": "77.1727222"
    },
    {
        "circlename": "Delhi Circle",
        "regionname": "DivReportingCircle",
        "divisionname": "New Delhi South West Division",
        "officename": "Netaji Nagar SO South West Delhi",
        "pincode": "110023",
        "officetype": "PO",
        "delivery": "Non Delivery",
        "district": "NEW DELHI",
        "statename": "DELHI",
        "latitude": "28.58",
        "longitude": "77.19"
    },
    {
        "circlename": "Delhi Circle",
        "regionname": "DivReportingCircle",
        "divisionname": "New Delhi South West Division",
        "officename": "Palam Airport SO",
        "pincode": "110037",
        "officetype": "PO",
        "delivery": "Non Delivery",
        "district": "NEW DELHI",
        "statename": "DELHI",
        "latitude": "28.5745556",
        "longitude": "77.0975556"
    },
    {
        "circlename": "Delhi Circle",
        "regionname": "DivReportingCircle",
        "divisionname": "New Delhi South West Division",
        "officename": "R K Puram Sect1 SO",
        "pincode": "110022",
        "officetype": "PO",
        "delivery": "Non Delivery",
        "district": "NEW DELHI",
        "statename": "DELHI",
        "latitude": "28.5615556",
        "longitude": "77.1792222"
    },
    {
        "circlename": "Delhi Circle",
        "regionname": "DivReportingCircle",
        "divisionname": "New Delhi South West Division",
        "officename": "Subroto Park SO",
        "pincode": "110010",
        "officetype": "PO",
        "delivery": "Non Delivery",
        "district": "NEW DELHI",
        "statename": "DELHI",
        "latitude": "28.5832500",
        "longitude": "77.1473611"
    },
    {
        "circlename": "Delhi Circle",
        "regionname": "DivReportingCircle",
        "divisionname": "New Delhi South West Division",
        "officename": "T B Hospital SO",
        "pincode": "110030",
        "officetype": "PO",
        "delivery": "Non Delivery",
        "district": "SOUTH",
        "statename": "DELHI",
        "latitude": "28.5303611",
        "longitude": "77.1889722"
    },
    {
        "circlename": "Delhi Circle",
        "regionname": "DivReportingCircle",
        "divisionname": "New Delhi West Division",
        "officename": "CRPF Jharoda Kalan S.O",
        "pincode": "110072",
        "officetype": "PO",
        "delivery": "Delivery",
        "district": "SOUTH WEST",
        "statename": "DELHI",
        "latitude": "28.6359167",
        "longitude": "77.9605833"
    },
    {
        "circlename": "Delhi Circle",
        "regionname": "DivReportingCircle",
        "divisionname": "New Delhi West Division",
        "officename": "Nangal Raya S.O",
        "pincode": "110046",
        "officetype": "PO",
        "delivery": "Delivery",
        "district": "NEW DELHI",
        "statename": "DELHI",
        "latitude": "28.6110556",
        "longitude": "77.1088056"
    },
    {
        "circlename": "Delhi Circle",
        "regionname": "DivReportingCircle",
        "divisionname": "New Delhi West Division",
        "officename": "Naraina Village S.O",
        "pincode": "110028",
        "officetype": "PO",
        "delivery": "Non Delivery",
        "district": "NEW DELHI",
        "statename": "DELHI",
        "latitude": "28.6305000",
        "longitude": "77.1349167"
    },
    {
        "circlename": "Delhi Circle",
        "regionname": "DivReportingCircle",
        "divisionname": "New Delhi West Division",
        "officename": "Palam Extn (Harijan Basti) S.O",
        "pincode": "110077",
        "officetype": "PO",
        "delivery": "Non Delivery",
        "district": "SOUTH WEST",
        "statename": "DELHI",
        "latitude": "28.5879440",
        "longitude": "77.0722760"
    },
    {
        "circlename": "Delhi Circle",
        "regionname": "DivReportingCircle",
        "divisionname": "New Delhi West Division",
        "officename": "Sagarpur S.O",
        "pincode": "110046",
        "officetype": "PO",
        "delivery": "Non Delivery",
        "district": "NEW DELHI",
        "statename": "DELHI",
        "latitude": "28.6110556",
        "longitude": "77.1029167"
    },
    {
        "circlename": "Delhi Circle",
        "regionname": "DivReportingCircle",
        "divisionname": "New Delhi West Division",
        "officename": "Dhansa S.O",
        "pincode": "110073",
        "officetype": "PO",
        "delivery": "Non Delivery",
        "district": "SOUTH WEST",
        "statename": "DELHI",
        "latitude": "28.5544850",
        "longitude": "76.8650290"
    },
    {
        "circlename": "Delhi Circle",
        "regionname": "DivReportingCircle",
        "divisionname": "New Delhi West Division",
        "officename": "Chanchal Park SO",
        "pincode": "110043",
        "officetype": "PO",
        "delivery": "Non Delivery",
        "district": "WEST",
        "statename": "DELHI",
        "latitude": "NA",
        "longitude": "NA"
    },
    {
        "circlename": "Delhi Circle",
        "regionname": "DivReportingCircle",
        "divisionname": "New Delhi West Division",
        "officename": "NDC DWARKA SEC-6",
        "pincode": "110075",
        "officetype": "PO",
        "delivery": "Non Delivery",
        "district": "SOUTH WEST",
        "statename": "DELHI",
        "latitude": "28.6068611",
        "longitude": "77.0415278"
    },
    {
        "circlename": "Delhi Circle",
        "regionname": "DivReportingCircle",
        "divisionname": "New Delhi West Division",
        "officename": "D. K. Mohan Garden S.O",
        "pincode": "110059",
        "officetype": "PO",
        "delivery": "Delivery",
        "district": "WEST",
        "statename": "DELHI",
        "latitude": "28.6215000",
        "longitude": "77.0415278"
    },
    {
        "circlename": "Delhi Circle",
        "regionname": "DivReportingCircle",
        "divisionname": "New Delhi West Division",
        "officename": "ESI S.O",
        "pincode": "110015",
        "officetype": "PO",
        "delivery": "Non Delivery",
        "district": "WEST",
        "statename": "DELHI",
        "latitude": "28.6591944",
        "longitude": "77.1315000"
    },
    {
        "circlename": "Delhi Circle",
        "regionname": "DivReportingCircle",
        "divisionname": "New Delhi West Division",
        "officename": "Fateh Nagar S.O",
        "pincode": "110018",
        "officetype": "PO",
        "delivery": "Non Delivery",
        "district": "WEST",
        "statename": "DELHI",
        "latitude": "28.6333056",
        "longitude": "77.0996944"
    },
    {
        "circlename": "Delhi Circle",
        "regionname": "DivReportingCircle",
        "divisionname": "New Delhi West Division",
        "officename": "Hari Nagar BE Block S.O",
        "pincode": "110064",
        "officetype": "PO",
        "delivery": "Non Delivery",
        "district": "WEST",
        "statename": "DELHI",
        "latitude": "28.6287778",
        "longitude": "77.1226111"
    },
    {
        "circlename": "Delhi Circle",
        "regionname": "DivReportingCircle",
        "divisionname": "New Delhi West Division",
        "officename": "Hari Nagar Dadb Block S.O",
        "pincode": "110064",
        "officetype": "PO",
        "delivery": "Non Delivery",
        "district": "WEST",
        "statename": "DELHI",
        "latitude": "28.6234444",
        "longitude": "77.1076111"
    },
    {
        "circlename": "Delhi Circle",
        "regionname": "DivReportingCircle",
        "divisionname": "New Delhi West Division",
        "officename": "Janakpuri B 1 S.O",
        "pincode": "110058",
        "officetype": "PO",
        "delivery": "Delivery",
        "district": "WEST",
        "statename": "DELHI",
        "latitude": "28.630065",
        "longitude": "77.091207"
    },
    {
        "circlename": "Delhi Circle",
        "regionname": "DivReportingCircle",
        "divisionname": "New Delhi West Division",
        "officename": "Karam Pura S.O",
        "pincode": "110015",
        "officetype": "PO",
        "delivery": "Non Delivery",
        "district": "WEST",
        "statename": "DELHI",
        "latitude": "28.6645556",
        "longitude": "77.0786389"
    },
    {
        "circlename": "Delhi Circle",
        "regionname": "DivReportingCircle",
        "divisionname": "New Delhi West Division",
        "officename": "Khyala Phase   II S.O",
        "pincode": "110018",
        "officetype": "PO",
        "delivery": "Non Delivery",
        "district": "WEST",
        "statename": "DELHI",
        "latitude": "28.6569167",
        "longitude": "77.1032500"
    },
    {
        "circlename": "Delhi Circle",
        "regionname": "DivReportingCircle",
        "divisionname": "New Delhi West Division",
        "officename": "Paschim Vihar B Block S.O",
        "pincode": "110063",
        "officetype": "PO",
        "delivery": "Non Delivery",
        "district": "WEST",
        "statename": "DELHI",
        "latitude": "28.6632500",
        "longitude": "77.1088056"
    },
    {
        "circlename": "Delhi Circle",
        "regionname": "DivReportingCircle",
        "divisionname": "New Delhi West Division",
        "officename": "Punjabi Bagh S.O",
        "pincode": "110026",
        "officetype": "PO",
        "delivery": "Delivery",
        "district": "WEST",
        "statename": "DELHI",
        "latitude": "28.6678611",
        "longitude": "77.1434444"
    },
    {
        "circlename": "Delhi Circle",
        "regionname": "DivReportingCircle",
        "divisionname": "New Delhi West Division",
        "officename": "Rajouri Garden J 6 S.O",
        "pincode": "110027",
        "officetype": "PO",
        "delivery": "Non Delivery",
        "district": "WEST",
        "statename": "DELHI",
        "latitude": "28.6427222",
        "longitude": "77.1232500"
    },
    {
        "circlename": "Delhi Circle",
        "regionname": "DivReportingCircle",
        "divisionname": "New Delhi West Division",
        "officename": "Tilak Nagar S.O (West Delhi)",
        "pincode": "110018",
        "officetype": "PO",
        "delivery": "Delivery",
        "district": "WEST",
        "statename": "DELHI",
        "latitude": "28.6498611",
        "longitude": "77.1306667"
    },
    {
        "circlename": "Delhi Circle",
        "regionname": "DivReportingCircle",
        "divisionname": "New Delhi West Division",
        "officename": "Vikas Puri S.O",
        "pincode": "110018",
        "officetype": "PO",
        "delivery": "Non Delivery",
        "district": "WEST",
        "statename": "DELHI",
        "latitude": "28.6396389",
        "longitude": "77.0761111"
    },
    {
        "circlename": "Delhi Circle",
        "regionname": "DivReportingCircle",
        "divisionname": "New Delhi West Division",
        "officename": "Zakhira S.O",
        "pincode": "110015",
        "officetype": "PO",
        "delivery": "Non Delivery",
        "district": "WEST",
        "statename": "DELHI",
        "latitude": "28.6659722",
        "longitude": "77.1647778"
    },
    {
        "circlename": "Delhi Circle",
        "regionname": "DivReportingCircle",
        "divisionname": "New Delhi West Division",
        "officename": "K5 Extn. Mohan Garden",
        "pincode": "110059",
        "officetype": "PO",
        "delivery": "Non Delivery",
        "district": "WEST",
        "statename": "DELHI",
        "latitude": "28.6354370",
        "longitude": "77.0439580"
    },
    {
        "circlename": "Delhi Circle",
        "regionname": "DivReportingCircle",
        "divisionname": "New Delhi Central Division",
        "officename": "Indraprastha HO",
        "pincode": "110002",
        "officetype": "HO",
        "delivery": "Delivery",
        "district": "CENTRAL",
        "statename": "DELHI",
        "latitude": "28.6317778",
        "longitude": "77.2402500"
    },
    {
        "circlename": "Delhi Circle",
        "regionname": "DivReportingCircle",
        "divisionname": "New Delhi Central Division",
        "officename": "Sansad Marg HO",
        "pincode": "110001",
        "officetype": "HO",
        "delivery": "Non Delivery",
        "district": "NEW DELHI",
        "statename": "DELHI",
        "latitude": "28.6225833",
        "longitude": "77.2127222"
    },
    {
        "circlename": "Delhi Circle",
        "regionname": "DivReportingCircle",
        "divisionname": "New Delhi South West Division",
        "officename": "Sarojini Nagar HO",
        "pincode": "110023",
        "officetype": "HO",
        "delivery": "Delivery",
        "district": "NEW DELHI",
        "statename": "DELHI",
        "latitude": "28.575476",
        "longitude": "77.199648"
    },
    {
        "circlename": "Delhi Circle",
        "regionname": "DivReportingCircle",
        "divisionname": "Delhi East Division",
        "officename": "Jhilmil Tahirpur BO",
        "pincode": "110095",
        "officetype": "BO",
        "delivery": "Non Delivery",
        "district": "SHAHDARA",
        "statename": "DELHI",
        "latitude": "28.6825400",
        "longitude": "77.3131500"
    },
    {
        "circlename": "Delhi Circle",
        "regionname": "DivReportingCircle",
        "divisionname": "Delhi East Division",
        "officename": "Johripur BO",
        "pincode": "110094",
        "officetype": "BO",
        "delivery": "Non Delivery",
        "district": "NORTH EAST",
        "statename": "DELHI",
        "latitude": "28.6922500",
        "longitude": "77.3042222"
    },
    {
        "circlename": "Delhi Circle",
        "regionname": "DivReportingCircle",
        "divisionname": "Delhi North Division",
        "officename": "Barwala BO",
        "pincode": "110039",
        "officetype": "BO",
        "delivery": "Delivery",
        "district": "NORTH",
        "statename": "DELHI",
        "latitude": "28.7996944",
        "longitude": "77.0380555"
    },
    {
        "circlename": "Delhi Circle",
        "regionname": "DivReportingCircle",
        "divisionname": "Delhi North Division",
        "officename": "Bhalaswa BO",
        "pincode": "110033",
        "officetype": "BO",
        "delivery": "Non Delivery",
        "district": "NORTH",
        "statename": "DELHI",
        "latitude": "28.72775",
        "longitude": "77.163611099999997"
    },
    {
        "circlename": "Delhi Circle",
        "regionname": "DivReportingCircle",
        "divisionname": "Delhi North Division",
        "officename": "Karala BO",
        "pincode": "110081",
        "officetype": "BO",
        "delivery": "Delivery",
        "district": "NORTH WEST",
        "statename": "DELHI",
        "latitude": "28.7349166",
        "longitude": "77.0055555"
    },
    {
        "circlename": "Delhi Circle",
        "regionname": "DivReportingCircle",
        "divisionname": "Delhi North Division",
        "officename": "Lad Pur BO",
        "pincode": "110081",
        "officetype": "BO",
        "delivery": "Delivery",
        "district": "NORTH WEST",
        "statename": "DELHI",
        "latitude": "28.7349166",
        "longitude": "77.0055555"
    },
    {
        "circlename": "Delhi Circle",
        "regionname": "DivReportingCircle",
        "divisionname": "Delhi North Division",
        "officename": "Bankner BO",
        "pincode": "110040",
        "officetype": "BO",
        "delivery": "Delivery",
        "district": "NORTH",
        "statename": "DELHI",
        "latitude": "28.8508055",
        "longitude": "77.088055499999996"
    },
    {
        "circlename": "Delhi Circle",
        "regionname": "DivReportingCircle",
        "divisionname": "Delhi North Division",
        "officename": "Rampura BO",
        "pincode": "110035",
        "officetype": "BO",
        "delivery": "Non Delivery",
        "district": "NORTH WEST",
        "statename": "DELHI",
        "latitude": "28.6921111",
        "longitude": "77.1578611"
    },
    {
        "circlename": "Delhi Circle",
        "regionname": "DivReportingCircle",
        "divisionname": "Delhi North Division",
        "officename": "Begumpur BO",
        "pincode": "110086",
        "officetype": "BO",
        "delivery": "Delivery",
        "district": "NORTH WEST",
        "statename": "DELHI",
        "latitude": "28.7016111",
        "longitude": "77.0797222"
    },
    {
        "circlename": "Delhi Circle",
        "regionname": "DivReportingCircle",
        "divisionname": "Delhi North Division",
        "officename": "Budh Vihar BO",
        "pincode": "110086",
        "officetype": "BO",
        "delivery": "Non Delivery",
        "district": "NORTH WEST",
        "statename": "DELHI",
        "latitude": "28.701611100000001",
        "longitude": "77.079722200000006"
    },
    {
        "circlename": "Delhi Circle",
        "regionname": "DivReportingCircle",
        "divisionname": "New Delhi South Division",
        "officename": "Jaitpur BO",
        "pincode": "110044",
        "officetype": "BO",
        "delivery": "Non Delivery",
        "district": "SOUTH",
        "statename": "DELHI",
        "latitude": "28.530000000000001",
        "longitude": "77.209999999999994"
    },
    {
        "circlename": "Delhi Circle",
        "regionname": "DivReportingCircle",
        "divisionname": "New Delhi South West Division",
        "officename": "Rajokari BO",
        "pincode": "110038",
        "officetype": "BO",
        "delivery": "Non Delivery",
        "district": "NEW DELHI",
        "statename": "DELHI",
        "latitude": "28.5200000",
        "longitude": "77.0900000"
    },
    {
        "circlename": "Delhi Circle",
        "regionname": "DivReportingCircle",
        "divisionname": "New Delhi South West Division",
        "officename": "Dera BO",
        "pincode": "110074",
        "officetype": "BO",
        "delivery": "Non Delivery",
        "district": "SOUTH",
        "statename": "DELHI",
        "latitude": "28.507305500000001",
        "longitude": "77.184555500000002"
    },
    {
        "circlename": "Delhi Circle",
        "regionname": "DivReportingCircle",
        "divisionname": "New Delhi South West Division",
        "officename": "BHATI VILLAGE BO",
        "pincode": "110074",
        "officetype": "BO",
        "delivery": "Delivery",
        "district": "SOUTH",
        "statename": "DELHI",
        "latitude": "28.5073055",
        "longitude": "77.1845555"
    },
    {
        "circlename": "Delhi Circle",
        "regionname": "DivReportingCircle",
        "divisionname": "New Delhi South West Division",
        "officename": "Satbari",
        "pincode": "110074",
        "officetype": "BO",
        "delivery": "Non Delivery",
        "district": "SOUTH",
        "statename": "DELHI",
        "latitude": "NA",
        "longitude": "NA"
    },
    {
        "circlename": "Delhi Circle",
        "regionname": "DivReportingCircle",
        "divisionname": "New Delhi South West Division",
        "officename": "Nangal Dewat BO",
        "pincode": "110037",
        "officetype": "BO",
        "delivery": "Non Delivery",
        "district": "NEW DELHI",
        "statename": "DELHI",
        "latitude": "28.530277699999999",
        "longitude": "77.115527700000001"
    },
    {
        "circlename": "Delhi Circle",
        "regionname": "DivReportingCircle",
        "divisionname": "New Delhi South West Division",
        "officename": "Sultanpur BO",
        "pincode": "110030",
        "officetype": "BO",
        "delivery": "Non Delivery",
        "district": "SOUTH",
        "statename": "DELHI",
        "latitude": "28.5176111",
        "longitude": "77.179361099999994"
    },
    {
        "circlename": "Delhi Circle",
        "regionname": "DivReportingCircle",
        "divisionname": "New Delhi South West Division",
        "officename": "Masood Pur BO",
        "pincode": "110070",
        "officetype": "BO",
        "delivery": "Non Delivery",
        "district": "NEW DELHI",
        "statename": "DELHI",
        "latitude": "28.5200000",
        "longitude": "77.1500000"
    },
    {
        "circlename": "Delhi Circle",
        "regionname": "DivReportingCircle",
        "divisionname": "New Delhi West Division",
        "officename": "Kangan Heri B.O",
        "pincode": "110071",
        "officetype": "BO",
        "delivery": "Non Delivery",
        "district": "SOUTH WEST",
        "statename": "DELHI",
        "latitude": "28.5461860",
        "longitude": "76.9901870"
    },
    {
        "circlename": "Delhi Circle",
        "regionname": "DivReportingCircle",
        "divisionname": "New Delhi West Division",
        "officename": "Baprola B.O",
        "pincode": "110043",
        "officetype": "BO",
        "delivery": "Non Delivery",
        "district": "WEST",
        "statename": "DELHI",
        "latitude": "28.6397830",
        "longitude": "77.0080010"
    },
    {
        "circlename": "Delhi Circle",
        "regionname": "DivReportingCircle",
        "divisionname": "New Delhi West Division",
        "officename": "Dindarpur B.O",
        "pincode": "110043",
        "officetype": "BO",
        "delivery": "Non Delivery",
        "district": "WEST",
        "statename": "DELHI",
        "latitude": "28.5925360",
        "longitude": "76.9938270"
    },
    {
        "circlename": "Delhi Circle",
        "regionname": "DivReportingCircle",
        "divisionname": "New Delhi West Division",
        "officename": "Dabri B.O",
        "pincode": "110045",
        "officetype": "BO",
        "delivery": "Non Delivery",
        "district": "SOUTH WEST",
        "statename": "DELHI",
        "latitude": "28.609674999999999",
        "longitude": "77.089541999999994"
    },
    {
        "circlename": "Delhi Circle",
        "regionname": "DivReportingCircle",
        "divisionname": "New Delhi West Division",
        "officename": "Bagdola B.O",
        "pincode": "110077",
        "officetype": "BO",
        "delivery": "Delivery",
        "district": "NEW DELHI",
        "statename": "DELHI",
        "latitude": "28.571529000000002",
        "longitude": "77.072995000000006"
    },
    {
        "circlename": "Delhi Circle",
        "regionname": "DivReportingCircle",
        "divisionname": "New Delhi West Division",
        "officename": "Barthal B.O",
        "pincode": "110077",
        "officetype": "BO",
        "delivery": "Delivery",
        "district": "SOUTH WEST",
        "statename": "DELHI",
        "latitude": "28.5428040",
        "longitude": "77.0491440"
    },
    {
        "circlename": "Delhi Circle",
        "regionname": "DivReportingCircle",
        "divisionname": "New Delhi West Division",
        "officename": "Dhulsiras B.O",
        "pincode": "110077",
        "officetype": "BO",
        "delivery": "Delivery",
        "district": "SOUTH WEST",
        "statename": "DELHI",
        "latitude": "28.5641730",
        "longitude": "77.0413340"
    },
    {
        "circlename": "Delhi Circle",
        "regionname": "DivReportingCircle",
        "divisionname": "New Delhi West Division",
        "officename": "Ghuman Hera B.O",
        "pincode": "110073",
        "officetype": "BO",
        "delivery": "Delivery",
        "district": "SOUTH WEST",
        "statename": "DELHI",
        "latitude": "28.5319990",
        "longitude": "76.9239730"
    },
    {
        "circlename": "Delhi Circle",
        "regionname": "DivReportingCircle",
        "divisionname": "New Delhi West Division",
        "officename": "Quazipur B.O",
        "pincode": "110073",
        "officetype": "BO",
        "delivery": "Delivery",
        "district": "SOUTH WEST",
        "statename": "DELHI",
        "latitude": "25.2651600",
        "longitude": "80.6964900"
    },
    {
        "circlename": "Delhi Circle",
        "regionname": "DivReportingCircle",
        "divisionname": "New Delhi West Division",
        "officename": "Matiala B.O",
        "pincode": "110059",
        "officetype": "BO",
        "delivery": "Non Delivery",
        "district": "WEST",
        "statename": "DELHI",
        "latitude": "28.6094090",
        "longitude": "77.0543250"
    },
    {
        "circlename": "Delhi Circle",
        "regionname": "DivReportingCircle",
        "divisionname": "New Delhi West Division",
        "officename": "Peeragarhi B.O",
        "pincode": "110087",
        "officetype": "BO",
        "delivery": "Non Delivery",
        "district": "WEST",
        "statename": "DELHI",
        "latitude": "28.6797450",
        "longitude": "77.0926890"
    },
    {
        "circlename": "Delhi Circle",
        "regionname": "DivReportingCircle",
        "divisionname": "New Delhi West Division",
        "officename": "Nangloi   II B.O",
        "pincode": "110041",
        "officetype": "BO",
        "delivery": "Non Delivery",
        "district": "WEST",
        "statename": "DELHI",
        "latitude": "28.6824070",
        "longitude": "77.0646310"
    },
    {
        "circlename": "Delhi Circle",
        "regionname": "DivReportingCircle",
        "divisionname": "New Delhi West Division",
        "officename": "Tikri Kalan B.O",
        "pincode": "110041",
        "officetype": "BO",
        "delivery": "Delivery",
        "district": "WEST",
        "statename": "DELHI",
        "latitude": "28.6823460",
        "longitude": "76.9671870"
    },
    {
        "circlename": "Delhi Circle",
        "regionname": "DivReportingCircle",
        "divisionname": "New Delhi West Division",
        "officename": "Chaukhandi B.O",
        "pincode": "110018",
        "officetype": "BO",
        "delivery": "Non Delivery",
        "district": "WEST",
        "statename": "DELHI",
        "latitude": "24.8671830",
        "longitude": "67.2736150"
    },
    {
        "circlename": "Delhi Circle",
        "regionname": "DivReportingCircle",
        "divisionname": "Delhi East Division",
        "officename": "Balbir Nagar SO",
        "pincode": "110032",
        "officetype": "PO",
        "delivery": "Non Delivery",
        "district": "SHAHDARA",
        "statename": "DELHI",
        "latitude": "28.6829444",
        "longitude": "77.2943611"
    },
    {
        "circlename": "Delhi Circle",
        "regionname": "DivReportingCircle",
        "divisionname": "Delhi East Division",
        "officename": "Gokal Puri SO",
        "pincode": "110094",
        "officetype": "PO",
        "delivery": "Delivery",
        "district": "NORTH EAST",
        "statename": "DELHI",
        "latitude": "28.7039444",
        "longitude": "77.2833056"
    },
    {
        "circlename": "Delhi Circle",
        "regionname": "DivReportingCircle",
        "divisionname": "Delhi East Division",
        "officename": "Harsh Vihar SO",
        "pincode": "110093",
        "officetype": "PO",
        "delivery": "Non Delivery",
        "district": "NORTH EAST",
        "statename": "DELHI",
        "latitude": "28.7021944",
        "longitude": "77.3236389"
    },
    {
        "circlename": "Delhi Circle",
        "regionname": "DivReportingCircle",
        "divisionname": "Delhi East Division",
        "officename": "Jagjit Nagar SO",
        "pincode": "110053",
        "officetype": "PO",
        "delivery": "Non Delivery",
        "district": "NORTH EAST",
        "statename": "DELHI",
        "latitude": "28.6870833",
        "longitude": "77.2591111"
    },
    {
        "circlename": "Delhi Circle",
        "regionname": "DivReportingCircle",
        "divisionname": "Delhi East Division",
        "officename": "Loni Road SO",
        "pincode": "110032",
        "officetype": "PO",
        "delivery": "Non Delivery",
        "district": "SHAHDARA",
        "statename": "DELHI",
        "latitude": "28.6921667",
        "longitude": "77.3042222"
    },
    {
        "circlename": "Delhi Circle",
        "regionname": "DivReportingCircle",
        "divisionname": "Delhi East Division",
        "officename": "New Seemapuri SO",
        "pincode": "110095",
        "officetype": "PO",
        "delivery": "Non Delivery",
        "district": "SHAHDARA",
        "statename": "DELHI",
        "latitude": "28.6891667",
        "longitude": "77.3285000"
    },
    {
        "circlename": "Delhi Circle",
        "regionname": "DivReportingCircle",
        "divisionname": "Delhi East Division",
        "officename": "Old Seemapuri SO",
        "pincode": "110095",
        "officetype": "PO",
        "delivery": "Non Delivery",
        "district": "SHAHDARA",
        "statename": "DELHI",
        "latitude": "28.6805556",
        "longitude": "77.3303333"
    },
    {
        "circlename": "Delhi Circle",
        "regionname": "DivReportingCircle",
        "divisionname": "Delhi East Division",
        "officename": "Shivaji Park SO East Delhi",
        "pincode": "110032",
        "officetype": "PO",
        "delivery": "Non Delivery",
        "district": "SHAHDARA",
        "statename": "DELHI",
        "latitude": "28.6739166",
        "longitude": "77.3198333"
    },
    {
        "circlename": "Delhi Circle",
        "regionname": "DivReportingCircle",
        "divisionname": "Delhi East Division",
        "officename": "Geeta Colony SO",
        "pincode": "110031",
        "officetype": "PO",
        "delivery": "Non Delivery",
        "district": "SHAHDARA",
        "statename": "DELHI",
        "latitude": "28.6530000",
        "longitude": "77.2741667"
    },
    {
        "circlename": "Delhi Circle",
        "regionname": "DivReportingCircle",
        "divisionname": "Delhi East Division",
        "officename": "Kalyanpuri SO",
        "pincode": "110091",
        "officetype": "PO",
        "delivery": "Non Delivery",
        "district": "EAST",
        "statename": "DELHI",
        "latitude": "28.6146944",
        "longitude": "77.3178056"
    },
    {
        "circlename": "Delhi Circle",
        "regionname": "DivReportingCircle",
        "divisionname": "Delhi East Division",
        "officename": "Rajgarh Colony SO",
        "pincode": "110031",
        "officetype": "PO",
        "delivery": "Non Delivery",
        "district": "EAST",
        "statename": "DELHI",
        "latitude": "28.6592500",
        "longitude": "77.2742222"
    },
    {
        "circlename": "Delhi Circle",
        "regionname": "DivReportingCircle",
        "divisionname": "Delhi East Division",
        "officename": "Vivek Vihar SO",
        "pincode": "110095",
        "officetype": "PO",
        "delivery": "Non Delivery",
        "district": "SHAHDARA",
        "statename": "DELHI",
        "latitude": "28.6759722",
        "longitude": "77.3267778"
    },
    {
        "circlename": "Delhi Circle",
        "regionname": "DivReportingCircle",
        "divisionname": "Delhi East Division",
        "officename": "CHILLA  SO",
        "pincode": "110091",
        "officetype": "PO",
        "delivery": "Non Delivery",
        "district": "EAST",
        "statename": "DELHI",
        "latitude": "28.5959",
        "longitude": "77.3003"
    },
    {
        "circlename": "Delhi Circle",
        "regionname": "DivReportingCircle",
        "divisionname": "Delhi North Division",
        "officename": "Delhi Sadar Bazar SO",
        "pincode": "110006",
        "officetype": "PO",
        "delivery": "Non Delivery",
        "district": "NORTH",
        "statename": "DELHI",
        "latitude": "28.6579722",
        "longitude": "77.2144444"
    },
    {
        "circlename": "Delhi Circle",
        "regionname": "DivReportingCircle",
        "divisionname": "Delhi North Division",
        "officename": "Delhi University SO",
        "pincode": "110007",
        "officetype": "PO",
        "delivery": "Non Delivery",
        "district": "NORTH",
        "statename": "DELHI",
        "latitude": "28.6897500",
        "longitude": "77.2152778"
    },
    {
        "circlename": "Delhi Circle",
        "regionname": "DivReportingCircle",
        "divisionname": "Delhi North Division",
        "officename": "Padam Nagar SO North Delhi",
        "pincode": "110007",
        "officetype": "PO",
        "delivery": "Non Delivery",
        "district": "NORTH",
        "statename": "DELHI",
        "latitude": "28.6674540",
        "longitude": "77.1917010"
    },
    {
        "circlename": "Delhi Circle",
        "regionname": "DivReportingCircle",
        "divisionname": "Delhi North Division",
        "officename": "Roshan Ara Road SO",
        "pincode": "110007",
        "officetype": "PO",
        "delivery": "Non Delivery",
        "district": "NORTH",
        "statename": "DELHI",
        "latitude": "28.6689444",
        "longitude": "77.2061111"
    },
    {
        "circlename": "Delhi Circle",
        "regionname": "DivReportingCircle",
        "divisionname": "Delhi GPO Division",
        "officename": "DELHI GPO NDC",
        "pincode": "110106",
        "officetype": "PO",
        "delivery": "Delivery",
        "district": "NORTH",
        "statename": "DELHI",
        "latitude": "28.662289",
        "longitude": "77.235553"
    },
    {
        "circlename": "Delhi Circle",
        "regionname": "DivReportingCircle",
        "divisionname": "Delhi North Division",
        "officename": "Alipur SO",
        "pincode": "110036",
        "officetype": "PO",
        "delivery": "Delivery",
        "district": "NORTH",
        "statename": "DELHI",
        "latitude": "28.7978056",
        "longitude": "77.1300000"
    },
    {
        "circlename": "Delhi Circle",
        "regionname": "DivReportingCircle",
        "divisionname": "Delhi North Division",
        "officename": "Anandvas Shakurpur SO",
        "pincode": "110034",
        "officetype": "PO",
        "delivery": "Non Delivery",
        "district": "NORTH WEST",
        "statename": "DELHI",
        "latitude": "28.7061667",
        "longitude": "77.1483333"
    },
    {
        "circlename": "Delhi Circle",
        "regionname": "DivReportingCircle",
        "divisionname": "Delhi North Division",
        "officename": "Maurya Enclave SO",
        "pincode": "110034",
        "officetype": "PO",
        "delivery": "Non Delivery",
        "district": "NORTH WEST",
        "statename": "DELHI",
        "latitude": "28.7046667",
        "longitude": "77.1447222"
    },
    {
        "circlename": "Delhi Circle",
        "regionname": "DivReportingCircle",
        "divisionname": "Delhi North Division",
        "officename": "Keshavpuram SO",
        "pincode": "110035",
        "officetype": "PO",
        "delivery": "Delivery",
        "district": "NORTH WEST",
        "statename": "DELHI",
        "latitude": "28.6921111",
        "longitude": "77.1578611"
    },
    {
        "circlename": "Delhi Circle",
        "regionname": "DivReportingCircle",
        "divisionname": "Delhi North Division",
        "officename": "Power House SO",
        "pincode": "110035",
        "officetype": "PO",
        "delivery": "Non Delivery",
        "district": "NORTH WEST",
        "statename": "DELHI",
        "latitude": "28.6738333",
        "longitude": "77.1445833"
    },
    {
        "circlename": "Delhi Circle",
        "regionname": "DivReportingCircle",
        "divisionname": "Delhi North Division",
        "officename": "Rani Bagh SO",
        "pincode": "110034",
        "officetype": "PO",
        "delivery": "Non Delivery",
        "district": "NORTH WEST",
        "statename": "DELHI",
        "latitude": "28.6887500",
        "longitude": "77.1321111"
    },
    {
        "circlename": "Delhi Circle",
        "regionname": "DivReportingCircle",
        "divisionname": "Delhi North Division",
        "officename": "Rohini Courts SO",
        "pincode": "110085",
        "officetype": "PO",
        "delivery": "Non Delivery",
        "district": "NORTH WEST",
        "statename": "DELHI",
        "latitude": "28.7077500",
        "longitude": "77.1320000"
    },
    {
        "circlename": "Delhi Circle",
        "regionname": "DivReportingCircle",
        "divisionname": "Delhi North Division",
        "officename": "Rohini sec11 SO",
        "pincode": "110085",
        "officetype": "PO",
        "delivery": "Non Delivery",
        "district": "NORTH WEST",
        "statename": "DELHI",
        "latitude": "28.7288260",
        "longitude": "77.1068060"
    },
    {
        "circlename": "Delhi Circle",
        "regionname": "DivReportingCircle",
        "divisionname": "Delhi North Division",
        "officename": "Saraswati Vihar SO",
        "pincode": "110034",
        "officetype": "PO",
        "delivery": "Delivery",
        "district": "NORTH WEST",
        "statename": "DELHI",
        "latitude": "28.6972778",
        "longitude": "77.1269444"
    },
    {
        "circlename": "Delhi Circle",
        "regionname": "DivReportingCircle",
        "divisionname": "Delhi North Division",
        "officename": "Sri Nagar Colony SO",
        "pincode": "110034",
        "officetype": "PO",
        "delivery": "Non Delivery",
        "district": "NORTH WEST",
        "statename": "DELHI",
        "latitude": "28.6819167",
        "longitude": "77.1366667"
    },
    {
        "circlename": "Delhi Circle",
        "regionname": "DivReportingCircle",
        "divisionname": "Delhi North Division",
        "officename": "Nodal Delivery Centre(Parcel) Rohini",
        "pincode": "110110",
        "officetype": "PO",
        "delivery": "Delivery",
        "district": "NORTH WEST",
        "statename": "DELHI",
        "latitude": "28.71575",
        "longitude": "77.11"
    },
    {
        "circlename": "Delhi Circle",
        "regionname": "DivReportingCircle",
        "divisionname": "New Delhi Central Division",
        "officename": "Darya Ganj SO",
        "pincode": "110002",
        "officetype": "PO",
        "delivery": "Non Delivery",
        "district": "CENTRAL",
        "statename": "DELHI",
        "latitude": "28.6471667",
        "longitude": "77.2399444"
    },
    {
        "circlename": "Delhi Circle",
        "regionname": "DivReportingCircle",
        "divisionname": "New Delhi Central Division",
        "officename": "Supreme Court SO",
        "pincode": "110001",
        "officetype": "PO",
        "delivery": "Non Delivery",
        "district": "NEW DELHI",
        "statename": "DELHI",
        "latitude": "28.6212222",
        "longitude": "77.2380278"
    },
    {
        "circlename": "Delhi Circle",
        "regionname": "DivReportingCircle",
        "divisionname": "New Delhi Central Division",
        "officename": "Civic Centre PO",
        "pincode": "110002",
        "officetype": "PO",
        "delivery": "Non Delivery",
        "district": "CENTRAL",
        "statename": "DELHI",
        "latitude": "28.6411000",
        "longitude": "77.2272000"
    },
    {
        "circlename": "Delhi Circle",
        "regionname": "DivReportingCircle",
        "divisionname": "New Delhi Central Division",
        "officename": "NGT EXTENSION COUNTER",
        "pincode": "110001",
        "officetype": "PO",
        "delivery": "Non Delivery",
        "district": "NEW DELHI",
        "statename": "DELHI",
        "latitude": "28.6100000",
        "longitude": "77.2900000"
    },
    {
        "circlename": "Delhi Circle",
        "regionname": "DivReportingCircle",
        "divisionname": "New Delhi Central Division",
        "officename": "Parliament House SO",
        "pincode": "110001",
        "officetype": "PO",
        "delivery": "Non Delivery",
        "district": "NEW DELHI",
        "statename": "DELHI",
        "latitude": "28.6165000",
        "longitude": "77.2009722"
    },
    {
        "circlename": "Delhi Circle",
        "regionname": "DivReportingCircle",
        "divisionname": "New Delhi Central Division",
        "officename": "AKMarket SO",
        "pincode": "110055",
        "officetype": "PO",
        "delivery": "Non Delivery",
        "district": "CENTRAL",
        "statename": "DELHI",
        "latitude": "28.6448889",
        "longitude": "77.2020556"
    },
    {
        "circlename": "Delhi Circle",
        "regionname": "DivReportingCircle",
        "divisionname": "New Delhi Central Division",
        "officename": "Desh Bandhu Gupta Road SO",
        "pincode": "110005",
        "officetype": "PO",
        "delivery": "Non Delivery",
        "district": "CENTRAL",
        "statename": "DELHI",
        "latitude": "28.6535556",
        "longitude": "77.1918333"
    },
    {
        "circlename": "Delhi Circle",
        "regionname": "DivReportingCircle",
        "divisionname": "New Delhi Central Division",
        "officename": "Guru Gobind Singh Marg SO",
        "pincode": "110005",
        "officetype": "PO",
        "delivery": "Non Delivery",
        "district": "CENTRAL",
        "statename": "DELHI",
        "latitude": "28.6556667",
        "longitude": "77.1990000"
    },
    {
        "circlename": "Delhi Circle",
        "regionname": "DivReportingCircle",
        "divisionname": "New Delhi Central Division",
        "officename": "IARI SO",
        "pincode": "110012",
        "officetype": "PO",
        "delivery": "Delivery",
        "district": "WEST",
        "statename": "DELHI",
        "latitude": "28.6401944",
        "longitude": "77.1659722"
    },
    {
        "circlename": "Delhi Circle",
        "regionname": "DivReportingCircle",
        "divisionname": "New Delhi South Division",
        "officename": "Air Force Station Tugalkabad SO",
        "pincode": "110080",
        "officetype": "PO",
        "delivery": "Non Delivery",
        "district": "SOUTH",
        "statename": "DELHI",
        "latitude": "28.5100278",
        "longitude": "77.2542778"
    },
    {
        "circlename": "Delhi Circle",
        "regionname": "DivReportingCircle",
        "divisionname": "New Delhi South Division",
        "officename": "Badarpur SO South Delhi",
        "pincode": "110044",
        "officetype": "PO",
        "delivery": "Delivery",
        "district": "SOUTH",
        "statename": "DELHI",
        "latitude": "28.504200",
        "longitude": "77.302200"
    },
    {
        "circlename": "Delhi Circle",
        "regionname": "DivReportingCircle",
        "divisionname": "New Delhi South Division",
        "officename": "BSF Camp Tigri SO",
        "pincode": "110080",
        "officetype": "PO",
        "delivery": "Non Delivery",
        "district": "SOUTH",
        "statename": "DELHI",
        "latitude": "28.5105278",
        "longitude": "77.2424167"
    },
    {
        "circlename": "Delhi Circle",
        "regionname": "DivReportingCircle",
        "divisionname": "New Delhi South Division",
        "officename": "Dakshinpuri PhaseI SO",
        "pincode": "110062",
        "officetype": "PO",
        "delivery": "Non Delivery",
        "district": "SOUTH",
        "statename": "DELHI",
        "latitude": "28.5227222",
        "longitude": "77.2404444"
    },
    {
        "circlename": "Delhi Circle",
        "regionname": "DivReportingCircle",
        "divisionname": "New Delhi South Division",
        "officename": "Dakshinpuri PhaseIII SO",
        "pincode": "110062",
        "officetype": "PO",
        "delivery": "Non Delivery",
        "district": "SOUTH",
        "statename": "DELHI",
        "latitude": "28.5155278",
        "longitude": "77.2374722"
    },
    {
        "circlename": "Delhi Circle",
        "regionname": "DivReportingCircle",
        "divisionname": "New Delhi South Division",
        "officename": "Hamdard Nagar SO",
        "pincode": "110062",
        "officetype": "PO",
        "delivery": "Non Delivery",
        "district": "SOUTH",
        "statename": "DELHI",
        "latitude": "28.5125556",
        "longitude": "77.2510556"
    },
    {
        "circlename": "Delhi Circle",
        "regionname": "DivReportingCircle",
        "divisionname": "New Delhi South Division",
        "officename": "New Friends Colony SO",
        "pincode": "110025",
        "officetype": "PO",
        "delivery": "Delivery",
        "district": "SOUTH",
        "statename": "DELHI",
        "latitude": "28.5618611",
        "longitude": "77.2682500"
    },
    {
        "circlename": "Delhi Circle",
        "regionname": "DivReportingCircle",
        "divisionname": "New Delhi South Division",
        "officename": "Tugalkabad Railway Colony SO",
        "pincode": "110044",
        "officetype": "PO",
        "delivery": "Non Delivery",
        "district": "South East",
        "statename": "DELHI",
        "latitude": "28.5049167",
        "longitude": "77.2891111"
    },
    {
        "circlename": "Delhi Circle",
        "regionname": "DivReportingCircle",
        "divisionname": "New Delhi South Division",
        "officename": "KALKAJI NDC",
        "pincode": "110119",
        "officetype": "PO",
        "delivery": "Delivery",
        "district": "South East",
        "statename": "DELHI",
        "latitude": "28.542802",
        "longitude": "77.257506"
    },
    {
        "circlename": "Delhi Circle",
        "regionname": "DivReportingCircle",
        "divisionname": "New Delhi South Division",
        "officename": "East Of Kailash PhaseI SO",
        "pincode": "110065",
        "officetype": "PO",
        "delivery": "Non Delivery",
        "district": "South East",
        "statename": "DELHI",
        "latitude": "28.5593611",
        "longitude": "77.2568056"
    },
    {
        "circlename": "Delhi Circle",
        "regionname": "DivReportingCircle",
        "divisionname": "New Delhi South Division",
        "officename": "Gautam Nagar SO",
        "pincode": "110049",
        "officetype": "PO",
        "delivery": "Non Delivery",
        "district": "South East",
        "statename": "DELHI",
        "latitude": "28.5617090",
        "longitude": "77.2112240"
    },
    {
        "circlename": "Delhi Circle",
        "regionname": "DivReportingCircle",
        "divisionname": "New Delhi South Division",
        "officename": "Sadiq Nagar SO",
        "pincode": "110049",
        "officetype": "PO",
        "delivery": "Non Delivery",
        "district": "South East",
        "statename": "DELHI",
        "latitude": "28.5571944",
        "longitude": "77.2226667"
    },
    {
        "circlename": "Delhi Circle",
        "regionname": "DivReportingCircle",
        "divisionname": "New Delhi South West Division",
        "officename": "A F Palam SO",
        "pincode": "110010",
        "officetype": "PO",
        "delivery": "Non Delivery",
        "district": "NEW DELHI",
        "statename": "DELHI",
        "latitude": "28.5778333",
        "longitude": "77.1221667"
    },
    {
        "circlename": "Delhi Circle",
        "regionname": "DivReportingCircle",
        "divisionname": "New Delhi South West Division",
        "officename": "Gurgaon Road SO",
        "pincode": "110037",
        "officetype": "PO",
        "delivery": "Delivery",
        "district": "NEW DELHI",
        "statename": "DELHI",
        "latitude": "28.545674",
        "longitude": "77.123159"
    },
    {
        "circlename": "Delhi Circle",
        "regionname": "DivReportingCircle",
        "divisionname": "New Delhi South West Division",
        "officename": "NIE Campus SO",
        "pincode": "110016",
        "officetype": "PO",
        "delivery": "Non Delivery",
        "district": "SOUTH",
        "statename": "DELHI",
        "latitude": "28.5380278",
        "longitude": "77.1935833"
    },
    {
        "circlename": "Delhi Circle",
        "regionname": "DivReportingCircle",
        "divisionname": "New Delhi South West Division",
        "officename": "Pinto Park SO",
        "pincode": "110010",
        "officetype": "PO",
        "delivery": "Non Delivery",
        "district": "NEW DELHI",
        "statename": "DELHI",
        "latitude": "28.5750833",
        "longitude": "77.0971667"
    },
    {
        "circlename": "Delhi Circle",
        "regionname": "DivReportingCircle",
        "divisionname": "New Delhi South West Division",
        "officename": "R K Puram Sect5 SO",
        "pincode": "110022",
        "officetype": "PO",
        "delivery": "Delivery",
        "district": "NEW DELHI",
        "statename": "DELHI",
        "latitude": "28.562224",
        "longitude": "77.17243"
    },
    {
        "circlename": "Delhi Circle",
        "regionname": "DivReportingCircle",
        "divisionname": "New Delhi South West Division",
        "officename": "R K Puram Sect8 SO",
        "pincode": "110022",
        "officetype": "PO",
        "delivery": "Non Delivery",
        "district": "NEW DELHI",
        "statename": "DELHI",
        "latitude": "28.5706389",
        "longitude": "77.1755000"
    },
    {
        "circlename": "Delhi Circle",
        "regionname": "DivReportingCircle",
        "divisionname": "New Delhi South West Division",
        "officename": "R K Puram West SO",
        "pincode": "110066",
        "officetype": "PO",
        "delivery": "Non Delivery",
        "district": "NEW DELHI",
        "statename": "DELHI",
        "latitude": "28.5653056",
        "longitude": "77.1797500"
    },
    {
        "circlename": "Delhi Circle",
        "regionname": "DivReportingCircle",
        "divisionname": "New Delhi South West Division",
        "officename": "Safdarjung Enclave SO",
        "pincode": "110029",
        "officetype": "PO",
        "delivery": "Delivery",
        "district": "SOUTH",
        "statename": "DELHI",
        "latitude": "28.5664228",
        "longitude": "77.1998703"
    },
    {
        "circlename": "Delhi Circle",
        "regionname": "DivReportingCircle",
        "divisionname": "New Delhi South West Division",
        "officename": "Station Road SO South West Delhi",
        "pincode": "110010",
        "officetype": "PO",
        "delivery": "Non Delivery",
        "district": "NEW DELHI",
        "statename": "DELHI",
        "latitude": "28.48",
        "longitude": "77.13"
    },
    {
        "circlename": "Delhi Circle",
        "regionname": "DivReportingCircle",
        "divisionname": "New Delhi South West Division",
        "officename": "Vasant Kunj PktA SO",
        "pincode": "110070",
        "officetype": "PO",
        "delivery": "Non Delivery",
        "district": "NEW DELHI",
        "statename": "DELHI",
        "latitude": "28.5139722",
        "longitude": "77.1655000"
    },
    {
        "circlename": "Delhi Circle",
        "regionname": "DivReportingCircle",
        "divisionname": "New Delhi South West Division",
        "officename": "Aya Nagar S.O",
        "pincode": "110047",
        "officetype": "PO",
        "delivery": "Non Delivery",
        "district": "SOUTH",
        "statename": "DELHI",
        "latitude": "28.4759",
        "longitude": "77.13153"
    },
    {
        "circlename": "Delhi Circle",
        "regionname": "DivReportingCircle",
        "divisionname": "New Delhi West Division",
        "officename": "Maya Puri S.O",
        "pincode": "110064",
        "officetype": "PO",
        "delivery": "Delivery",
        "district": "WEST",
        "statename": "DELHI",
        "latitude": "28.6317778",
        "longitude": "77.1259167"
    },
    {
        "circlename": "Delhi Circle",
        "regionname": "DivReportingCircle",
        "divisionname": "New Delhi West Division",
        "officename": "Palam Village S.O",
        "pincode": "110045",
        "officetype": "PO",
        "delivery": "Delivery",
        "district": "SOUTH WEST",
        "statename": "DELHI",
        "latitude": "28.5911667",
        "longitude": "77.0905556"
    },
    {
        "circlename": "Delhi Circle",
        "regionname": "DivReportingCircle",
        "divisionname": "New Delhi West Division",
        "officename": "SHYAM VIHAR S.O",
        "pincode": "110043",
        "officetype": "PO",
        "delivery": "Non Delivery",
        "district": "WEST",
        "statename": "DELHI",
        "latitude": "28.6099740",
        "longitude": "76.9576450"
    },
    {
        "circlename": "Delhi Circle",
        "regionname": "DivReportingCircle",
        "divisionname": "New Delhi West Division",
        "officename": "Durga Park PO",
        "pincode": "110043",
        "officetype": "PO",
        "delivery": "Non Delivery",
        "district": "WEST",
        "statename": "DELHI",
        "latitude": "28.6026260",
        "longitude": "77.0897020"
    },
    {
        "circlename": "Delhi Circle",
        "regionname": "DivReportingCircle",
        "divisionname": "New Delhi West Division",
        "officename": "Ashoka Park Extn. S.O",
        "pincode": "110026",
        "officetype": "PO",
        "delivery": "Non Delivery",
        "district": "WEST",
        "statename": "DELHI",
        "latitude": "28.6713889",
        "longitude": "77.1538333"
    },
    {
        "circlename": "Delhi Circle",
        "regionname": "DivReportingCircle",
        "divisionname": "New Delhi West Division",
        "officename": "Chand Nagar S.O",
        "pincode": "110018",
        "officetype": "PO",
        "delivery": "Non Delivery",
        "district": "WEST",
        "statename": "DELHI",
        "latitude": "28.6463611",
        "longitude": "77.0990556"
    },
    {
        "circlename": "Delhi Circle",
        "regionname": "DivReportingCircle",
        "divisionname": "New Delhi West Division",
        "officename": "Hari Nagar S.O (West Delhi)",
        "pincode": "110064",
        "officetype": "PO",
        "delivery": "Non Delivery",
        "district": "WEST",
        "statename": "DELHI",
        "latitude": "28.6248600",
        "longitude": "77.1108680"
    },
    {
        "circlename": "Delhi Circle",
        "regionname": "DivReportingCircle",
        "divisionname": "New Delhi West Division",
        "officename": "M.B.S. Nagar S.O",
        "pincode": "110018",
        "officetype": "PO",
        "delivery": "Non Delivery",
        "district": "WEST",
        "statename": "DELHI",
        "latitude": "28.6471389",
        "longitude": "77.0853056"
    },
    {
        "circlename": "Delhi Circle",
        "regionname": "DivReportingCircle",
        "divisionname": "New Delhi West Division",
        "officename": "Mahabir Nagar S.O",
        "pincode": "110018",
        "officetype": "PO",
        "delivery": "Non Delivery",
        "district": "WEST",
        "statename": "DELHI",
        "latitude": "28.6346389",
        "longitude": "77.0860833"
    },
    {
        "circlename": "Delhi Circle",
        "regionname": "DivReportingCircle",
        "divisionname": "New Delhi West Division",
        "officename": "Rajouri Market S.O",
        "pincode": "110027",
        "officetype": "PO",
        "delivery": "Non Delivery",
        "district": "WEST",
        "statename": "DELHI",
        "latitude": "28.6455278",
        "longitude": "77.1274722"
    },
    {
        "circlename": "Delhi Circle",
        "regionname": "DivReportingCircle",
        "divisionname": "New Delhi West Division",
        "officename": "Subhash Nagar S.O (West Delhi)",
        "pincode": "110027",
        "officetype": "PO",
        "delivery": "Non Delivery",
        "district": "WEST",
        "statename": "DELHI",
        "latitude": "28.6404460",
        "longitude": "77.1049180"
    },
    {
        "circlename": "Delhi Circle",
        "regionname": "DivReportingCircle",
        "divisionname": "New Delhi West Division",
        "officename": "Subhash Nagar West S.O",
        "pincode": "110027",
        "officetype": "PO",
        "delivery": "Non Delivery",
        "district": "WEST",
        "statename": "DELHI",
        "latitude": "28.6371111",
        "longitude": "77.1098889"
    },
    {
        "circlename": "Delhi Circle",
        "regionname": "DivReportingCircle",
        "divisionname": "New Delhi West Division",
        "officename": "Sunder Vihar S.O",
        "pincode": "110087",
        "officetype": "PO",
        "delivery": "Delivery",
        "district": "WEST",
        "statename": "DELHI",
        "latitude": "28.6663889",
        "longitude": "77.0881667"
    },
    {
        "circlename": "Delhi Circle",
        "regionname": "DivReportingCircle",
        "divisionname": "New Delhi West Division",
        "officename": "Moti Nagar S.O",
        "pincode": "110015",
        "officetype": "PO",
        "delivery": "Non Delivery",
        "district": "WEST",
        "statename": "DELHI",
        "latitude": "28.6623450",
        "longitude": "77.1410810"
    },
    {
        "circlename": "Delhi Circle",
        "regionname": "DivReportingCircle",
        "divisionname": "New Delhi West Division",
        "officename": "Sanjay Enclave PO",
        "pincode": "110059",
        "officetype": "PO",
        "delivery": "Non Delivery",
        "district": "WEST",
        "statename": "DELHI",
        "latitude": "28.6130290",
        "longitude": "77.0597560"
    },
    {
        "circlename": "Delhi Circle",
        "regionname": "DivReportingCircle",
        "divisionname": "New Delhi West Division",
        "officename": "NDC TILAK NAGAR",
        "pincode": "110018",
        "officetype": "PO",
        "delivery": "Delivery",
        "district": "WEST",
        "statename": "DELHI",
        "latitude": "28.6498611",
        "longitude": "77.1306667"
    },
    {
        "circlename": "Delhi Circle",
        "regionname": "DivReportingCircle",
        "divisionname": "Delhi East Division",
        "officename": "Krishna Nagar HO",
        "pincode": "110051",
        "officetype": "HO",
        "delivery": "Delivery",
        "district": "SHAHDARA",
        "statename": "DELHI",
        "latitude": "28.645733",
        "longitude": "77.299773700000003"
    },
    {
        "circlename": "Delhi Circle",
        "regionname": "DivReportingCircle",
        "divisionname": "Delhi East Division",
        "officename": "Khajoori Khas BO",
        "pincode": "110090",
        "officetype": "BO",
        "delivery": "Non Delivery",
        "district": "NORTH EAST",
        "statename": "DELHI",
        "latitude": "28.6922500",
        "longitude": "77.3042222"
    },