[
    {
        "circlename": "North Eastern Circle",
        "regionname": "North East - II Region",
        "divisionname": "Nagaland Division",
        "officename": "Toulazouma",
        "pincode": "797115",
        "officetype": "BO",
        "delivery": "Delivery",
        "district": "DIMAPUR",
        "statename": "NAGALAND",
        "latitude": "25.866980160000001",
        "longitude": "93.731557800000004"
    },
    {
        "circlename": "North Eastern Circle",
        "regionname": "North East - II Region",
        "divisionname": "Nagaland Division",
        "officename": "Chengloisho B.O",
        "pincode": "798603",
        "officetype": "BO",
        "delivery": "Delivery",
        "district": "MON",
        "statename": "NAGALAND",
        "latitude": "26.602672599999998",
        "longitude": "94.964093399999996"
    },
    {
        "circlename": "North Eastern Circle",
        "regionname": "North East - II Region",
        "divisionname": "Nagaland Division",
        "officename": "Chinglong B.O",
        "pincode": "798603",
        "officetype": "BO",
        "delivery": "Delivery",
        "district": "MON",
        "statename": "NAGALAND",
        "latitude": "26.602428",
        "longitude": "94.963674299999994"
    },
    {
        "circlename": "North Eastern Circle",
        "regionname": "North East - II Region",
        "divisionname": "Nagaland Division",
        "officename": "Monyakshu B.O",
        "pincode": "798603",
        "officetype": "BO",
        "delivery": "Delivery",
        "district": "MON",
        "statename": "NAGALAND",
        "latitude": "26.43798",
        "longitude": "95.029246599999993"
    },
    {
        "circlename": "North Eastern Circle",
        "regionname": "North East - II Region",
        "divisionname": "Nagaland Division",
        "officename": "Merangkong B.O",
        "pincode": "798618",
        "officetype": "BO",
        "delivery": "Delivery",
        "district": "MOKOKCHUNG",
        "statename": "NAGALAND",
        "latitude": "26.613307800000001",
        "longitude": "94.667057600000007"
    },
    {
        "circlename": "North Eastern Circle",
        "regionname": "North East - II Region",
        "divisionname": "Nagaland Division",
        "officename": "Viphoma",
        "pincode": "797105",
        "officetype": "BO",
        "delivery": "Delivery",
        "district": "KOHIMA",
        "statename": "NAGALAND",
        "latitude": "25.824047",
        "longitude": "93.987243899999996"
    },
    {
        "circlename": "North Eastern Circle",
        "regionname": "North East - II Region",
        "divisionname": "Nagaland Division",
        "officename": "Kilomi B.O",
        "pincode": "797104",
        "officetype": "BO",
        "delivery": "Delivery",
        "district": "ZUNHEBOTO",
        "statename": "NAGALAND",
        "latitude": "25.864281999999999",
        "longitude": "94.416407000000007"
    },
    {
        "circlename": "North Eastern Circle",
        "regionname": "North East - II Region",
        "divisionname": "Nagaland Division",
        "officename": "Thenizumi B.O",
        "pincode": "797104",
        "officetype": "BO",
        "delivery": "Delivery",
        "district": "PHEK",
        "statename": "NAGALAND",
        "latitude": "25.653362000000001",
        "longitude": "94.255157999999994"
    },
    {
        "circlename": "North Eastern Circle",
        "regionname": "North East - II Region",
        "divisionname": "Nagaland Division",
        "officename": "Ruzazho",
        "pincode": "797104",
        "officetype": "BO",
        "delivery": "Delivery",
        "district": "PHEK",
        "statename": "NAGALAND",
        "latitude": "25.7471742",
        "longitude": "94.419851300000005"
    },
    {
        "circlename": "North Eastern Circle",
        "regionname": "North East - II Region",
        "divisionname": "Nagaland Division",
        "officename": "Salulamang B.O",
        "pincode": "798614",
        "officetype": "BO",
        "delivery": "Delivery",
        "district": "MOKOKCHUNG",
        "statename": "NAGALAND",
        "latitude": "26.463114999999998",
        "longitude": "94.683369999999996"
    },
    {
        "circlename": "North Eastern Circle",
        "regionname": "North East - II Region",
        "divisionname": "Nagaland Division",
        "officename": "Maikam B.O",
        "pincode": "797103",
        "officetype": "BO",
        "delivery": "Delivery",
        "district": "PEREN",
        "statename": "NAGALAND",
        "latitude": "25.769254400000001",
        "longitude": "93.687398299999998"
    },
    {
        "circlename": "North Eastern Circle",
        "regionname": "North East - II Region",
        "divisionname": "Nagaland Division",
        "officename": "Pwd Colony B.O",
        "pincode": "797117",
        "officetype": "BO",
        "delivery": "Non Delivery",
        "district": "DIMAPUR",
        "statename": "NAGALAND",
        "latitude": "NA",
        "longitude": "NA"
    },
    {
        "circlename": "North Eastern Circle",
        "regionname": "North East - II Region",
        "divisionname": "Nagaland Division",
        "officename": "Jalukiekam B.O",
        "pincode": "797112",
        "officetype": "BO",
        "delivery": "Delivery",
        "district": "PEREN",
        "statename": "NAGALAND",
        "latitude": "25.533872500000001",
        "longitude": "93.718644499999996"
    },
    {
        "circlename": "North Eastern Circle",
        "regionname": "North East - II Region",
        "divisionname": "Nagaland Division",
        "officename": "Nuiland B.O",
        "pincode": "797112",
        "officetype": "BO",
        "delivery": "Delivery",
        "district": "DIMAPUR",
        "statename": "NAGALAND",
        "latitude": "25.909060100000001",
        "longitude": "93.989285199999998"
    },
    {
        "circlename": "North Eastern Circle",
        "regionname": "North East - II Region",
        "divisionname": "Nagaland Division",
        "officename": "Longtsung B.O",
        "pincode": "797111",
        "officetype": "BO",
        "delivery": "Delivery",
        "district": "WOKHA",
        "statename": "NAGALAND",
        "latitude": "26.100798999999999",
        "longitude": "94.097961100000006"
    },
    {
        "circlename": "North Eastern Circle",
        "regionname": "North East - II Region",
        "divisionname": "Nagaland Division",
        "officename": "Moilan B.O",
        "pincode": "797111",
        "officetype": "BO",
        "delivery": "Delivery",
        "district": "WOKHA",
        "statename": "NAGALAND",
        "latitude": "26.0594766",
        "longitude": "94.062768300000002"
    },
    {
        "circlename": "North Eastern Circle",
        "regionname": "North East - II Region",
        "divisionname": "Nagaland Division",
        "officename": "Pangti B.O",
        "pincode": "797111",
        "officetype": "BO",
        "delivery": "Delivery",
        "district": "WOKHA",
        "statename": "NAGALAND",
        "latitude": "26.2597852",
        "longitude": "94.320242500000006"
    },
    {
        "circlename": "North Eastern Circle",
        "regionname": "North East - II Region",
        "divisionname": "Nagaland Division",
        "officename": "Yamhon B.O",
        "pincode": "797111",
        "officetype": "BO",
        "delivery": "Delivery",
        "district": "WOKHA",
        "statename": "NAGALAND",
        "latitude": "26.122951700000002",
        "longitude": "94.049964200000005"
    },
    {
        "circlename": "North Eastern Circle",
        "regionname": "North East - II Region",
        "divisionname": "Nagaland Division",
        "officename": "Longmatra B.O",
        "pincode": "798611",
        "officetype": "BO",
        "delivery": "Delivery",
        "district": "KIPHIRE",
        "statename": "NAGALAND",
        "latitude": "25.7886633",
        "longitude": "94.745826600000001"
    },
    {
        "circlename": "North Eastern Circle",
        "regionname": "North East - II Region",
        "divisionname": "Nagaland Division",
        "officename": "Moya B.O",
        "pincode": "798611",
        "officetype": "BO",
        "delivery": "Delivery",
        "district": "KIPHIRE",
        "statename": "NAGALAND",
        "latitude": "25.77702",
        "longitude": "94.848506599999993"
    },
    {
        "circlename": "North Eastern Circle",
        "regionname": "North East - II Region",
        "divisionname": "Nagaland Division",
        "officename": "Sikur B.O",
        "pincode": "798611",
        "officetype": "BO",
        "delivery": "Delivery",
        "district": "KIPHIRE",
        "statename": "NAGALAND",
        "latitude": "25.994044899999999",
        "longitude": "94.858566600000003"
    },
    {
        "circlename": "North Eastern Circle",
        "regionname": "North East - II Region",
        "divisionname": "Nagaland Division",
        "officename": "Singrup B.O",
        "pincode": "798611",
        "officetype": "BO",
        "delivery": "Delivery",
        "district": "KIPHIRE",
        "statename": "NAGALAND",
        "latitude": "25.914142900000002",
        "longitude": "94.752084400000001"
    },
    {
        "circlename": "North Eastern Circle",
        "regionname": "North East - II Region",
        "divisionname": "Nagaland Division",
        "officename": "Penkim",
        "pincode": "798611",
        "officetype": "BO",
        "delivery": "Delivery",
        "district": "KIPHIRE",
        "statename": "NAGALAND",
        "latitude": "25.799900000000001",
        "longitude": "94.911299999999997"
    },
    {
        "circlename": "North Eastern Circle",
        "regionname": "North East - II Region",
        "divisionname": "Nagaland Division",
        "officename": "Khuzama B.O",
        "pincode": "797006",
        "officetype": "BO",
        "delivery": "Delivery",
        "district": "KOHIMA",
        "statename": "NAGALAND",
        "latitude": "25.5347717",
        "longitude": "94.135383500000003"
    },
    {
        "circlename": "North Eastern Circle",
        "regionname": "North East - II Region",
        "divisionname": "Nagaland Division",
        "officename": "Dihoma B.O",
        "pincode": "797003",
        "officetype": "BO",
        "delivery": "Delivery",
        "district": "KOHIMA",
        "statename": "NAGALAND",
        "latitude": "25.735786600000001",
        "longitude": "94.1965"
    },
    {
        "circlename": "North Eastern Circle",
        "regionname": "North East - II Region",
        "divisionname": "Nagaland Division",
        "officename": "Kedima B.O",
        "pincode": "797006",
        "officetype": "BO",
        "delivery": "Delivery",
        "district": "KOHIMA",
        "statename": "NAGALAND",
        "latitude": "25.557185",
        "longitude": "94.178556599999993"
    },
    {
        "circlename": "North Eastern Circle",
        "regionname": "North East - II Region",
        "divisionname": "Nagaland Division",
        "officename": "Rusoma B.O",
        "pincode": "797003",
        "officetype": "BO",
        "delivery": "Delivery",
        "district": "KOHIMA",
        "statename": "NAGALAND",
        "latitude": "25.725698300000001",
        "longitude": "94.138128300000005"
    },
    {
        "circlename": "North Eastern Circle",
        "regionname": "North East - II Region",
        "divisionname": "Nagaland Division",
        "officename": "Kijumetouma",
        "pincode": "797003",
        "officetype": "BO",
        "delivery": "Delivery",
        "district": "KOHIMA",
        "statename": "NAGALAND",
        "latitude": "25.775639999999999",
        "longitude": "94.240539999999996"
    },
    {
        "circlename": "North Eastern Circle",
        "regionname": "North East - II Region",
        "divisionname": "Nagaland Division",
        "officename": "Sakchi B.O",
        "pincode": "798625",
        "officetype": "BO",
        "delivery": "Delivery",
        "district": "LONGLENG",
        "statename": "NAGALAND",
        "latitude": "26.405021600000001",
        "longitude": "94.863641599999994"
    },
    {
        "circlename": "North Eastern Circle",
        "regionname": "North East - II Region",
        "divisionname": "Nagaland Division",
        "officename": "Yachem B.O",
        "pincode": "798625",
        "officetype": "BO",
        "delivery": "Delivery",
        "district": "LONGLENG",
        "statename": "NAGALAND",
        "latitude": "26.520466299999999",
        "longitude": "94.721862900000005"
    },
    {
        "circlename": "North Eastern Circle",
        "regionname": "North East - II Region",
        "divisionname": "Nagaland Division",
        "officename": "Yongyak B.O",
        "pincode": "798625",
        "officetype": "BO",
        "delivery": "Delivery",
        "district": "LONGLENG",
        "statename": "NAGALAND",
        "latitude": "26.587204",
        "longitude": "94.8059224"
    },
    {
        "circlename": "North Eastern Circle",
        "regionname": "North East - II Region",
        "divisionname": "Nagaland Division",
        "officename": "Akuluto B.O",
        "pincode": "798627",
        "officetype": "BO",
        "delivery": "Delivery",
        "district": "ZUNHEBOTO",
        "statename": "NAGALAND",
        "latitude": "26.166711599999999",
        "longitude": "94.488137199999997"
    },
    {
        "circlename": "North Eastern Circle",
        "regionname": "North East - II Region",
        "divisionname": "Nagaland Division",
        "officename": "Maova B.O",
        "pincode": "797106",
        "officetype": "BO",
        "delivery": "Delivery",
        "district": "PEREN",
        "statename": "NAGALAND",
        "latitude": "25.672847399999998",
        "longitude": "93.830794900000001"
    },
    {
        "circlename": "North Eastern Circle",
        "regionname": "North East - II Region",
        "divisionname": "Nagaland Division",
        "officename": "Molvom B.O",
        "pincode": "797106",
        "officetype": "BO",
        "delivery": "Delivery",
        "district": "PEREN",
        "statename": "NAGALAND",
        "latitude": "25.711323199999999",
        "longitude": "93.829631599999999"
    },
    {
        "circlename": "North Eastern Circle",
        "regionname": "North East - II Region",
        "divisionname": "Nagaland Division",
        "officename": "Hutsu B.O",
        "pincode": "797114",
        "officetype": "BO",
        "delivery": "Delivery",
        "district": "PHEK",
        "statename": "NAGALAND",
        "latitude": "25.7189458",
        "longitude": "94.721591900000007"
    },
    {
        "circlename": "North Eastern Circle",
        "regionname": "North East - II Region",
        "divisionname": "Nagaland Division",
        "officename": "Lephori B.O",
        "pincode": "797114",
        "officetype": "BO",
        "delivery": "Delivery",
        "district": "PHEK",
        "statename": "NAGALAND",
        "latitude": "25.612263299999999",
        "longitude": "94.623459999999994"
    },
    {
        "circlename": "North Eastern Circle",
        "regionname": "North East - II Region",
        "divisionname": "Nagaland Division",
        "officename": "Chungtia B.O",
        "pincode": "798601",
        "officetype": "BO",
        "delivery": "Delivery",
        "district": "MOKOKCHUNG",
        "statename": "NAGALAND",
        "latitude": "26.386968400000001",
        "longitude": "94.441791800000004"
    },
    {
        "circlename": "North Eastern Circle",
        "regionname": "North East - II Region",
        "divisionname": "Nagaland Division",
        "officename": "Longkhum B.O",
        "pincode": "798607",
        "officetype": "BO",
        "delivery": "Delivery",
        "district": "MOKOKCHUNG",
        "statename": "NAGALAND",
        "latitude": "26.261576600000001",
        "longitude": "94.411881600000001"
    },
    {
        "circlename": "North Eastern Circle",
        "regionname": "North East - II Region",
        "divisionname": "Nagaland Division",
        "officename": "Longsa B.O",
        "pincode": "798601",
        "officetype": "BO",
        "delivery": "Delivery",
        "district": "MOKOKCHUNG",
        "statename": "NAGALAND",
        "latitude": "26.221295000000001",
        "longitude": "94.5488316"
    },
    {
        "circlename": "North Eastern Circle",
        "regionname": "North East - II Region",
        "divisionname": "Nagaland Division",
        "officename": "S. E. Colony B.O",
        "pincode": "798601",
        "officetype": "BO",
        "delivery": "Delivery",
        "district": "MOKOKCHUNG",
        "statename": "NAGALAND",
        "latitude": "26.332381600000001",
        "longitude": "94.524769899999995"
    },
    {
        "circlename": "North Eastern Circle",
        "regionname": "North East - II Region",
        "divisionname": "Nagaland Division",
        "officename": "Singha Chingnyu B.O",
        "pincode": "798621",
        "officetype": "BO",
        "delivery": "Delivery",
        "district": "MON",
        "statename": "NAGALAND",
        "latitude": "26.721438299999999",
        "longitude": "95.030921599999999"
    },
    {
        "circlename": "North Eastern Circle",
        "regionname": "North East - II Region",
        "divisionname": "Nagaland Division",
        "officename": "Waunching B.O",
        "pincode": "798621",
        "officetype": "BO",
        "delivery": "Delivery",
        "district": "MON",
        "statename": "NAGALAND",
        "latitude": "26.6601733",
        "longitude": "94.846834999999999"
    },
    {
        "circlename": "North Eastern Circle",
        "regionname": "North East - II Region",
        "divisionname": "Nagaland Division",
        "officename": "Longnak B.O",
        "pincode": "798604",
        "officetype": "BO",
        "delivery": "Delivery",
        "district": "MOKOKCHUNG",
        "statename": "NAGALAND",
        "latitude": "26.499496600000001",
        "longitude": "94.439158300000003"
    },
    {
        "circlename": "North Eastern Circle",
        "regionname": "North East - II Region",
        "divisionname": "Nagaland Division",
        "officename": "Baranamsang B.O",
        "pincode": "798622",
        "officetype": "BO",
        "delivery": "Delivery",
        "district": "MON",
        "statename": "NAGALAND",
        "latitude": "26.705460599999999",
        "longitude": "94.706268699999995"
    },
    {
        "circlename": "North Eastern Circle",
        "regionname": "North East - II Region",
        "divisionname": "Nagaland Division",
        "officename": "Industrial Estate B.O",
        "pincode": "797113",
        "officetype": "BO",
        "delivery": "Delivery",
        "district": "DIMAPUR",
        "statename": "NAGALAND",
        "latitude": "25.901890000000002",
        "longitude": "93.694204999999997"
    },
    {
        "circlename": "North Eastern Circle",
        "regionname": "North East - II Region",
        "divisionname": "Nagaland Division",
        "officename": "Lengrijan B.O",
        "pincode": "797113",
        "officetype": "BO",
        "delivery": "Delivery",
        "district": "DIMAPUR",
        "statename": "NAGALAND",
        "latitude": "25.909916599999999",
        "longitude": "93.693886599999999"
    },
    {
        "circlename": "North Eastern Circle",
        "regionname": "North East - II Region",
        "divisionname": "Nagaland Division",
        "officename": "Choklangan B.O",
        "pincode": "798612",
        "officetype": "BO",
        "delivery": "Delivery",
        "district": "Noklak",
        "statename": "NAGALAND",
        "latitude": "26.074931599999999",
        "longitude": "95.111108299999998"
    },
    {
        "circlename": "North Eastern Circle",
        "regionname": "North East - II Region",
        "divisionname": "Nagaland Division",
        "officename": "Sanglao B.O",
        "pincode": "798612",
        "officetype": "BO",
        "delivery": "Delivery",
        "district": "Noklak",
        "statename": "NAGALAND",
        "latitude": "26.2294366",
        "longitude": "94.8096441"
    },
    {
        "circlename": "North Eastern Circle",
        "regionname": "North East - II Region",
        "divisionname": "Nagaland Division",
        "officename": "Zuketsa B.O",
        "pincode": "797107",
        "officetype": "BO",
        "delivery": "Delivery",
        "district": "PHEK",
        "statename": "NAGALAND",
        "latitude": "25.535971700000001",
        "longitude": "94.2373008"
    },
    {
        "circlename": "North Eastern Circle",
        "regionname": "North East - II Region",
        "divisionname": "Nagaland Division",
        "officename": "Zeloma",
        "pincode": "797107",
        "officetype": "BO",
        "delivery": "Delivery",
        "district": "PHEK",
        "statename": "NAGALAND",
        "latitude": "25.520409999999998",
        "longitude": "94.337050000000005"
    },
    {
        "circlename": "North Eastern Circle",
        "regionname": "North East - II Region",
        "divisionname": "Nagaland Division",
        "officename": "Losami B.O",
        "pincode": "797108",
        "officetype": "BO",
        "delivery": "Delivery",
        "district": "PHEK",
        "statename": "NAGALAND",
        "latitude": "25.617900500000001",
        "longitude": "94.441546000000002"
    },
    {
        "circlename": "North Eastern Circle",
        "regionname": "North East - II Region",
        "divisionname": "Nagaland Division",
        "officename": "Luzaphuhu B.O",
        "pincode": "797108",
        "officetype": "BO",
        "delivery": "Delivery",
        "district": "PHEK",
        "statename": "NAGALAND",
        "latitude": "25.634650000000001",
        "longitude": "94.486810000000006"
    },
    {
        "circlename": "North Eastern Circle",
        "regionname": "North East - II Region",
        "divisionname": "Nagaland Division",
        "officename": "Yannu B.O",
        "pincode": "798602",
        "officetype": "BO",
        "delivery": "Delivery",
        "district": "MON",
        "statename": "NAGALAND",
        "latitude": "26.874557800000002",
        "longitude": "95.170854800000001"
    },
    {
        "circlename": "North Eastern Circle",
        "regionname": "North East - II Region",
        "divisionname": "Nagaland Division",
        "officename": "Tsosesunyu B.O",
        "pincode": "797109",
        "officetype": "BO",
        "delivery": "Delivery",
        "district": "KOHIMA",
        "statename": "NAGALAND",
        "latitude": "25.9097723",
        "longitude": "94.030169900000004"
    },
    {
        "circlename": "North Eastern Circle",
        "regionname": "North East - II Region",
        "divisionname": "Nagaland Division",
        "officename": "Zephenyu B.O",
        "pincode": "797109",
        "officetype": "BO",
        "delivery": "Delivery",
        "district": "KOHIMA",
        "statename": "NAGALAND",
        "latitude": "25.943081599999999",
        "longitude": "94.2198049"
    },
    {
        "circlename": "North Eastern Circle",
        "regionname": "North East - II Region",
        "divisionname": "Nagaland Division",
        "officename": "Sangsanyu B.O",
        "pincode": "798612",
        "officetype": "BO",
        "delivery": "Delivery",
        "district": "TUENSANG",
        "statename": "NAGALAND",
        "latitude": "26.327422800000001",
        "longitude": "94.893279800000002"
    },
    {
        "circlename": "North Eastern Circle",
        "regionname": "North East - II Region",
        "divisionname": "Nagaland Division",
        "officename": "Shamator B.O",
        "pincode": "798612",
        "officetype": "BO",
        "delivery": "Delivery",
        "district": "TUENSANG",
        "statename": "NAGALAND",
        "latitude": "26.073306599999999",
        "longitude": "94.869834999999995"
    },
    {
        "circlename": "North Eastern Circle",
        "regionname": "North East - II Region",
        "divisionname": "Nagaland Division",
        "officename": "Thonokhunyu B.O",
        "pincode": "798612",
        "officetype": "BO",
        "delivery": "Delivery",
        "district": "Noklak",
        "statename": "NAGALAND",
        "latitude": "25.989441899999999",
        "longitude": "94.905417499999999"
    },
    {
        "circlename": "North Eastern Circle",
        "regionname": "North East - II Region",
        "divisionname": "Nagaland Division",
        "officename": "Sangtak",
        "pincode": "798612",
        "officetype": "BO",
        "delivery": "Delivery",
        "district": "TUENSANG",
        "statename": "NAGALAND",
        "latitude": "26.235742200000001",
        "longitude": "94.813186299999998"
    },
    {
        "circlename": "North Eastern Circle",
        "regionname": "North East - II Region",
        "divisionname": "Nagaland Division",
        "officename": "Longtang",
        "pincode": "798612",
        "officetype": "BO",
        "delivery": "Delivery",
        "district": "TUENSANG",
        "statename": "NAGALAND",
        "latitude": "26.3297466",
        "longitude": "94.743693039999997"
    },
    {
        "circlename": "North Eastern Circle",
        "regionname": "North East - II Region",
        "divisionname": "Nagaland Division",
        "officename": "Hak",
        "pincode": "798612",
        "officetype": "BO",
        "delivery": "Delivery",
        "district": "TUENSANG",
        "statename": "NAGALAND",
        "latitude": "26.30599552",
        "longitude": "94.772864369999994"
    },
    {
        "circlename": "North Eastern Circle",
        "regionname": "North East - II Region",
        "divisionname": "Nagaland Division",
        "officename": "Sipongsang",
        "pincode": "798612",
        "officetype": "BO",
        "delivery": "Delivery",
        "district": "TUENSANG",
        "statename": "NAGALAND",
        "latitude": "26.412949999999999",
        "longitude": "94.811959999999999"
    },
    {
        "circlename": "North Eastern Circle",
        "regionname": "North East - II Region",
        "divisionname": "Nagaland Division",
        "officename": "Kenjong",
        "pincode": "798612",
        "officetype": "BO",
        "delivery": "Delivery",
        "district": "TUENSANG",
        "statename": "NAGALAND",
        "latitude": "26.01272329",
        "longitude": "95.025292199999996"
    },
    {
        "circlename": "North Eastern Circle",
        "regionname": "North East - II Region",
        "divisionname": "Nagaland Division",
        "officename": "Molungyimsen B.O",
        "pincode": "798618",
        "officetype": "BO",
        "delivery": "Delivery",
        "district": "MOKOKCHUNG",
        "statename": "NAGALAND",
        "latitude": "26.631405300000001",
        "longitude": "94.583939000000001"
    },
    {
        "circlename": "North Eastern Circle",
        "regionname": "North East - II Region",
        "divisionname": "Nagaland Division",
        "officename": "Chukitong B.O",
        "pincode": "797111",
        "officetype": "BO",
        "delivery": "Delivery",
        "district": "WOKHA",
        "statename": "NAGALAND",
        "latitude": "26.108491999999998",
        "longitude": "94.295266699999999"
    },
    {
        "circlename": "North Eastern Circle",
        "regionname": "North East - II Region",
        "divisionname": "Nagaland Division",
        "officename": "Elumnyu B.O",
        "pincode": "797111",
        "officetype": "BO",
        "delivery": "Delivery",
        "district": "WOKHA",
        "statename": "NAGALAND",
        "latitude": "25.674131599999999",
        "longitude": "94.111596599999999"
    },
    {
        "circlename": "North Eastern Circle",
        "regionname": "North East - II Region",
        "divisionname": "Nagaland Division",
        "officename": "Wokha Village B.O",
        "pincode": "797111",
        "officetype": "BO",
        "delivery": "Delivery",
        "district": "WOKHA",
        "statename": "NAGALAND",
        "latitude": "26.109780000000001",
        "longitude": "94.252238899999995"
    },
    {
        "circlename": "North Eastern Circle",
        "regionname": "North East - II Region",
        "divisionname": "Nagaland Division",
        "officename": "Wozhuro B.O",
        "pincode": "797111",
        "officetype": "BO",
        "delivery": "Delivery",
        "district": "WOKHA",
        "statename": "NAGALAND",
        "latitude": "25.997453700000001",
        "longitude": "94.1594537"
    },
    {
        "circlename": "North Eastern Circle",
        "regionname": "North East - II Region",
        "divisionname": "Nagaland Division",
        "officename": "Doyang BO",
        "pincode": "797111",
        "officetype": "BO",
        "delivery": "Delivery",
        "district": "WOKHA",
        "statename": "NAGALAND",
        "latitude": "26.2228849",
        "longitude": "94.247298299999997"
    },
    {
        "circlename": "North Eastern Circle",
        "regionname": "North East - II Region",
        "divisionname": "Nagaland Division",
        "officename": "Athibung B.O",
        "pincode": "797110",
        "officetype": "BO",
        "delivery": "Delivery",
        "district": "PEREN",
        "statename": "NAGALAND",
        "latitude": "25.5468683",
        "longitude": "93.621914899999993"
    },
    {
        "circlename": "North Eastern Circle",
        "regionname": "North East - II Region",
        "divisionname": "Nagaland Division",
        "officename": "Bongkholong B.O",
        "pincode": "797110",
        "officetype": "BO",
        "delivery": "Delivery",
        "district": "PEREN",
        "statename": "NAGALAND",
        "latitude": "25.491371699999998",
        "longitude": "93.525835999999998"
    },
    {
        "circlename": "North Eastern Circle",
        "regionname": "North East - II Region",
        "divisionname": "Nagaland Division",
        "officename": "New Jalukie B.O",
        "pincode": "797110",
        "officetype": "BO",
        "delivery": "Delivery",
        "district": "PEREN",
        "statename": "NAGALAND",
        "latitude": "25.6603466",
        "longitude": "93.694213300000001"
    },
    {
        "circlename": "North Eastern Circle",
        "regionname": "North East - II Region",
        "divisionname": "Nagaland Division",
        "officename": "Ikiesingram",
        "pincode": "797110",
        "officetype": "BO",
        "delivery": "Delivery",
        "district": "PEREN",
        "statename": "NAGALAND",
        "latitude": "25.470493579999999",
        "longitude": "93.46145516"
    },
    {
        "circlename": "North Eastern Circle",
        "regionname": "North East - II Region",
        "divisionname": "Nagaland Division",
        "officename": "Asukhomi B.O",
        "pincode": "798620",
        "officetype": "BO",
        "delivery": "Delivery",
        "district": "ZUNHEBOTO",
        "statename": "NAGALAND",
        "latitude": "26.071092",
        "longitude": "94.523392200000004"
    },
    {
        "circlename": "North Eastern Circle",
        "regionname": "North East - II Region",
        "divisionname": "Nagaland Division",
        "officename": "Hosephu B.O",
        "pincode": "798620",
        "officetype": "BO",
        "delivery": "Delivery",
        "district": "ZUNHEBOTO",
        "statename": "NAGALAND",
        "latitude": "25.900086600000002",
        "longitude": "94.555483300000006"
    },
    {
        "circlename": "North Eastern Circle",
        "regionname": "North East - II Region",
        "divisionname": "Nagaland Division",
        "officename": "Kichilimi B.O",
        "pincode": "798620",
        "officetype": "BO",
        "delivery": "Delivery",
        "district": "ZUNHEBOTO",
        "statename": "NAGALAND",
        "latitude": "25.9408067",
        "longitude": "94.345552400000003"
    },
    {
        "circlename": "North Eastern Circle",
        "regionname": "North East - II Region",
        "divisionname": "Nagaland Division",
        "officename": "Satami B.O",
        "pincode": "798620",
        "officetype": "BO",
        "delivery": "Delivery",
        "district": "ZUNHEBOTO",
        "statename": "NAGALAND",
        "latitude": "26.091411900000001",
        "longitude": "94.620864900000001"
    },
    {
        "circlename": "North Eastern Circle",
        "regionname": "North East - II Region",
        "divisionname": "Nagaland Division",
        "officename": "Lukhuyimi",
        "pincode": "798620",
        "officetype": "BO",
        "delivery": "Delivery",
        "district": "ZUNHEBOTO",
        "statename": "NAGALAND",
        "latitude": "26.03068231",
        "longitude": "94.586908559999998"
    },
    {
        "circlename": "North Eastern Circle",
        "regionname": "North East - II Region",
        "divisionname": "Nagaland Division",
        "officename": "Kivikhu",
        "pincode": "798620",
        "officetype": "BO",
        "delivery": "Delivery",
        "district": "ZUNHEBOTO",
        "statename": "NAGALAND",
        "latitude": "25.840031",
        "longitude": "94.479904000000005"
    },
    {
        "circlename": "North Eastern Circle",
        "regionname": "North East - II Region",
        "divisionname": "Nagaland Division",
        "officename": "Artc S.O",
        "pincode": "797115",
        "officetype": "PO",
        "delivery": "Delivery",
        "district": "DIMAPUR",
        "statename": "NAGALAND",
        "latitude": "25.8632160",
        "longitude": "93.7543150"
    },
    {
        "circlename": "North Eastern Circle",
        "regionname": "North East - II Region",
        "divisionname": "Nagaland Division",
        "officename": "Dimapur Bazar S.O",
        "pincode": "797116",
        "officetype": "PO",
        "delivery": "Delivery",
        "district": "DIMAPUR",
        "statename": "NAGALAND",
        "latitude": "25.8632160",
        "longitude": "93.7543150"
    },
    {
        "circlename": "North Eastern Circle",
        "regionname": "North East - II Region",
        "divisionname": "Nagaland Division",
        "officename": "Monkhola S.O",
        "pincode": "797121",
        "officetype": "PO",
        "delivery": "Delivery",
        "district": "KOHIMA",
        "statename": "NAGALAND",
        "latitude": "25.6707778",
        "longitude": "94.1075833"
    },
    {
        "circlename": "North Eastern Circle",
        "regionname": "North East - II Region",
        "divisionname": "Nagaland Division",
        "officename": "Impur S.O",
        "pincode": "798615",
        "officetype": "PO",
        "delivery": "Delivery",
        "district": "MOKOKCHUNG",
        "statename": "NAGALAND",
        "latitude": "26.3220740",
        "longitude": "94.5144800"
    },
    {
        "circlename": "North Eastern Circle",
        "regionname": "North East - II Region",
        "divisionname": "Nagaland Division",
        "officename": "Longleng S.O",
        "pincode": "798625",
        "officetype": "PO",
        "delivery": "Delivery",
        "district": "LONGLENG",
        "statename": "NAGALAND",
        "latitude": "26.4903840",
        "longitude": "94.8196990"
    },
    {
        "circlename": "North Eastern Circle",
        "regionname": "North East - II Region",
        "divisionname": "Nagaland Division",
        "officename": "Paper Nagar S.O",
        "pincode": "798623",
        "officetype": "PO",
        "delivery": "Delivery",
        "district": "MOKOKCHUNG",
        "statename": "NAGALAND",
        "latitude": "26.3220740",
        "longitude": "94.5144800"
    },
    {
        "circlename": "North Eastern Circle",
        "regionname": "North East - II Region",
        "divisionname": "Nagaland Division",
        "officename": "Phek S.O",
        "pincode": "797108",
        "officetype": "PO",
        "delivery": "Delivery",
        "district": "PHEK",
        "statename": "NAGALAND",
        "latitude": "25.7077",
        "longitude": "94.4616"
    },
    {
        "circlename": "North Eastern Circle",
        "regionname": "North East - II Region",
        "divisionname": "Nagaland Division",
        "officename": "Wokha S.O",
        "pincode": "797111",
        "officetype": "PO",
        "delivery": "Delivery",
        "district": "WOKHA",
        "statename": "NAGALAND",
        "latitude": "26.0942",
        "longitude": "94.2599"
    },
    {
        "circlename": "North Eastern Circle",
        "regionname": "North East - II Region",
        "divisionname": "Nagaland Division",
        "officename": "Signal Village",
        "pincode": "797118",
        "officetype": "PO",
        "delivery": "Delivery",
        "district": "DIMAPUR",
        "statename": "NAGALAND",
        "latitude": "25.6707778",
        "longitude": "94.1075833"
    },
    {
        "circlename": "North Eastern Circle",
        "regionname": "North East - II Region",
        "divisionname": "Nagaland Division",
        "officename": "Akuhaito B.O",
        "pincode": "798620",
        "officetype": "BO",
        "delivery": "Delivery",
        "district": "ZUNHEBOTO",
        "statename": "NAGALAND",
        "latitude": "26.081222799999999",
        "longitude": "94.456054199999997"
    },
    {
        "circlename": "North Eastern Circle",
        "regionname": "North East - II Region",
        "divisionname": "Nagaland Division",
        "officename": "Suger Mill B.O",
        "pincode": "797115",
        "officetype": "BO",
        "delivery": "Delivery",
        "district": "DIMAPUR",
        "statename": "NAGALAND",
        "latitude": "25.8461839",
        "longitude": "93.771806999999995"
    },
    {
        "circlename": "North Eastern Circle",
        "regionname": "North East - II Region",
        "divisionname": "Nagaland Division",
        "officename": "Sukhovi B.O",
        "pincode": "797115",
        "officetype": "BO",
        "delivery": "Delivery",
        "district": "DIMAPUR",
        "statename": "NAGALAND",
        "latitude": "25.749171400000002",
        "longitude": "93.694564999999997"
    },
    {
        "circlename": "North Eastern Circle",
        "regionname": "North East - II Region",
        "divisionname": "Nagaland Division",
        "officename": "Angphang B.O",
        "pincode": "798603",
        "officetype": "BO",
        "delivery": "Delivery",
        "district": "MON",
        "statename": "NAGALAND",
        "latitude": "26.500913300000001",
        "longitude": "94.982953300000005"
    },
    {
        "circlename": "North Eastern Circle",
        "regionname": "North East - II Region",
        "divisionname": "Nagaland Division",
        "officename": "Chenwetnyu B.O",
        "pincode": "798603",
        "officetype": "BO",
        "delivery": "Delivery",
        "district": "MON",
        "statename": "NAGALAND",
        "latitude": "26.578178999999999",
        "longitude": "95.053520300000002"
    },
    {
        "circlename": "North Eastern Circle",
        "regionname": "North East - II Region",
        "divisionname": "Nagaland Division",
        "officename": "Longching B.O",
        "pincode": "798603",
        "officetype": "BO",
        "delivery": "Delivery",
        "district": "MON",
        "statename": "NAGALAND",
        "latitude": "26.5198714",
        "longitude": "94.935474400000004"
    },
    {
        "circlename": "North Eastern Circle",
        "regionname": "North East - II Region",
        "divisionname": "Nagaland Division",
        "officename": "Pessao B.O",
        "pincode": "798603",
        "officetype": "BO",
        "delivery": "Delivery",
        "district": "MON",
        "statename": "NAGALAND",
        "latitude": "26.40063",
        "longitude": "95.045246700000007"
    },
    {
        "circlename": "North Eastern Circle",
        "regionname": "North East - II Region",
        "divisionname": "Nagaland Division",
        "officename": "Mishilimi B.O",
        "pincode": "797105",
        "officetype": "BO",
        "delivery": "Delivery",
        "district": "ZUNHEBOTO",
        "statename": "NAGALAND",
        "latitude": "25.887505000000001",
        "longitude": "94.261749899999998"
    },
    {
        "circlename": "North Eastern Circle",
        "regionname": "North East - II Region",
        "divisionname": "Nagaland Division",
        "officename": "Tuophema B.O",
        "pincode": "797105",
        "officetype": "BO",
        "delivery": "Delivery",
        "district": "KOHIMA",
        "statename": "NAGALAND",
        "latitude": "25.845258399999999",
        "longitude": "94.178229900000005"
    },
    {
        "circlename": "North Eastern Circle",
        "regionname": "North East - II Region",
        "divisionname": "Nagaland Division",
        "officename": "Middle Khomi B.O",
        "pincode": "797108",
        "officetype": "BO",
        "delivery": "Delivery",
        "district": "PHEK",
        "statename": "NAGALAND",
        "latitude": "25.657148299999999",
        "longitude": "94.400006599999998"
    },
    {
        "circlename": "North Eastern Circle",
        "regionname": "North East - II Region",
        "divisionname": "Nagaland Division",
        "officename": "Chetheba B.O",
        "pincode": "797104",
        "officetype": "BO",
        "delivery": "Delivery",
        "district": "PHEK",
        "statename": "NAGALAND",
        "latitude": "25.667898699999999",
        "longitude": "94.262706699999995"
    },
    {
        "circlename": "North Eastern Circle",
        "regionname": "North East - II Region",
        "divisionname": "Nagaland Division",
        "officename": "Runguzumi B.O",
        "pincode": "797104",
        "officetype": "BO",
        "delivery": "Delivery",
        "district": "PHEK",
        "statename": "NAGALAND",
        "latitude": "25.682375",
        "longitude": "94.300622000000004"
    },
    {
        "circlename": "North Eastern Circle",
        "regionname": "North East - II Region",
        "divisionname": "Nagaland Division",
        "officename": "Mongsenyimti B.O",
        "pincode": "798614",
        "officetype": "BO",
        "delivery": "Delivery",
        "district": "MOKOKCHUNG",
        "statename": "NAGALAND",
        "latitude": "26.428744999999999",
        "longitude": "94.6160833"
    },
    {
        "circlename": "North Eastern Circle",
        "regionname": "North East - II Region",
        "divisionname": "Nagaland Division",
        "officename": "Yisemyong B.O",
        "pincode": "798614",
        "officetype": "BO",
        "delivery": "Delivery",
        "district": "MOKOKCHUNG",
        "statename": "NAGALAND",
        "latitude": "26.395665000000001",
        "longitude": "94.5958866"
    },
    {
        "circlename": "North Eastern Circle",
        "regionname": "North East - II Region",
        "divisionname": "Nagaland Division",
        "officename": "Tenyiphe B.O",
        "pincode": "797103",
        "officetype": "BO",
        "delivery": "Delivery",
        "district": "DIMAPUR",
        "statename": "NAGALAND",
        "latitude": "25.830596199999999",
        "longitude": "93.775602899999996"
    },
    {
        "circlename": "North Eastern Circle",
        "regionname": "North East - II Region",
        "divisionname": "Nagaland Division",
        "officename": "Zeliangrong B.O",
        "pincode": "797117",
        "officetype": "BO",
        "delivery": "Non Delivery",
        "district": "DIMAPUR",
        "statename": "NAGALAND",
        "latitude": "NA",
        "longitude": "NA"
    },
    {
        "circlename": "North Eastern Circle",
        "regionname": "North East - II Region",
        "divisionname": "Nagaland Division",
        "officename": "Khehekhu B.O",
        "pincode": "797116",
        "officetype": "BO",
        "delivery": "Delivery",
        "district": "DIMAPUR",
        "statename": "NAGALAND",
        "latitude": "25.791636799999999",
        "longitude": "93.802191699999995"
    },
    {
        "circlename": "North Eastern Circle",
        "regionname": "North East - II Region",
        "divisionname": "Nagaland Division",
        "officename": "Seluophe BO",
        "pincode": "797112",
        "officetype": "BO",
        "delivery": "Delivery",
        "district": "DIMAPUR",
        "statename": "NAGALAND",
        "latitude": "25.843522",
        "longitude": "93.727628800000005"
    },
    {
        "circlename": "North Eastern Circle",
        "regionname": "North East - II Region",
        "divisionname": "Nagaland Division",
        "officename": "Sanis B.O",
        "pincode": "797111",
        "officetype": "BO",
        "delivery": "Delivery",
        "district": "WOKHA",
        "statename": "NAGALAND",
        "latitude": "26.222506599999999",
        "longitude": "94.219043299999996"
    },
    {
        "circlename": "North Eastern Circle",
        "regionname": "North East - II Region",
        "divisionname": "Nagaland Division",
        "officename": "Kubulong B.O",
        "pincode": "798615",
        "officetype": "BO",
        "delivery": "Delivery",
        "district": "MOKOKCHUNG",
        "statename": "NAGALAND",
        "latitude": "26.413906399999998",
        "longitude": "94.533983300000003"
    },
    {
        "circlename": "North Eastern Circle",
        "regionname": "North East - II Region",
        "divisionname": "Nagaland Division",
        "officename": "Sungratsu B.O",
        "pincode": "798615",
        "officetype": "BO",
        "delivery": "Delivery",
        "district": "MOKOKCHUNG",
        "statename": "NAGALAND",
        "latitude": "26.395006299999999",
        "longitude": "94.554059699999996"
    },
    {
        "circlename": "North Eastern Circle",
        "regionname": "North East - II Region",
        "divisionname": "Nagaland Division",
        "officename": "Anatongere B.O",
        "pincode": "798611",
        "officetype": "BO",
        "delivery": "Delivery",
        "district": "KIPHIRE",
        "statename": "NAGALAND",
        "latitude": "25.9722145",
        "longitude": "94.828657000000007"
    },
    {
        "circlename": "North Eastern Circle",
        "regionname": "North East - II Region",
        "divisionname": "Nagaland Division",
        "officename": "Phalonger B.O",
        "pincode": "798611",
        "officetype": "BO",
        "delivery": "Delivery",
        "district": "KIPHIRE",
        "statename": "NAGALAND",
        "latitude": "25.924779999999998",
        "longitude": "94.815346599999998"
    },
    {
        "circlename": "North Eastern Circle",
        "regionname": "North East - II Region",
        "divisionname": "Nagaland Division",
        "officename": "Siochang B.O",
        "pincode": "798611",
        "officetype": "BO",
        "delivery": "Delivery",
        "district": "KIPHIRE",
        "statename": "NAGALAND",
        "latitude": "25.923422599999999",
        "longitude": "94.644427800000003"
    },
    {
        "circlename": "North Eastern Circle",
        "regionname": "North East - II Region",
        "divisionname": "Nagaland Division",
        "officename": "Sitimi B.O",
        "pincode": "798611",
        "officetype": "BO",
        "delivery": "Delivery",
        "district": "KIPHIRE",
        "statename": "NAGALAND",
        "latitude": "25.8401666",
        "longitude": "94.684173299999998"
    },
    {
        "circlename": "North Eastern Circle",
        "regionname": "North East - II Region",
        "divisionname": "Nagaland Division",
        "officename": "Phesama B.O",
        "pincode": "797120",
        "officetype": "BO",
        "delivery": "Delivery",
        "district": "KOHIMA",
        "statename": "NAGALAND",
        "latitude": "25.627021599999999",
        "longitude": "94.113849000000002"
    },
    {
        "circlename": "North Eastern Circle",
        "regionname": "North East - II Region",
        "divisionname": "Nagaland Division",
        "officename": "Khonoma B.O",
        "pincode": "797002",
        "officetype": "BO",
        "delivery": "Delivery",
        "district": "KOHIMA",
        "statename": "NAGALAND",
        "latitude": "25.651758300000001",
        "longitude": "94.022143299999996"
    },
    {
        "circlename": "North Eastern Circle",
        "regionname": "North East - II Region",
        "divisionname": "Nagaland Division",
        "officename": "Chakhabama B.O",
        "pincode": "797003",
        "officetype": "BO",
        "delivery": "Delivery",
        "district": "KOHIMA",
        "statename": "NAGALAND",
        "latitude": "25.6144374",
        "longitude": "94.116280799999998"
    },
    {
        "circlename": "North Eastern Circle",
        "regionname": "North East - II Region",
        "divisionname": "Nagaland Division",
        "officename": "Chedema B.O",
        "pincode": "797003",
        "officetype": "BO",
        "delivery": "Delivery",
        "district": "KOHIMA",
        "statename": "NAGALAND",
        "latitude": "25.6820916",
        "longitude": "94.142378300000004"
    },
    {
        "circlename": "North Eastern Circle",
        "regionname": "North East - II Region",
        "divisionname": "Nagaland Division",
        "officename": "Ciesema B.O",
        "pincode": "797003",
        "officetype": "BO",
        "delivery": "Delivery",
        "district": "KOHIMA",
        "statename": "NAGALAND",
        "latitude": "25.743313300000001",
        "longitude": "94.088930000000005"
    },
    {
        "circlename": "North Eastern Circle",
        "regionname": "North East - II Region",
        "divisionname": "Nagaland Division",
        "officename": "Kizocha B.O",
        "pincode": "797003",
        "officetype": "BO",
        "delivery": "Delivery",
        "district": "KOHIMA",
        "statename": "NAGALAND",
        "latitude": "25.591921599999999",
        "longitude": "94.185843300000002"
    },
    {
        "circlename": "North Eastern Circle",
        "regionname": "North East - II Region",
        "divisionname": "Nagaland Division",
        "officename": "Chungtore B.O",
        "pincode": "798616",
        "officetype": "BO",
        "delivery": "Delivery",
        "district": "TUENSANG",
        "statename": "NAGALAND",
        "latitude": "26.2374011",
        "longitude": "94.695998000000003"
    },
    {
        "circlename": "North Eastern Circle",
        "regionname": "North East - II Region",
        "divisionname": "Nagaland Division",
        "officename": "Kongsang B.O",
        "pincode": "798612",
        "officetype": "BO",
        "delivery": "Delivery",
        "district": "TUENSANG",
        "statename": "NAGALAND",
        "latitude": "26.398959999999999",
        "longitude": "94.771744999999996"
    },
    {
        "circlename": "North Eastern Circle",
        "regionname": "North East - II Region",
        "divisionname": "Nagaland Division",
        "officename": "Phomching B.O",
        "pincode": "798625",
        "officetype": "BO",
        "delivery": "Delivery",
        "district": "LONGLENG",
        "statename": "NAGALAND",
        "latitude": "26.4639633",
        "longitude": "94.772458299999997"
    },
    {
        "circlename": "North Eastern Circle",
        "regionname": "North East - II Region",
        "divisionname": "Nagaland Division",
        "officename": "Jharnapani B.O",
        "pincode": "797106",
        "officetype": "BO",
        "delivery": "Delivery",
        "district": "DIMAPUR",
        "statename": "NAGALAND",
        "latitude": "25.7566378",
        "longitude": "93.843476699999997"
    },
    {
        "circlename": "North Eastern Circle",
        "regionname": "North East - II Region",
        "divisionname": "Nagaland Division",
        "officename": "Wazhiho B.O",
        "pincode": "797114",
        "officetype": "BO",
        "delivery": "Delivery",
        "district": "PHEK",
        "statename": "NAGALAND",
        "latitude": "25.6662222",
        "longitude": "94.716831099999993"
    },
    {
        "circlename": "North Eastern Circle",
        "regionname": "North East - II Region",
        "divisionname": "Nagaland Division",
        "officename": "Changki B.O",
        "pincode": "798601",
        "officetype": "BO",
        "delivery": "Delivery",
        "district": "MOKOKCHUNG",
        "statename": "NAGALAND",
        "latitude": "26.422666599999999",
        "longitude": "94.39058"
    },
    {
        "circlename": "North Eastern Circle",
        "regionname": "North East - II Region",
        "divisionname": "Nagaland Division",
        "officename": "Longmisa B.O",
        "pincode": "798601",
        "officetype": "BO",
        "delivery": "Delivery",
        "district": "MOKOKCHUNG",
        "statename": "NAGALAND",
        "latitude": "26.355255",
        "longitude": "94.604113299999995"
    },
    {
        "circlename": "North Eastern Circle",
        "regionname": "North East - II Region",
        "divisionname": "Nagaland Division",
        "officename": "Nst Colony B.O",
        "pincode": "798601",
        "officetype": "BO",
        "delivery": "Delivery",
        "district": "MOKOKCHUNG",
        "statename": "NAGALAND",
        "latitude": "26.3290866",
        "longitude": "94.530608299999997"
    },
    {
        "circlename": "North Eastern Circle",
        "regionname": "North East - II Region",
        "divisionname": "Nagaland Division",
        "officename": "Ongpangkong B.O",
        "pincode": "798601",
        "officetype": "BO",
        "delivery": "Delivery",
        "district": "MOKOKCHUNG",
        "statename": "NAGALAND",
        "latitude": "26.334293299999999",
        "longitude": "94.501166600000005"
    },
    {
        "circlename": "North Eastern Circle",
        "regionname": "North East - II Region",
        "divisionname": "Nagaland Division",
        "officename": "Tang B.O",
        "pincode": "798621",
        "officetype": "BO",
        "delivery": "Delivery",
        "district": "MON",
        "statename": "NAGALAND",
        "latitude": "26.7078883",
        "longitude": "95.114309899999995"
    },
    {
        "circlename": "North Eastern Circle",
        "regionname": "North East - II Region",
        "divisionname": "Nagaland Division",
        "officename": "Waromung B.O",
        "pincode": "798604",
        "officetype": "BO",
        "delivery": "Delivery",
        "district": "MOKOKCHUNG",
        "statename": "NAGALAND",
        "latitude": "26.5589683",
        "longitude": "94.530910000000006"
    },
    {
        "circlename": "North Eastern Circle",
        "regionname": "North East - II Region",
        "divisionname": "Nagaland Division",
        "officename": "Akumen",
        "pincode": "798604",
        "officetype": "BO",
        "delivery": "Delivery",
        "district": "MOKOKCHUNG",
        "statename": "NAGALAND",
        "latitude": "26.618471",
        "longitude": "94.436081000000001"
    },
    {
        "circlename": "North Eastern Circle",
        "regionname": "North East - II Region",
        "divisionname": "Nagaland Division",
        "officename": "Shihaphumi",
        "pincode": "798604",
        "officetype": "BO",
        "delivery": "Delivery",
        "district": "MOKOKCHUNG",
        "statename": "NAGALAND",
        "latitude": "26.444447149999998",
        "longitude": "94.334804790000007"
    },
    {
        "circlename": "North Eastern Circle",
        "regionname": "North East - II Region",
        "divisionname": "Nagaland Division",
        "officename": "D. C. Complex B.O",
        "pincode": "797113",
        "officetype": "BO",
        "delivery": "Non Delivery",
        "district": "DIMAPUR",
        "statename": "NAGALAND",
        "latitude": "NA",
        "longitude": "NA"
    },
    {
        "circlename": "North Eastern Circle",
        "regionname": "North East - II Region",
        "divisionname": "Nagaland Division",
        "officename": "Nokhu B.O",
        "pincode": "798612",
        "officetype": "BO",
        "delivery": "Delivery",
        "district": "Noklak",
        "statename": "NAGALAND",
        "latitude": "26.239787199999999",
        "longitude": "94.8105853"
    },
    {
        "circlename": "North Eastern Circle",
        "regionname": "North East - II Region",
        "divisionname": "Nagaland Division",
        "officename": "Yajang C",
        "pincode": "798623",
        "officetype": "BO",
        "delivery": "Delivery",
        "district": "MOKOKCHUNG",
        "statename": "NAGALAND",
        "latitude": "26.657800000000002",
        "longitude": "94.506200000000007"
    },
    {
        "circlename": "North Eastern Circle",
        "regionname": "North East - II Region",
        "divisionname": "Nagaland Division",
        "officename": "Khezhakeno B.O",
        "pincode": "797107",
        "officetype": "BO",
        "delivery": "Delivery",
        "district": "PHEK",
        "statename": "NAGALAND",
        "latitude": "25.515585000000002",
        "longitude": "94.209666900000002"
    },
    {
        "circlename": "North Eastern Circle",
        "regionname": "North East - II Region",
        "divisionname": "Nagaland Division",
        "officename": "Phesachuduma B.O",
        "pincode": "797107",
        "officetype": "BO",
        "delivery": "Delivery",
        "district": "PHEK",
        "statename": "NAGALAND",
        "latitude": "25.607720700000002",
        "longitude": "94.253179700000004"
    },
    {
        "circlename": "North Eastern Circle",
        "regionname": "North East - II Region",
        "divisionname": "Nagaland Division",
        "officename": "Thipuzumi B.O",
        "pincode": "797107",
        "officetype": "BO",
        "delivery": "Delivery",
        "district": "PHEK",
        "statename": "NAGALAND",
        "latitude": "25.626529999999999",
        "longitude": "94.267804999999996"
    },
    {
        "circlename": "North Eastern Circle",
        "regionname": "North East - II Region",
        "divisionname": "Nagaland Division",
        "officename": "Ketsapo B.O",
        "pincode": "797108",
        "officetype": "BO",
        "delivery": "Delivery",
        "district": "PHEK",
        "statename": "NAGALAND",
        "latitude": "25.727149900000001",
        "longitude": "94.446698299999994"
    },
    {
        "circlename": "North Eastern Circle",
        "regionname": "North East - II Region",
        "divisionname": "Nagaland Division",
        "officename": "Khuzami B.O",
        "pincode": "797108",
        "officetype": "BO",
        "delivery": "Delivery",
        "district": "PHEK",
        "statename": "NAGALAND",
        "latitude": "25.769706599999999",
        "longitude": "94.475306599999996"
    },
    {
        "circlename": "North Eastern Circle",
        "regionname": "North East - II Region",
        "divisionname": "Nagaland Division",
        "officename": "Namsa B.O",
        "pincode": "798602",
        "officetype": "BO",
        "delivery": "Delivery",
        "district": "MON",
        "statename": "NAGALAND",
        "latitude": "26.903286999999999",
        "longitude": "95.0826292"
    },
    {
        "circlename": "North Eastern Circle",
        "regionname": "North East - II Region",
        "divisionname": "Nagaland Division",
        "officename": "Zaboka B.O",
        "pincode": "798602",
        "officetype": "BO",
        "delivery": "Delivery",
        "district": "MON",
        "statename": "NAGALAND",
        "latitude": "26.933350399999998",
        "longitude": "95.143238199999999"
    },
    {
        "circlename": "North Eastern Circle",
        "regionname": "North East - II Region",
        "divisionname": "Nagaland Division",
        "officename": "Zangkham B.O",
        "pincode": "798602",
        "officetype": "BO",
        "delivery": "Delivery",
        "district": "MON",
        "statename": "NAGALAND",
        "latitude": "26.804196399999999",
        "longitude": "95.158570499999996"
    },
    {
        "circlename": "North Eastern Circle",
        "regionname": "North East - II Region",
        "divisionname": "Nagaland Division",
        "officename": "Asukika B.O",
        "pincode": "797109",
        "officetype": "BO",
        "delivery": "Delivery",
        "district": "KOHIMA",
        "statename": "NAGALAND",
        "latitude": "25.977465899999999",
        "longitude": "94.305334799999997"
    },
    {
        "circlename": "North Eastern Circle",
        "regionname": "North East - II Region",
        "divisionname": "Nagaland Division",
        "officename": "Ghathashi B.O",
        "pincode": "797109",
        "officetype": "BO",
        "delivery": "Delivery",
        "district": "ZUNHEBOTO",
        "statename": "NAGALAND",
        "latitude": "25.848273299999999",
        "longitude": "94.327889999999996"
    },
    {
        "circlename": "North Eastern Circle",
        "regionname": "North East - II Region",
        "divisionname": "Nagaland Division",
        "officename": "Nsunyu B.O",
        "pincode": "797109",
        "officetype": "BO",
        "delivery": "Delivery",
        "district": "KOHIMA",
        "statename": "NAGALAND",
        "latitude": "25.981816599999998",
        "longitude": "94.239866599999999"
    },
    {
        "circlename": "North Eastern Circle",
        "regionname": "North East - II Region",
        "divisionname": "Nagaland Division",
        "officename": "Pughoboto B.O",
        "pincode": "797109",
        "officetype": "BO",
        "delivery": "Delivery",
        "district": "ZUNHEBOTO",
        "statename": "NAGALAND",
        "latitude": "25.891221600000002",
        "longitude": "94.268169999999998"
    },
    {
        "circlename": "North Eastern Circle",
        "regionname": "North East - II Region",
        "divisionname": "Nagaland Division",
        "officename": "Tesophenyu B.O",
        "pincode": "797109",
        "officetype": "BO",
        "delivery": "Delivery",
        "district": "KOHIMA",
        "statename": "NAGALAND",
        "latitude": "25.972316599999999",
        "longitude": "94.212133300000005"
    },
    {
        "circlename": "North Eastern Circle",
        "regionname": "North East - II Region",
        "divisionname": "Nagaland Division",
        "officename": "Saramati B.O",
        "pincode": "798612",
        "officetype": "BO",
        "delivery": "Delivery",
        "district": "TUENSANG",
        "statename": "NAGALAND",
        "latitude": "26.2397378",
        "longitude": "94.798214599999994"
    },
    {
        "circlename": "North Eastern Circle",
        "regionname": "North East - II Region",
        "divisionname": "Nagaland Division",
        "officename": "Hakchang",
        "pincode": "798612",
        "officetype": "BO",
        "delivery": "Delivery",
        "district": "TUENSANG",
        "statename": "NAGALAND",
        "latitude": "26.301929999999999",
        "longitude": "94.848889999999997"
    },
    {
        "circlename": "North Eastern Circle",
        "regionname": "North East - II Region",
        "divisionname": "Nagaland Division",
        "officename": "Kingniu",
        "pincode": "798612",
        "officetype": "BO",
        "delivery": "Delivery",
        "district": "TUENSANG",
        "statename": "NAGALAND",
        "latitude": "26.1152193",
        "longitude": "94.960714300000006"
    },
    {
        "circlename": "North Eastern Circle",
        "regionname": "North East - II Region",
        "divisionname": "Nagaland Division",
        "officename": "Chipur",
        "pincode": "798612",
        "officetype": "BO",
        "delivery": "Delivery",
        "district": "TUENSANG",
        "statename": "NAGALAND",
        "latitude": "25.989082679999999",
        "longitude": "94.984640119999995"
    },
    {
        "circlename": "North Eastern Circle",
        "regionname": "North East - II Region",
        "divisionname": "Nagaland Division",
        "officename": "Luyang Valley B.O",
        "pincode": "798618",
        "officetype": "BO",
        "delivery": "Delivery",
        "district": "MOKOKCHUNG",
        "statename": "NAGALAND",
        "latitude": "26.667721",
        "longitude": "94.640452800000006"
    },
    {
        "circlename": "North Eastern Circle",
        "regionname": "North East - II Region",
        "divisionname": "Nagaland Division",
        "officename": "Baghty B.O",
        "pincode": "797111",
        "officetype": "BO",
        "delivery": "Delivery",
        "district": "WOKHA",
        "statename": "NAGALAND",
        "latitude": "26.241308799999999",
        "longitude": "94.194323400000002"
    },
    {
        "circlename": "North Eastern Circle",
        "regionname": "North East - II Region",
        "divisionname": "Nagaland Division",
        "officename": "Humtsu B.O",
        "pincode": "797111",
        "officetype": "BO",
        "delivery": "Delivery",
        "district": "WOKHA",
        "statename": "NAGALAND",
        "latitude": "26.097653300000001",
        "longitude": "94.252705000000006"
    },
    {
        "circlename": "North Eastern Circle",
        "regionname": "North East - II Region",
        "divisionname": "Nagaland Division",
        "officename": "Mekhukla B.O",
        "pincode": "797111",
        "officetype": "BO",
        "delivery": "Delivery",
        "district": "WOKHA",
        "statename": "NAGALAND",
        "latitude": "26.3509733",
        "longitude": "94.311754899999997"
    },
    {
        "circlename": "North Eastern Circle",
        "regionname": "North East - II Region",
        "divisionname": "Nagaland Division",
        "officename": "Pongitong B.O",
        "pincode": "797111",
        "officetype": "BO",
        "delivery": "Delivery",
        "district": "WOKHA",
        "statename": "NAGALAND",
        "latitude": "26.0517483",
        "longitude": "94.206214200000005"
    },
    {
        "circlename": "North Eastern Circle",
        "regionname": "North East - II Region",
        "divisionname": "Nagaland Division",
        "officename": "Gaili B.O",
        "pincode": "797110",
        "officetype": "BO",
        "delivery": "Delivery",
        "district": "PEREN",
        "statename": "NAGALAND",
        "latitude": "25.592987399999998",
        "longitude": "93.840871699999994"
    },
    {
        "circlename": "North Eastern Circle",
        "regionname": "North East - II Region",
        "divisionname": "Nagaland Division",
        "officename": "Asuto B.O",
        "pincode": "798620",
        "officetype": "BO",
        "delivery": "Delivery",
        "district": "ZUNHEBOTO",
        "statename": "NAGALAND",
        "latitude": "26.114384900000001",
        "longitude": "94.630097199999994"
    },
    {
        "circlename": "North Eastern Circle",
        "regionname": "North East - II Region",
        "divisionname": "Nagaland Division",
        "officename": "Satoi B.O",
        "pincode": "798620",
        "officetype": "BO",
        "delivery": "Delivery",
        "district": "ZUNHEBOTO",
        "statename": "NAGALAND",
        "latitude": "25.831887099999999",
        "longitude": "94.575941"
    },
    {
        "circlename": "North Eastern Circle",
        "regionname": "North East - II Region",
        "divisionname": "Nagaland Division",
        "officename": "Yevishe",
        "pincode": "798620",
        "officetype": "BO",
        "delivery": "Delivery",
        "district": "ZUNHEBOTO",
        "statename": "NAGALAND",
        "latitude": "26.128177900000001",
        "longitude": "94.660522999999998"
    },
    {
        "circlename": "North Eastern Circle",
        "regionname": "North East - II Region",
        "divisionname": "Nagaland Division",
        "officename": "Luvishe New",
        "pincode": "798620",
        "officetype": "BO",
        "delivery": "Delivery",
        "district": "ZUNHEBOTO",
        "statename": "NAGALAND",
        "latitude": "25.985658900000001",
        "longitude": "94.597549999999998"
    },
    {
        "circlename": "North Eastern Circle",
        "regionname": "North East - II Region",
        "divisionname": "Nagaland Division",
        "officename": "Tukuliqa",
        "pincode": "798620",
        "officetype": "BO",
        "delivery": "Delivery",
        "district": "ZUNHEBOTO",
        "statename": "NAGALAND",
        "latitude": "25.815812999999999",
        "longitude": "94.293639999999996"
    },
    {
        "circlename": "North Eastern Circle",
        "regionname": "North East - II Region",
        "divisionname": "Nagaland Division",
        "officename": "Thakiye",
        "pincode": "798620",
        "officetype": "BO",
        "delivery": "Delivery",
        "district": "ZUNHEBOTO",
        "statename": "NAGALAND",
        "latitude": "25.802078000000002",
        "longitude": "94.617462000000003"
    },
    {
        "circlename": "North Eastern Circle",
        "regionname": "North East - II Region",
        "divisionname": "Nagaland Division",
        "officename": "Circular Road S.O",
        "pincode": "797117",
        "officetype": "PO",
        "delivery": "Delivery",
        "district": "DIMAPUR",
        "statename": "NAGALAND",
        "latitude": "25.8632160",
        "longitude": "93.7543150"
    },
    {
        "circlename": "North Eastern Circle",
        "regionname": "North East - II Region",
        "divisionname": "Nagaland Division",
        "officename": "Kiphire S.O",
        "pincode": "798611",
        "officetype": "PO",
        "delivery": "Delivery",
        "district": "KIPHIRE",
        "statename": "NAGALAND",
        "latitude": "25.8484810",
        "longitude": "94.8742460"
    },
    {
        "circlename": "North Eastern Circle",
        "regionname": "North East - II Region",
        "divisionname": "Nagaland Division",
        "officename": "Kohima Village S.O",
        "pincode": "797003",
        "officetype": "PO",
        "delivery": "Delivery",
        "district": "KOHIMA",
        "statename": "NAGALAND",
        "latitude": "25.6707778",
        "longitude": "94.1075833"
    },
    {
        "circlename": "North Eastern Circle",
        "regionname": "North East - II Region",
        "divisionname": "Nagaland Division",
        "officename": "Longkhim S.O",
        "pincode": "798616",
        "officetype": "PO",
        "delivery": "Delivery",
        "district": "TUENSANG",
        "statename": "NAGALAND",
        "latitude": "24.7513890",
        "longitude": "78.8378330"
    },
    {
        "circlename": "North Eastern Circle",
        "regionname": "North East - II Region",
        "divisionname": "Nagaland Division",
        "officename": "Mokokchung S.O",
        "pincode": "798601",
        "officetype": "PO",
        "delivery": "Delivery",
        "district": "MOKOKCHUNG",
        "statename": "NAGALAND",
        "latitude": "26.32469444",
        "longitude": "94.51883333"
    },
    {
        "circlename": "North Eastern Circle",
        "regionname": "North East - II Region",
        "divisionname": "Nagaland Division",
        "officename": "Mon S.O",
        "pincode": "798621",
        "officetype": "PO",
        "delivery": "Delivery",
        "district": "MON",
        "statename": "NAGALAND",
        "latitude": "26.72116667",
        "longitude": "95.02677778"
    },
    {
        "circlename": "North Eastern Circle",
        "regionname": "North East - II Region",
        "divisionname": "Nagaland Division",
        "officename": "New Nepaligaon S.O",
        "pincode": "797113",
        "officetype": "PO",
        "delivery": "Delivery",
        "district": "DIMAPUR",
        "statename": "NAGALAND",
        "latitude": "25.8632160",
        "longitude": "93.7543150"
    },
    {
        "circlename": "North Eastern Circle",
        "regionname": "North East - II Region",
        "divisionname": "Nagaland Division",
        "officename": "Pfutsero S.O",
        "pincode": "797107",
        "officetype": "PO",
        "delivery": "Delivery",
        "district": "PHEK",
        "statename": "NAGALAND",
        "latitude": "25.6508120",
        "longitude": "94.3933470"
    },
    {
        "circlename": "North Eastern Circle",
        "regionname": "North East - II Region",
        "divisionname": "Nagaland Division",
        "officename": "Zalukie S.O",
        "pincode": "797110",
        "officetype": "PO",
        "delivery": "Delivery",
        "district": "PEREN",
        "statename": "NAGALAND",
        "latitude": "25.5124920",
        "longitude": "93.7383770"
    },
    {
        "circlename": "North Eastern Circle",
        "regionname": "North East - II Region",
        "divisionname": "Nagaland Division",
        "officename": "Zunheboto S.O",
        "pincode": "798620",
        "officetype": "PO",
        "delivery": "Delivery",
        "district": "ZUNHEBOTO",
        "statename": "NAGALAND",
        "latitude": "26.01333333",
        "longitude": "94.52644444"
    },
    {
        "circlename": "North Eastern Circle",
        "regionname": "North East - II Region",
        "divisionname": "Nagaland Division",
        "officename": "Shamator SO",
        "pincode": "798628",
        "officetype": "PO",
        "delivery": "Delivery",
        "district": "KOHIMA",
        "statename": "NAGALAND",
        "latitude": "26.0733066",
        "longitude": "94.869835"
    },
    {
        "circlename": "North Eastern Circle",
        "regionname": "North East - II Region",
        "divisionname": "Nagaland Division",
        "officename": "Aizuto B.O",
        "pincode": "798627",
        "officetype": "BO",
        "delivery": "Delivery",
        "district": "ZUNHEBOTO",
        "statename": "NAGALAND",
        "latitude": "26.148995299999999",
        "longitude": "94.525448499999996"
    },
    {
        "circlename": "North Eastern Circle",
        "regionname": "North East - II Region",
        "divisionname": "Nagaland Division",
        "officename": "Asukuto B.O",
        "pincode": "798620",
        "officetype": "BO",
        "delivery": "Delivery",
        "district": "ZUNHEBOTO",
        "statename": "NAGALAND",
        "latitude": "26.094728400000001",
        "longitude": "94.4947157"
    },
    {
        "circlename": "North Eastern Circle",
        "regionname": "North East - II Region",
        "divisionname": "Nagaland Division",
        "officename": "Aoyimti B.O",
        "pincode": "797115",
        "officetype": "BO",
        "delivery": "Delivery",
        "district": "DIMAPUR",
        "statename": "NAGALAND",
        "latitude": "25.888895000000002",
        "longitude": "93.764044999999996"
    },
    {
        "circlename": "North Eastern Circle",
        "regionname": "North East - II Region",
        "divisionname": "Nagaland Division",
        "officename": "Diphupar B.O",
        "pincode": "797115",
        "officetype": "BO",
        "delivery": "Delivery",
        "district": "DIMAPUR",
        "statename": "NAGALAND",
        "latitude": "25.869623300000001",
        "longitude": "93.768306600000003"
    },
    {
        "circlename": "North Eastern Circle",
        "regionname": "North East - II Region",
        "divisionname": "Nagaland Division",
        "officename": "Eralibill B.O",
        "pincode": "797115",
        "officetype": "BO",
        "delivery": "Delivery",
        "district": "DIMAPUR",
        "statename": "NAGALAND",
        "latitude": "25.888501600000001",
        "longitude": "93.776091600000001"
    },
    {
        "circlename": "North Eastern Circle",
        "regionname": "North East - II Region",
        "divisionname": "Nagaland Division",
        "officename": "Showba Old B.O",
        "pincode": "797115",
        "officetype": "BO",
        "delivery": "Delivery",
        "district": "DIMAPUR",
        "statename": "NAGALAND",
        "latitude": "25.7917694",
        "longitude": "93.808357599999994"
    },
    {
        "circlename": "North Eastern Circle",
        "regionname": "North East - II Region",
        "divisionname": "Nagaland Division",
        "officename": "Wozhu Old",
        "pincode": "797099",
        "officetype": "BO",
        "delivery": "Delivery",
        "district": "WOKHA",
        "statename": "NAGALAND",
        "latitude": "26.394059120000001",
        "longitude": "94.22816736"
    },
    {
        "circlename": "North Eastern Circle",
        "regionname": "North East - II Region",
        "divisionname": "Nagaland Division",
        "officename": "Liowokha Old",
        "pincode": "797099",
        "officetype": "BO",
        "delivery": "Delivery",
        "district": "WOKHA",
        "statename": "NAGALAND",
        "latitude": "26.095193200000001",
        "longitude": "94.255914700000005"
    },
    {
        "circlename": "North Eastern Circle",
        "regionname": "North East - II Region",
        "divisionname": "Nagaland Division",
        "officename": "Tobu B.O",
        "pincode": "798603",
        "officetype": "BO",
        "delivery": "Delivery",
        "district": "MON",
        "statename": "NAGALAND",
        "latitude": "26.370046599999998",
        "longitude": "94.937443299999998"
    },
    {
        "circlename": "North Eastern Circle",
        "regionname": "North East - II Region",
        "divisionname": "Nagaland Division",
        "officename": "Ukha B.O",
        "pincode": "798603",
        "officetype": "BO",
        "delivery": "Delivery",
        "district": "MON",
        "statename": "NAGALAND",
        "latitude": "26.418456599999999",
        "longitude": "94.935366599999995"
    },
    {
        "circlename": "North Eastern Circle",
        "regionname": "North East - II Region",
        "divisionname": "Nagaland Division",
        "officename": "Botsa B.O",
        "pincode": "797105",
        "officetype": "BO",
        "delivery": "Delivery",
        "district": "KOHIMA",
        "statename": "NAGALAND",
        "latitude": "25.8564069",
        "longitude": "94.158672199999998"
    },
    {
        "circlename": "North Eastern Circle",
        "regionname": "North East - II Region",
        "divisionname": "Nagaland Division",
        "officename": "Chizami Village B.O",
        "pincode": "797107",
        "officetype": "BO",
        "delivery": "Delivery",
        "district": "PHEK",
        "statename": "NAGALAND",
        "latitude": "25.6007316",
        "longitude": "94.3935666"
    },
    {
        "circlename": "North Eastern Circle",
        "regionname": "North East - II Region",
        "divisionname": "Nagaland Division",
        "officename": "Dzulhami B.O",
        "pincode": "797104",
        "officetype": "BO",
        "delivery": "Delivery",
        "district": "PHEK",
        "statename": "NAGALAND",
        "latitude": "25.827697000000001",
        "longitude": "94.387922000000003"
    },
    {
        "circlename": "North Eastern Circle",
        "regionname": "North East - II Region",
        "divisionname": "Nagaland Division",
        "officename": "Phugwu B.O",
        "pincode": "797104",
        "officetype": "BO",
        "delivery": "Delivery",
        "district": "PHEK",
        "statename": "NAGALAND",
        "latitude": "25.776123999999999",
        "longitude": "94.399078000000003"
    },
    {
        "circlename": "North Eastern Circle",
        "regionname": "North East - II Region",
        "divisionname": "Nagaland Division",
        "officename": "Thevophisumi B.O",
        "pincode": "797104",
        "officetype": "BO",
        "delivery": "Delivery",
        "district": "PHEK",
        "statename": "NAGALAND",
        "latitude": "25.696731",
        "longitude": "94.320687000000007"
    },
    {
        "circlename": "North Eastern Circle",
        "regionname": "North East - II Region",
        "divisionname": "Nagaland Division",
        "officename": "Ungar B.O",
        "pincode": "798614",
        "officetype": "BO",
        "delivery": "Delivery",
        "district": "MOKOKCHUNG",
        "statename": "NAGALAND",
        "latitude": "26.4883366",
        "longitude": "94.660473300000007"
    },
    {
        "circlename": "North Eastern Circle",
        "regionname": "North East - II Region",
        "divisionname": "Nagaland Division",
        "officename": "Rangapahar B.O",
        "pincode": "797118",
        "officetype": "BO",
        "delivery": "Delivery",
        "district": "DIMAPUR",
        "statename": "NAGALAND",
        "latitude": "25.855355200000002",
        "longitude": "93.7104961"
    },
    {
        "circlename": "North Eastern Circle",
        "regionname": "North East - II Region",
        "divisionname": "Nagaland Division",
        "officename": "Thahekhu B.O",
        "pincode": "797118",
        "officetype": "BO",
        "delivery": "Delivery",
        "district": "DIMAPUR",
        "statename": "NAGALAND",
        "latitude": "25.882923900000002",
        "longitude": "93.721470699999998"
    },
    {
        "circlename": "North Eastern Circle",
        "regionname": "North East - II Region",
        "divisionname": "Nagaland Division",
        "officename": "Kushiabill B.O",
        "pincode": "797116",
        "officetype": "BO",
        "delivery": "Delivery",
        "district": "DIMAPUR",
        "statename": "NAGALAND",
        "latitude": "25.938963699999999",
        "longitude": "93.753428200000002"
    },
    {
        "circlename": "North Eastern Circle",
        "regionname": "North East - II Region",
        "divisionname": "Nagaland Division",
        "officename": "Padampukhuri B.O",
        "pincode": "797116",
        "officetype": "BO",
        "delivery": "Delivery",
        "district": "DIMAPUR",
        "statename": "NAGALAND",
        "latitude": "25.868410900000001",
        "longitude": "93.751015499999994"
    },
    {
        "circlename": "North Eastern Circle",
        "regionname": "North East - II Region",
        "divisionname": "Nagaland Division",
        "officename": "Vihokhu B.O",
        "pincode": "797116",
        "officetype": "BO",
        "delivery": "Delivery",
        "district": "DIMAPUR",
        "statename": "NAGALAND",
        "latitude": "25.867654399999999",
        "longitude": "93.865741499999999"
    },
    {
        "circlename": "North Eastern Circle",
        "regionname": "North East - II Region",
        "divisionname": "Nagaland Division",
        "officename": "Phaipijan B.O",
        "pincode": "797112",
        "officetype": "BO",
        "delivery": "Delivery",
        "district": "DIMAPUR",
        "statename": "NAGALAND",
        "latitude": "25.888974999999999",
        "longitude": "93.745784999999998"
    },
    {
        "circlename": "North Eastern Circle",
        "regionname": "North East - II Region",
        "divisionname": "Nagaland Division",
        "officename": "Ralan B.O",
        "pincode": "797112",
        "officetype": "BO",
        "delivery": "Delivery",
        "district": "WOKHA",
        "statename": "NAGALAND",
        "latitude": "25.977309300000002",
        "longitude": "93.960013000000004"
    },
    {
        "circlename": "North Eastern Circle",
        "regionname": "North East - II Region",
        "divisionname": "Nagaland Division",
        "officename": "Razaphema B.O",
        "pincode": "797106",
        "officetype": "BO",
        "delivery": "Delivery",
        "district": "DIMAPUR",
        "statename": "NAGALAND",
        "latitude": "25.689187100000002",
        "longitude": "93.776451600000001"
    },
    {
        "circlename": "North Eastern Circle",
        "regionname": "North East - II Region",
        "divisionname": "Nagaland Division",
        "officename": "Yampha B.O",
        "pincode": "797112",
        "officetype": "BO",
        "delivery": "Delivery",
        "district": "WOKHA",
        "statename": "NAGALAND",
        "latitude": "25.983391699999999",
        "longitude": "93.962567699999994"
    },
    {
        "circlename": "North Eastern Circle",
        "regionname": "North East - II Region",
        "divisionname": "Nagaland Division",
        "officename": "Lotsu B.O",
        "pincode": "797111",
        "officetype": "BO",
        "delivery": "Delivery",
        "district": "WOKHA",
        "statename": "NAGALAND",
        "latitude": "26.074872800000001",
        "longitude": "94.077134299999997"
    },
    {
        "circlename": "North Eastern Circle",
        "regionname": "North East - II Region",
        "divisionname": "Nagaland Division",
        "officename": "Longjang B.O",
        "pincode": "798615",
        "officetype": "BO",
        "delivery": "Delivery",
        "district": "MOKOKCHUNG",
        "statename": "NAGALAND",
        "latitude": "26.458416799999998",
        "longitude": "94.552940100000001"
    },
    {
        "circlename": "North Eastern Circle",
        "regionname": "North East - II Region",
        "divisionname": "Nagaland Division",
        "officename": "Pokhpur B.O",
        "pincode": "798611",
        "officetype": "BO",
        "delivery": "Delivery",
        "district": "KIPHIRE",
        "statename": "NAGALAND",
        "latitude": "25.879833000000001",
        "longitude": "94.942194499999999"
    },
    {
        "circlename": "North Eastern Circle",
        "regionname": "North East - II Region",
        "divisionname": "Nagaland Division",
        "officename": "Thanamir",
        "pincode": "798611",
        "officetype": "BO",
        "delivery": "Delivery",
        "district": "KIPHIRE",
        "statename": "NAGALAND",
        "latitude": "25.7773",
        "longitude": "94.9542"
    },
    {
        "circlename": "North Eastern Circle",
        "regionname": "North East - II Region",
        "divisionname": "Nagaland Division",
        "officename": "Jotsoma B.O",
        "pincode": "797002",
        "officetype": "BO",
        "delivery": "Delivery",
        "district": "KOHIMA",
        "statename": "NAGALAND",
        "latitude": "25.673091599999999",
        "longitude": "94.064053299999998"
    },
    {
        "circlename": "North Eastern Circle",
        "regionname": "North East - II Region",
        "divisionname": "Nagaland Division",
        "officename": "Chimonger B.O",
        "pincode": "798616",
        "officetype": "BO",
        "delivery": "Delivery",
        "district": "TUENSANG",
        "statename": "NAGALAND",
        "latitude": "26.278386000000001",
        "longitude": "94.677397799999994"
    },
    {
        "circlename": "North Eastern Circle",
        "regionname": "North East - II Region",
        "divisionname": "Nagaland Division",
        "officename": "Noksen B.O",
        "pincode": "798612",
        "officetype": "BO",
        "delivery": "Delivery",
        "district": "TUENSANG",
        "statename": "NAGALAND",
        "latitude": "26.3706599",
        "longitude": "94.713873300000003"
    },
    {
        "circlename": "North Eastern Circle",
        "regionname": "North East - II Region",
        "divisionname": "Nagaland Division",
        "officename": "Yongphang",
        "pincode": "798625",
        "officetype": "BO",
        "delivery": "Delivery",
        "district": "LONGLENG",
        "statename": "NAGALAND",
        "latitude": "26.450346360000001",
        "longitude": "94.842335869999999"
    },
    {
        "circlename": "North Eastern Circle",
        "regionname": "North East - II Region",
        "divisionname": "Nagaland Division",
        "officename": "Agri College B.O",
        "pincode": "797106",
        "officetype": "BO",
        "delivery": "Delivery",
        "district": "DIMAPUR",
        "statename": "NAGALAND",
        "latitude": "25.754626600000002",
        "longitude": "93.861811599999996"
    },
    {
        "circlename": "North Eastern Circle",
        "regionname": "North East - II Region",
        "divisionname": "Nagaland Division",
        "officename": "Punglwa B.O",
        "pincode": "797106",
        "officetype": "BO",
        "delivery": "Delivery",
        "district": "PEREN",
        "statename": "NAGALAND",
        "latitude": "25.6235173",
        "longitude": "93.837470800000006"
    },
    {
        "circlename": "North Eastern Circle",
        "regionname": "North East - II Region",
        "divisionname": "Nagaland Division",
        "officename": "Pungkhuri B.O",
        "pincode": "797114",
        "officetype": "BO",
        "delivery": "Delivery",
        "district": "PHEK",
        "statename": "NAGALAND",
        "latitude": "25.606058300000001",
        "longitude": "94.835178299999995"
    },
    {
        "circlename": "North Eastern Circle",
        "regionname": "North East - II Region",
        "divisionname": "Nagaland Division",
        "officename": "Fazl Ali College B.O",
        "pincode": "798601",
        "officetype": "BO",
        "delivery": "Delivery",
        "district": "MOKOKCHUNG",
        "statename": "NAGALAND",
        "latitude": "26.33202",
        "longitude": "94.553020000000004"
    },
    {
        "circlename": "North Eastern Circle",
        "regionname": "North East - II Region",
        "divisionname": "Nagaland Division",
        "officename": "Mangmentong B.O",
        "pincode": "798607",
        "officetype": "BO",
        "delivery": "Delivery",
        "district": "MOKOKCHUNG",
        "statename": "NAGALAND",
        "latitude": "26.291241599999999",
        "longitude": "94.398606599999994"
    },
    {
        "circlename": "North Eastern Circle",
        "regionname": "North East - II Region",
        "divisionname": "Nagaland Division",
        "officename": "Tronger B.O",
        "pincode": "798601",
        "officetype": "BO",
        "delivery": "Delivery",
        "district": "TUENSANG",
        "statename": "NAGALAND",
        "latitude": "26.2719816",
        "longitude": "94.6350166"
    },
    {
        "circlename": "North Eastern Circle",
        "regionname": "North East - II Region",
        "divisionname": "Nagaland Division",
        "officename": "Pongkong B.O",
        "pincode": "798621",
        "officetype": "BO",
        "delivery": "Delivery",
        "district": "MON",
        "statename": "NAGALAND",
        "latitude": "26.764695",
        "longitude": "94.919283800000002"
    },
    {
        "circlename": "North Eastern Circle",
        "regionname": "North East - II Region",
        "divisionname": "Nagaland Division",
        "officename": "Totak B.O",
        "pincode": "798621",
        "officetype": "BO",
        "delivery": "Delivery",
        "district": "MON",
        "statename": "NAGALAND",
        "latitude": "26.666715",
        "longitude": "94.995064999999997"
    },
    {
        "circlename": "North Eastern Circle",
        "regionname": "North East - II Region",
        "divisionname": "Nagaland Division",
        "officename": "Chungtia Yimsen B.O",
        "pincode": "798604",
        "officetype": "BO",
        "delivery": "Delivery",
        "district": "MOKOKCHUNG",
        "statename": "NAGALAND",
        "latitude": "26.4994549",
        "longitude": "94.439063300000001"
    },
    {
        "circlename": "North Eastern Circle",
        "regionname": "North East - II Region",
        "divisionname": "Nagaland Division",
        "officename": "Khari B.O",
        "pincode": "798604",
        "officetype": "BO",
        "delivery": "Delivery",
        "district": "MOKOKCHUNG",
        "statename": "NAGALAND",
        "latitude": "26.499496600000001",
        "longitude": "94.438984899999994"
    },
    {
        "circlename": "North Eastern Circle",
        "regionname": "North East - II Region",
        "divisionname": "Nagaland Division",
        "officename": "Mongchen B.O",
        "pincode": "798604",
        "officetype": "BO",
        "delivery": "Delivery",
        "district": "MOKOKCHUNG",
        "statename": "NAGALAND",
        "latitude": "26.501380000000001",
        "longitude": "94.476511599999995"
    },
    {
        "circlename": "North Eastern Circle",
        "regionname": "North East - II Region",
        "divisionname": "Nagaland Division",
        "officename": "Kongon B.O",
        "pincode": "798622",
        "officetype": "BO",
        "delivery": "Delivery",
        "district": "MON",
        "statename": "NAGALAND",
        "latitude": "26.746258000000001",
        "longitude": "94.813873799999996"
    },
    {
        "circlename": "North Eastern Circle",
        "regionname": "North East - II Region",
        "divisionname": "Nagaland Division",
        "officename": "Thizama B.O",
        "pincode": "797004",
        "officetype": "BO",
        "delivery": "Delivery",
        "district": "KOHIMA",
        "statename": "NAGALAND",
        "latitude": "25.745589500000001",
        "longitude": "94.108727500000001"
    },
    {
        "circlename": "North Eastern Circle",
        "regionname": "North East - II Region",
        "divisionname": "Nagaland Division",
        "officename": "N.Song B.O",
        "pincode": "797101",
        "officetype": "BO",
        "delivery": "Delivery",
        "district": "PEREN",
        "statename": "NAGALAND",
        "latitude": "25.281565799999999",
        "longitude": "93.549119700000006"
    },
    {
        "circlename": "North Eastern Circle",
        "regionname": "North East - II Region",
        "divisionname": "Nagaland Division",
        "officename": "Nchongram B.O",
        "pincode": "797101",
        "officetype": "BO",
        "delivery": "Delivery",
        "district": "PEREN",
        "statename": "NAGALAND",
        "latitude": "25.3539864",
        "longitude": "93.625329399999998"
    },
    {
        "circlename": "North Eastern Circle",
        "regionname": "North East - II Region",
        "divisionname": "Nagaland Division",
        "officename": "Sakraba B.O",
        "pincode": "797107",
        "officetype": "BO",
        "delivery": "Delivery",
        "district": "PHEK",
        "statename": "NAGALAND",
        "latitude": "25.6257333",
        "longitude": "94.368521599999994"
    },
    {
        "circlename": "North Eastern Circle",
        "regionname": "North East - II Region",
        "divisionname": "Nagaland Division",
        "officename": "Tiru Upper",
        "pincode": "798602",
        "officetype": "BO",
        "delivery": "Delivery",
        "district": "MON",
        "statename": "NAGALAND",
        "latitude": "26.722075799999999",
        "longitude": "95.029206299999998"
    },
    {
        "circlename": "North Eastern Circle",
        "regionname": "North East - II Region",
        "divisionname": "Nagaland Division",
        "officename": "Oting",
        "pincode": "798602",
        "officetype": "BO",
        "delivery": "Delivery",
        "district": "MON",
        "statename": "NAGALAND",
        "latitude": "26.845901019999999",
        "longitude": "94.957342879999999"
    },
    {
        "circlename": "North Eastern Circle",
        "regionname": "North East - II Region",
        "divisionname": "Nagaland Division",
        "officename": "Kandinu B.O",
        "pincode": "797109",
        "officetype": "BO",
        "delivery": "Delivery",
        "district": "KOHIMA",
        "statename": "NAGALAND",
        "latitude": "26.0044",
        "longitude": "94.261183299999999"
    },
    {
        "circlename": "North Eastern Circle",
        "regionname": "North East - II Region",
        "divisionname": "Nagaland Division",
        "officename": "Ehunnu B.O",
        "pincode": "797109",
        "officetype": "BO",
        "delivery": "Delivery",
        "district": "KOHIMA",
        "statename": "NAGALAND",
        "latitude": "25.969166600000001",
        "longitude": "94.273926599999996"
    },
    {
        "circlename": "North Eastern Circle",
        "regionname": "North East - II Region",
        "divisionname": "Nagaland Division",
        "officename": "Kuthur B.O",
        "pincode": "798628",
        "officetype": "BO",
        "delivery": "Delivery",
        "district": "TUENSANG",
        "statename": "NAGALAND",
        "latitude": "26.1767983",
        "longitude": "94.81397"
    },
    {
        "circlename": "North Eastern Circle",
        "regionname": "North East - II Region",
        "divisionname": "Nagaland Division",
        "officename": "Shiponger B.O",
        "pincode": "798628",
        "officetype": "BO",
        "delivery": "Delivery",
        "district": "TUENSANG",
        "statename": "NAGALAND",
        "latitude": "26.2274333",
        "longitude": "94.809315"
    },