[
    {
        "circlename": "Uttar Pradesh Circle",
        "regionname": "Bareilly Region",
        "divisionname": "Moradabad Division",
        "officename": "Kaushal Ganj BO",
        "pincode": "244923",
        "officetype": "BO",
        "delivery": "Delivery",
        "district": "UDAM SINGH NAGAR",
        "statename": "UTTARAKHAND",
        "latitude": "28.6106000",
        "longitude": "79.1696000"
    },
    {
        "circlename": "Uttarakhand Circle",
        "regionname": "DivReportingCircle",
        "divisionname": "Almora Division",
        "officename": "Basantpur BO",
        "pincode": "263626",
        "officetype": "BO",
        "delivery": "Delivery",
        "district": "ALMORA",
        "statename": "UTTARAKHAND",
        "latitude": "30.1623500",
        "longitude": "80.0262100"
    },
    {
        "circlename": "Uttarakhand Circle",
        "regionname": "DivReportingCircle",
        "divisionname": "Almora Division",
        "officename": "Dhapti BO",
        "pincode": "263640",
        "officetype": "BO",
        "delivery": "Delivery",
        "district": "BAGESHWAR",
        "statename": "UTTARAKHAND",
        "latitude": "29.8105859",
        "longitude": "79.8282676"
    },
    {
        "circlename": "Uttarakhand Circle",
        "regionname": "DivReportingCircle",
        "divisionname": "Almora Division",
        "officename": "Simgari BO",
        "pincode": "263640",
        "officetype": "BO",
        "delivery": "Delivery",
        "district": "BAGESHWAR",
        "statename": "UTTARAKHAND",
        "latitude": "29.6100000",
        "longitude": "79.6500000"
    },
    {
        "circlename": "Uttarakhand Circle",
        "regionname": "DivReportingCircle",
        "divisionname": "Almora Division",
        "officename": "Syankote BO",
        "pincode": "263640",
        "officetype": "BO",
        "delivery": "Delivery",
        "district": "BAGESHWAR",
        "statename": "UTTARAKHAND",
        "latitude": "29.5908000",
        "longitude": "79.6437500"
    },
    {
        "circlename": "Uttarakhand Circle",
        "regionname": "DivReportingCircle",
        "divisionname": "Almora Division",
        "officename": "Dhapolasera BO",
        "pincode": "263631",
        "officetype": "BO",
        "delivery": "Delivery",
        "district": "BAGESHWAR",
        "statename": "UTTARAKHAND",
        "latitude": "29.8105909",
        "longitude": "79.8282626"
    },
    {
        "circlename": "Uttarakhand Circle",
        "regionname": "DivReportingCircle",
        "divisionname": "Almora Division",
        "officename": "Kapoori BO",
        "pincode": "263631",
        "officetype": "BO",
        "delivery": "Delivery",
        "district": "BAGESHWAR",
        "statename": "UTTARAKHAND",
        "latitude": "29.8105869",
        "longitude": "79.8282666"
    },
    {
        "circlename": "Uttarakhand Circle",
        "regionname": "DivReportingCircle",
        "divisionname": "Almora Division",
        "officename": "Nargoli BO",
        "pincode": "263631",
        "officetype": "BO",
        "delivery": "Delivery",
        "district": "BAGESHWAR",
        "statename": "UTTARAKHAND",
        "latitude": "29.8105869",
        "longitude": "79.8282666"
    },
    {
        "circlename": "Uttarakhand Circle",
        "regionname": "DivReportingCircle",
        "divisionname": "Almora Division",
        "officename": "Fulwari BO",
        "pincode": "263632",
        "officetype": "BO",
        "delivery": "Delivery",
        "district": "BAGESHWAR",
        "statename": "UTTARAKHAND",
        "latitude": "30.1046600",
        "longitude": "79.8527500"
    },
    {
        "circlename": "Uttarakhand Circle",
        "regionname": "DivReportingCircle",
        "divisionname": "Almora Division",
        "officename": "Karmi BO",
        "pincode": "263632",
        "officetype": "BO",
        "delivery": "Delivery",
        "district": "BAGESHWAR",
        "statename": "UTTARAKHAND",
        "latitude": "30.1046600",
        "longitude": "79.8527500"
    },
    {
        "circlename": "Uttarakhand Circle",
        "regionname": "DivReportingCircle",
        "divisionname": "Almora Division",
        "officename": "Sorag BO",
        "pincode": "263632",
        "officetype": "BO",
        "delivery": "Delivery",
        "district": "BAGESHWAR",
        "statename": "UTTARAKHAND",
        "latitude": "30.1046600",
        "longitude": "79.8527500"
    },
    {
        "circlename": "Uttarakhand Circle",
        "regionname": "DivReportingCircle",
        "divisionname": "Almora Division",
        "officename": "Laubanj BO",
        "pincode": "263639",
        "officetype": "BO",
        "delivery": "Delivery",
        "district": "BAGESHWAR",
        "statename": "UTTARAKHAND",
        "latitude": "29.7815800",
        "longitude": "79.6038772"
    },
    {
        "circlename": "Uttarakhand Circle",
        "regionname": "DivReportingCircle",
        "divisionname": "Almora Division",
        "officename": "Kayala BO",
        "pincode": "263643",
        "officetype": "BO",
        "delivery": "Delivery",
        "district": "ALMORA",
        "statename": "UTTARAKHAND",
        "latitude": "29.6439640",
        "longitude": "79.5910710"
    },
    {
        "circlename": "Uttarakhand Circle",
        "regionname": "DivReportingCircle",
        "divisionname": "Almora Division",
        "officename": "Ranban BO",
        "pincode": "263638",
        "officetype": "BO",
        "delivery": "Delivery",
        "district": "ALMORA",
        "statename": "UTTARAKHAND",
        "latitude": "29.7590100",
        "longitude": "79.6303940"
    },
    {
        "circlename": "Uttarakhand Circle",
        "regionname": "DivReportingCircle",
        "divisionname": "Almora Division",
        "officename": "Dunar BO",
        "pincode": "263623",
        "officetype": "BO",
        "delivery": "Delivery",
        "district": "ALMORA",
        "statename": "UTTARAKHAND",
        "latitude": "29.7752000",
        "longitude": "79.1985900"
    },
    {
        "circlename": "Uttarakhand Circle",
        "regionname": "DivReportingCircle",
        "divisionname": "Almora Division",
        "officename": "Gunaditya BO",
        "pincode": "263623",
        "officetype": "BO",
        "delivery": "Delivery",
        "district": "ALMORA",
        "statename": "UTTARAKHAND",
        "latitude": "29.4980240",
        "longitude": "79.9535310"
    },
    {
        "circlename": "Uttarakhand Circle",
        "regionname": "DivReportingCircle",
        "divisionname": "Almora Division",
        "officename": "Jhankarsaim BO",
        "pincode": "263623",
        "officetype": "BO",
        "delivery": "Delivery",
        "district": "ALMORA",
        "statename": "UTTARAKHAND",
        "latitude": "29.4978702",
        "longitude": "79.9556314"
    },
    {
        "circlename": "Uttarakhand Circle",
        "regionname": "DivReportingCircle",
        "divisionname": "Almora Division",
        "officename": "Kafali Suwakhan BO",
        "pincode": "263623",
        "officetype": "BO",
        "delivery": "Delivery",
        "district": "ALMORA",
        "statename": "UTTARAKHAND",
        "latitude": "29.4978732",
        "longitude": "79.9556284"
    },
    {
        "circlename": "Uttarakhand Circle",
        "regionname": "DivReportingCircle",
        "divisionname": "Almora Division",
        "officename": "Khola BO",
        "pincode": "263623",
        "officetype": "BO",
        "delivery": "Delivery",
        "district": "ALMORA",
        "statename": "UTTARAKHAND",
        "latitude": "29.4978642",
        "longitude": "79.9556374"
    },
    {
        "circlename": "Uttarakhand Circle",
        "regionname": "DivReportingCircle",
        "divisionname": "Almora Division",
        "officename": "Mirtola BO",
        "pincode": "263623",
        "officetype": "BO",
        "delivery": "Delivery",
        "district": "ALMORA",
        "statename": "UTTARAKHAND",
        "latitude": "29.4978662",
        "longitude": "79.9556354"
    },
    {
        "circlename": "Uttarakhand Circle",
        "regionname": "DivReportingCircle",
        "divisionname": "Almora Division",
        "officename": "Neoliharara BO",
        "pincode": "263623",
        "officetype": "BO",
        "delivery": "Delivery",
        "district": "ALMORA",
        "statename": "UTTARAKHAND",
        "latitude": "29.4980260",
        "longitude": "79.9535290"
    },
    {
        "circlename": "Uttarakhand Circle",
        "regionname": "DivReportingCircle",
        "divisionname": "Almora Division",
        "officename": "Thikalna BO",
        "pincode": "263623",
        "officetype": "BO",
        "delivery": "Delivery",
        "district": "ALMORA",
        "statename": "UTTARAKHAND",
        "latitude": "29.4980230",
        "longitude": "79.9535320"
    },
    {
        "circlename": "Uttarakhand Circle",
        "regionname": "DivReportingCircle",
        "divisionname": "Almora Division",
        "officename": "Gogina BO",
        "pincode": "263633",
        "officetype": "BO",
        "delivery": "Delivery",
        "district": "BAGESHWAR",
        "statename": "UTTARAKHAND",
        "latitude": "29.946389199999999",
        "longitude": "79.902996700000003"
    },
    {
        "circlename": "Uttarakhand Circle",
        "regionname": "DivReportingCircle",
        "divisionname": "Almora Division",
        "officename": "Ratirketi BO",
        "pincode": "263633",
        "officetype": "BO",
        "delivery": "Delivery",
        "district": "BAGESHWAR",
        "statename": "UTTARAKHAND",
        "latitude": "29.946392199999998",
        "longitude": "79.902993699999996"
    },
    {
        "circlename": "Uttarakhand Circle",
        "regionname": "DivReportingCircle",
        "divisionname": "Almora Division",
        "officename": "Bergaon BO",
        "pincode": "263678",
        "officetype": "BO",
        "delivery": "Delivery",
        "district": "ALMORA",
        "statename": "UTTARAKHAND",
        "latitude": "29.5983670",
        "longitude": "79.6615048"
    },
    {
        "circlename": "Uttarakhand Circle",
        "regionname": "DivReportingCircle",
        "divisionname": "Almora Division",
        "officename": "Rasyaragaon BO",
        "pincode": "263637",
        "officetype": "BO",
        "delivery": "Delivery",
        "district": "ALMORA",
        "statename": "UTTARAKHAND",
        "latitude": "29.9011000",
        "longitude": "79.2076500"
    },
    {
        "circlename": "Uttarakhand Circle",
        "regionname": "DivReportingCircle",
        "divisionname": "Almora Division",
        "officename": "Kathpurchhina BO",
        "pincode": "263628",
        "officetype": "BO",
        "delivery": "Delivery",
        "district": "BAGESHWAR",
        "statename": "UTTARAKHAND",
        "latitude": "29.8394883",
        "longitude": "79.7764207"
    },
    {
        "circlename": "Uttarakhand Circle",
        "regionname": "DivReportingCircle",
        "divisionname": "Almora Division",
        "officename": "Khaulsir BO",
        "pincode": "263628",
        "officetype": "BO",
        "delivery": "Delivery",
        "district": "BAGESHWAR",
        "statename": "UTTARAKHAND",
        "latitude": "29.8394833",
        "longitude": "79.7764257"
    },
    {
        "circlename": "Uttarakhand Circle",
        "regionname": "DivReportingCircle",
        "divisionname": "Almora Division",
        "officename": "Lob BO",
        "pincode": "263628",
        "officetype": "BO",
        "delivery": "Delivery",
        "district": "BAGESHWAR",
        "statename": "UTTARAKHAND",
        "latitude": "29.8394783",
        "longitude": "79.7764307"
    },
    {
        "circlename": "Uttarakhand Circle",
        "regionname": "DivReportingCircle",
        "divisionname": "Almora Division",
        "officename": "Okhalisirod BO",
        "pincode": "263628",
        "officetype": "BO",
        "delivery": "Delivery",
        "district": "BAGESHWAR",
        "statename": "UTTARAKHAND",
        "latitude": "29.7565555",
        "longitude": "79.7608707"
    },
    {
        "circlename": "Uttarakhand Circle",
        "regionname": "DivReportingCircle",
        "divisionname": "Almora Division",
        "officename": "Almiankande BO",
        "pincode": "263645",
        "officetype": "BO",
        "delivery": "Delivery",
        "district": "ALMORA",
        "statename": "UTTARAKHAND",
        "latitude": "29.6433725",
        "longitude": "79.4321715"
    },
    {
        "circlename": "Uttarakhand Circle",
        "regionname": "DivReportingCircle",
        "divisionname": "Almora Division",
        "officename": "Chhana BO",
        "pincode": "263645",
        "officetype": "BO",
        "delivery": "Delivery",
        "district": "ALMORA",
        "statename": "UTTARAKHAND",
        "latitude": "29.6629672",
        "longitude": "79.5383665"
    },
    {
        "circlename": "Uttarakhand Circle",
        "regionname": "DivReportingCircle",
        "divisionname": "Almora Division",
        "officename": "Chilianaula BO",
        "pincode": "263645",
        "officetype": "BO",
        "delivery": "Delivery",
        "district": "ALMORA",
        "statename": "UTTARAKHAND",
        "latitude": "29.6583567",
        "longitude": "79.4119045"
    },
    {
        "circlename": "Uttarakhand Circle",
        "regionname": "DivReportingCircle",
        "divisionname": "Almora Division",
        "officename": "Bhaunkhal BO",
        "pincode": "263646",
        "officetype": "BO",
        "delivery": "Delivery",
        "district": "ALMORA",
        "statename": "UTTARAKHAND",
        "latitude": "29.6433705",
        "longitude": "79.4321735"
    },
    {
        "circlename": "Uttarakhand Circle",
        "regionname": "DivReportingCircle",
        "divisionname": "Almora Division",
        "officename": "Totam BO",
        "pincode": "263646",
        "officetype": "BO",
        "delivery": "Delivery",
        "district": "ALMORA",
        "statename": "UTTARAKHAND",
        "latitude": "29.6433665",
        "longitude": "79.4321775"
    },
    {
        "circlename": "Uttarakhand Circle",
        "regionname": "DivReportingCircle",
        "divisionname": "Almora Division",
        "officename": "Queralla BO",
        "pincode": "263667",
        "officetype": "BO",
        "delivery": "Delivery",
        "district": "ALMORA",
        "statename": "UTTARAKHAND",
        "latitude": "29.6433685",
        "longitude": "79.4321755"
    },
    {
        "circlename": "Uttarakhand Circle",
        "regionname": "DivReportingCircle",
        "divisionname": "Almora Division",
        "officename": "Pantgaon BO",
        "pincode": "263680",
        "officetype": "BO",
        "delivery": "Delivery",
        "district": "ALMORA",
        "statename": "UTTARAKHAND",
        "latitude": "29.6333997",
        "longitude": "79.3132371"
    },
    {
        "circlename": "Uttarakhand Circle",
        "regionname": "DivReportingCircle",
        "divisionname": "Almora Division",
        "officename": "Taya BO",
        "pincode": "263680",
        "officetype": "BO",
        "delivery": "Delivery",
        "district": "ALMORA",
        "statename": "UTTARAKHAND",
        "latitude": "29.6433655",
        "longitude": "79.4321785"
    },
    {
        "circlename": "Uttarakhand Circle",
        "regionname": "DivReportingCircle",
        "divisionname": "Almora Division",
        "officename": "Uprari Chaukote BO",
        "pincode": "263659",
        "officetype": "BO",
        "delivery": "Delivery",
        "district": "ALMORA",
        "statename": "UTTARAKHAND",
        "latitude": "29.8599100",
        "longitude": "79.1287800"
    },
    {
        "circlename": "Uttarakhand Circle",
        "regionname": "DivReportingCircle",
        "divisionname": "Almora Division",
        "officename": "Chantharia BO",
        "pincode": "263653",
        "officetype": "BO",
        "delivery": "Delivery",
        "district": "ALMORA",
        "statename": "UTTARAKHAND",
        "latitude": "29.6433715",
        "longitude": "79.4321725"
    },
    {
        "circlename": "Uttarakhand Circle",
        "regionname": "DivReportingCircle",
        "divisionname": "Almora Division",
        "officename": "Chitreshwar BO",
        "pincode": "263653",
        "officetype": "BO",
        "delivery": "Delivery",
        "district": "ALMORA",
        "statename": "UTTARAKHAND",
        "latitude": "29.6433725",
        "longitude": "79.4321715"
    },
    {
        "circlename": "Uttarakhand Circle",
        "regionname": "DivReportingCircle",
        "divisionname": "Almora Division",
        "officename": "Chhitar BO",
        "pincode": "263656",
        "officetype": "BO",
        "delivery": "Delivery",
        "district": "ALMORA",
        "statename": "UTTARAKHAND",
        "latitude": "29.8833403",
        "longitude": "79.3499930"
    },
    {
        "circlename": "Uttarakhand Circle",
        "regionname": "DivReportingCircle",
        "divisionname": "Almora Division",
        "officename": "Dhamdewal BO",
        "pincode": "263656",
        "officetype": "BO",
        "delivery": "Delivery",
        "district": "ALMORA",
        "statename": "UTTARAKHAND",
        "latitude": "29.8833423",
        "longitude": "79.3499910"
    },
    {
        "circlename": "Uttarakhand Circle",
        "regionname": "DivReportingCircle",
        "divisionname": "Almora Division",
        "officename": "Godi BO",
        "pincode": "263656",
        "officetype": "BO",
        "delivery": "Delivery",
        "district": "ALMORA",
        "statename": "UTTARAKHAND",
        "latitude": "29.8825730",
        "longitude": "79.3533721"
    },
    {
        "circlename": "Uttarakhand Circle",
        "regionname": "DivReportingCircle",
        "divisionname": "Almora Division",
        "officename": "Bhainsoli BO",
        "pincode": "263652",
        "officetype": "BO",
        "delivery": "Delivery",
        "district": "ALMORA",
        "statename": "UTTARAKHAND",
        "latitude": "29.6433705",
        "longitude": "79.4321735"
    },
    {
        "circlename": "Uttarakhand Circle",
        "regionname": "DivReportingCircle",
        "divisionname": "Almora Division",
        "officename": "Naula BO",
        "pincode": "263658",
        "officetype": "BO",
        "delivery": "Delivery",
        "district": "ALMORA",
        "statename": "UTTARAKHAND",
        "latitude": "29.8833383",
        "longitude": "79.3499950"
    },
    {
        "circlename": "Uttarakhand Circle",
        "regionname": "DivReportingCircle",
        "divisionname": "Almora Division",
        "officename": "Garkote Malla BO",
        "pincode": "263676",
        "officetype": "BO",
        "delivery": "Delivery",
        "district": "ALMORA",
        "statename": "UTTARAKHAND",
        "latitude": "29.5866100",
        "longitude": "79.6055300"
    },
    {
        "circlename": "Uttarakhand Circle",
        "regionname": "DivReportingCircle",
        "divisionname": "Almora Division",
        "officename": "Jhimar BO",
        "pincode": "263676",
        "officetype": "BO",
        "delivery": "Delivery",
        "district": "ALMORA",
        "statename": "UTTARAKHAND",
        "latitude": "29.5866100",
        "longitude": "79.6055300"
    },
    {
        "circlename": "Uttarakhand Circle",
        "regionname": "DivReportingCircle",
        "divisionname": "Almora Division",
        "officename": "Khumar BO",
        "pincode": "263676",
        "officetype": "BO",
        "delivery": "Delivery",
        "district": "ALMORA",
        "statename": "UTTARAKHAND",
        "latitude": "29.5866100",
        "longitude": "79.6055300"
    },
    {
        "circlename": "Uttarakhand Circle",
        "regionname": "DivReportingCircle",
        "divisionname": "Almora Division",
        "officename": "Manhet BO",
        "pincode": "263676",
        "officetype": "BO",
        "delivery": "Delivery",
        "district": "ALMORA",
        "statename": "UTTARAKHAND",
        "latitude": "29.5866100",
        "longitude": "79.6055300"
    },
    {
        "circlename": "Uttarakhand Circle",
        "regionname": "DivReportingCircle",
        "divisionname": "Almora Division",
        "officename": "Basai BO",
        "pincode": "263661",
        "officetype": "BO",
        "delivery": "Delivery",
        "district": "ALMORA",
        "statename": "UTTARAKHAND",
        "latitude": "29.8616300",
        "longitude": "79.1788324"
    },
    {
        "circlename": "Uttarakhand Circle",
        "regionname": "DivReportingCircle",
        "divisionname": "Almora Division",
        "officename": "Gudlekh BO",
        "pincode": "263661",
        "officetype": "BO",
        "delivery": "Delivery",
        "district": "ALMORA",
        "statename": "UTTARAKHAND",
        "latitude": "29.8646368",
        "longitude": "79.1633120"
    },
    {
        "circlename": "Uttarakhand Circle",
        "regionname": "DivReportingCircle",
        "divisionname": "Almora Division",
        "officename": "Jayanteshwar Simalchaura BO",
        "pincode": "263661",
        "officetype": "BO",
        "delivery": "Delivery",
        "district": "ALMORA",
        "statename": "UTTARAKHAND",
        "latitude": "29.8426500",
        "longitude": "79.2129000"
    },
    {
        "circlename": "Uttarakhand Circle",
        "regionname": "DivReportingCircle",
        "divisionname": "Almora Division",
        "officename": "Khadalgaon BO",
        "pincode": "263661",
        "officetype": "BO",
        "delivery": "Delivery",
        "district": "ALMORA",
        "statename": "UTTARAKHAND",
        "latitude": "29.8426500",
        "longitude": "79.2129000"
    },
    {
        "circlename": "Uttarakhand Circle",
        "regionname": "DivReportingCircle",
        "divisionname": "Almora Division",
        "officename": "Rudoli BO",
        "pincode": "263661",
        "officetype": "BO",
        "delivery": "Delivery",
        "district": "ALMORA",
        "statename": "UTTARAKHAND",
        "latitude": "29.8426500",
        "longitude": "79.2129000"
    },
    {
        "circlename": "Uttarakhand Circle",
        "regionname": "DivReportingCircle",
        "divisionname": "Almora Division",
        "officename": "Udepur BO",
        "pincode": "263661",
        "officetype": "BO",
        "delivery": "Delivery",
        "district": "ALMORA",
        "statename": "UTTARAKHAND",
        "latitude": "29.8426500",
        "longitude": "79.2129000"
    },
    {
        "circlename": "Uttarakhand Circle",
        "regionname": "DivReportingCircle",
        "divisionname": "Almora Division",
        "officename": "Kotar BO",
        "pincode": "263663",
        "officetype": "BO",
        "delivery": "Delivery",
        "district": "ALMORA",
        "statename": "UTTARAKHAND",
        "latitude": "29.6146837",
        "longitude": "79.4049698"
    },
    {
        "circlename": "Uttarakhand Circle",
        "regionname": "DivReportingCircle",
        "divisionname": "Chamoli Division",
        "officename": "Gwardewaldhar BO",
        "pincode": "246401",
        "officetype": "BO",
        "delivery": "Delivery",
        "district": "CHAMOLI",
        "statename": "UTTARAKHAND",
        "latitude": "30.4350610",
        "longitude": "79.3014900"
    },
    {
        "circlename": "Uttarakhand Circle",
        "regionname": "DivReportingCircle",
        "divisionname": "Chamoli Division",
        "officename": "Tangsa BO",
        "pincode": "246401",
        "officetype": "BO",
        "delivery": "Delivery",
        "district": "CHAMOLI",
        "statename": "UTTARAKHAND",
        "latitude": "30.4095260",
        "longitude": "79.3197970"
    },
    {
        "circlename": "Uttarakhand Circle",
        "regionname": "DivReportingCircle",
        "divisionname": "Chamoli Division",
        "officename": "Dangwal Gaon BO",
        "pincode": "246421",
        "officetype": "BO",
        "delivery": "Delivery",
        "district": "RUDRA PRAYAG",
        "statename": "UTTARAKHAND",
        "latitude": "30.4030960",
        "longitude": "78.9751330"
    },
    {
        "circlename": "Uttarakhand Circle",
        "regionname": "DivReportingCircle",
        "divisionname": "Chamoli Division",
        "officename": "Silli BO",
        "pincode": "246421",
        "officetype": "BO",
        "delivery": "Delivery",
        "district": "RUDRA PRAYAG",
        "statename": "UTTARAKHAND",
        "latitude": "23.3484400",
        "longitude": "85.8511830"
    },
    {
        "circlename": "Uttarakhand Circle",
        "regionname": "DivReportingCircle",
        "divisionname": "Chamoli Division",
        "officename": "Makoomath BO",
        "pincode": "246419",
        "officetype": "BO",
        "delivery": "Delivery",
        "district": "RUDRA PRAYAG",
        "statename": "UTTARAKHAND",
        "latitude": "30.3461910",
        "longitude": "79.0485060"
    },
    {
        "circlename": "Uttarakhand Circle",
        "regionname": "DivReportingCircle",
        "divisionname": "Chamoli Division",
        "officename": "Paldwari BO",
        "pincode": "246419",
        "officetype": "BO",
        "delivery": "Delivery",
        "district": "RUDRA PRAYAG",
        "statename": "UTTARAKHAND",
        "latitude": "30.4917180",
        "longitude": "79.0667626"
    },
    {
        "circlename": "Uttarakhand Circle",
        "regionname": "DivReportingCircle",
        "divisionname": "Chamoli Division",
        "officename": "Sursal BO",
        "pincode": "246419",
        "officetype": "BO",
        "delivery": "Delivery",
        "district": "RUDRA PRAYAG",
        "statename": "UTTARAKHAND",
        "latitude": "30.4842960",
        "longitude": "79.0941020"
    },
    {
        "circlename": "Uttarakhand Circle",
        "regionname": "DivReportingCircle",
        "divisionname": "Chamoli Division",
        "officename": "Gari BO",
        "pincode": "246424",
        "officetype": "BO",
        "delivery": "Delivery",
        "district": "CHAMOLI",
        "statename": "UTTARAKHAND",
        "latitude": "30.2936180",
        "longitude": "79.5603700"
    },
    {
        "circlename": "Uttarakhand Circle",
        "regionname": "DivReportingCircle",
        "divisionname": "Chamoli Division",
        "officename": "Ropa BO",
        "pincode": "246424",
        "officetype": "BO",
        "delivery": "Delivery",
        "district": "CHAMOLI",
        "statename": "UTTARAKHAND",
        "latitude": "30.2977180",
        "longitude": "79.5942180"
    },
    {
        "circlename": "Uttarakhand Circle",
        "regionname": "DivReportingCircle",
        "divisionname": "Chamoli Division",
        "officename": "Arkhund BO",
        "pincode": "246425",
        "officetype": "BO",
        "delivery": "Delivery",
        "district": "RUDRA PRAYAG",
        "statename": "UTTARAKHAND",
        "latitude": "30.2844140",
        "longitude": "78.9811410"
    },
    {
        "circlename": "Uttarakhand Circle",
        "regionname": "DivReportingCircle",
        "divisionname": "Chamoli Division",
        "officename": "Dhartondla BO",
        "pincode": "246425",
        "officetype": "BO",
        "delivery": "Delivery",
        "district": "RUDRA PRAYAG",
        "statename": "UTTARAKHAND",
        "latitude": "30.4042250",
        "longitude": "79.1455210"
    },
    {
        "circlename": "Uttarakhand Circle",
        "regionname": "DivReportingCircle",
        "divisionname": "Chamoli Division",
        "officename": "Kandara BO",
        "pincode": "246425",
        "officetype": "BO",
        "delivery": "Delivery",
        "district": "RUDRA PRAYAG",
        "statename": "UTTARAKHAND",
        "latitude": "30.4355680",
        "longitude": "79.0856890"
    },
    {
        "circlename": "Uttarakhand Circle",
        "regionname": "DivReportingCircle",
        "divisionname": "Chamoli Division",
        "officename": "Vinobapuri BO",
        "pincode": "246425",
        "officetype": "BO",
        "delivery": "Delivery",
        "district": "RUDRA PRAYAG",
        "statename": "UTTARAKHAND",
        "latitude": "30.4138120",
        "longitude": "79.0851630"
    },
    {
        "circlename": "Uttarakhand Circle",
        "regionname": "DivReportingCircle",
        "divisionname": "Chamoli Division",
        "officename": "Kurjhan BO",
        "pincode": "246495",
        "officetype": "BO",
        "delivery": "Delivery",
        "district": "RUDRA PRAYAG",
        "statename": "UTTARAKHAND",
        "latitude": "30.4362850",
        "longitude": "79.3836870"
    },
    {
        "circlename": "Uttarakhand Circle",
        "regionname": "DivReportingCircle",
        "divisionname": "Chamoli Division",
        "officename": "Ban BO",
        "pincode": "246427",
        "officetype": "BO",
        "delivery": "Delivery",
        "district": "CHAMOLI",
        "statename": "UTTARAKHAND",
        "latitude": "30.0610650",
        "longitude": "79.5775220"
    },
    {
        "circlename": "Uttarakhand Circle",
        "regionname": "DivReportingCircle",
        "divisionname": "Chamoli Division",
        "officename": "Lwani BO",
        "pincode": "246427",
        "officetype": "BO",
        "delivery": "Delivery",
        "district": "CHAMOLI",
        "statename": "UTTARAKHAND",
        "latitude": "30.1050450",
        "longitude": "79.5912460"
    },
    {
        "circlename": "Uttarakhand Circle",
        "regionname": "DivReportingCircle",
        "divisionname": "Chamoli Division",
        "officename": "Rain BO",
        "pincode": "246427",
        "officetype": "BO",
        "delivery": "Delivery",
        "district": "CHAMOLI",
        "statename": "UTTARAKHAND",
        "latitude": "30.1856730",
        "longitude": "79.3690740"
    },
    {
        "circlename": "Uttarakhand Circle",
        "regionname": "DivReportingCircle",
        "divisionname": "Chamoli Division",
        "officename": "Suya BO",
        "pincode": "246427",
        "officetype": "BO",
        "delivery": "Delivery",
        "district": "CHAMOLI",
        "statename": "UTTARAKHAND",
        "latitude": "30.0996970",
        "longitude": "79.6181910"
    },
    {
        "circlename": "Uttarakhand Circle",
        "regionname": "DivReportingCircle",
        "divisionname": "Chamoli Division",
        "officename": "Torti BO",
        "pincode": "246427",
        "officetype": "BO",
        "delivery": "Delivery",
        "district": "CHAMOLI",
        "statename": "UTTARAKHAND",
        "latitude": "30.0744240",
        "longitude": "79.6103450"
    },
    {
        "circlename": "Uttarakhand Circle",
        "regionname": "DivReportingCircle",
        "divisionname": "Chamoli Division",
        "officename": "Karchhuna BO",
        "pincode": "246429",
        "officetype": "BO",
        "delivery": "Delivery",
        "district": "CHAMOLI",
        "statename": "UTTARAKHAND",
        "latitude": "30.2976670",
        "longitude": "79.1855380"
    },
    {
        "circlename": "Uttarakhand Circle",
        "regionname": "DivReportingCircle",
        "divisionname": "Chamoli Division",
        "officename": "Kweenthi BO",
        "pincode": "246429",
        "officetype": "BO",
        "delivery": "Delivery",
        "district": "CHAMOLI",
        "statename": "UTTARAKHAND",
        "latitude": "30.2734720",
        "longitude": "79.1535120"
    },
    {
        "circlename": "Uttarakhand Circle",
        "regionname": "DivReportingCircle",
        "divisionname": "Chamoli Division",
        "officename": "Ladoli BO",
        "pincode": "246429",
        "officetype": "BO",
        "delivery": "Delivery",
        "district": "RUDRA PRAYAG",
        "statename": "UTTARAKHAND",
        "latitude": "30.2512180",
        "longitude": "79.0941600"
    },
    {
        "circlename": "Uttarakhand Circle",
        "regionname": "DivReportingCircle",
        "divisionname": "Chamoli Division",
        "officename": "Sari BO",
        "pincode": "246429",
        "officetype": "BO",
        "delivery": "Delivery",
        "district": "RUDRA PRAYAG",
        "statename": "UTTARAKHAND",
        "latitude": "30.2987380",
        "longitude": "79.1428590"
    },
    {
        "circlename": "Uttarakhand Circle",
        "regionname": "DivReportingCircle",
        "divisionname": "Chamoli Division",
        "officename": "Sidoli BO",
        "pincode": "246429",
        "officetype": "BO",
        "delivery": "Delivery",
        "district": "CHAMOLI",
        "statename": "UTTARAKHAND",
        "latitude": "30.2630740",
        "longitude": "79.1336860"
    },
    {
        "circlename": "Uttarakhand Circle",
        "regionname": "DivReportingCircle",
        "divisionname": "Chamoli Division",
        "officename": "Sutol BO",
        "pincode": "246435",
        "officetype": "BO",
        "delivery": "Delivery",
        "district": "CHAMOLI",
        "statename": "UTTARAKHAND",
        "latitude": "30.273246",
        "longitude": "79.624944999999997"
    },
    {
        "circlename": "Uttarakhand Circle",
        "regionname": "DivReportingCircle",
        "divisionname": "Chamoli Division",
        "officename": "Lamgondi BO",
        "pincode": "246439",
        "officetype": "BO",
        "delivery": "Delivery",
        "district": "RUDRA PRAYAG",
        "statename": "UTTARAKHAND",
        "latitude": "30.4972560",
        "longitude": "79.0835700"
    },
    {
        "circlename": "Uttarakhand Circle",
        "regionname": "DivReportingCircle",
        "divisionname": "Chamoli Division",
        "officename": "Ghimtoli BO",
        "pincode": "246442",
        "officetype": "BO",
        "delivery": "Delivery",
        "district": "RUDRA PRAYAG",
        "statename": "UTTARAKHAND",
        "latitude": "30.3527390",
        "longitude": "79.0906300"
    },
    {
        "circlename": "Uttarakhand Circle",
        "regionname": "DivReportingCircle",
        "divisionname": "Chamoli Division",
        "officename": "Baragaon BO",
        "pincode": "246443",
        "officetype": "BO",
        "delivery": "Delivery",
        "district": "CHAMOLI",
        "statename": "UTTARAKHAND",
        "latitude": "30.3064050",
        "longitude": "78.9981960"
    },
    {
        "circlename": "Uttarakhand Circle",
        "regionname": "DivReportingCircle",
        "divisionname": "Chamoli Division",
        "officename": "Bharki BO",
        "pincode": "246443",
        "officetype": "BO",
        "delivery": "Delivery",
        "district": "CHAMOLI",
        "statename": "UTTARAKHAND",
        "latitude": "30.3064070",
        "longitude": "78.9981950"
    },
    {
        "circlename": "Uttarakhand Circle",
        "regionname": "DivReportingCircle",
        "divisionname": "Chamoli Division",
        "officename": "Bhyundhar BO",
        "pincode": "246443",
        "officetype": "BO",
        "delivery": "Delivery",
        "district": "CHAMOLI",
        "statename": "UTTARAKHAND",
        "latitude": "30.746409",
        "longitude": "79.611525"
    },
    {
        "circlename": "Uttarakhand Circle",
        "regionname": "DivReportingCircle",
        "divisionname": "Chamoli Division",
        "officename": "Niti BO",
        "pincode": "246483",
        "officetype": "BO",
        "delivery": "Delivery",
        "district": "CHAMOLI",
        "statename": "UTTARAKHAND",
        "latitude": "NA",
        "longitude": "NA"
    },
    {
        "circlename": "Uttarakhand Circle",
        "regionname": "DivReportingCircle",
        "divisionname": "Chamoli Division",
        "officename": "Rainipalla BO",
        "pincode": "246483",
        "officetype": "BO",
        "delivery": "Delivery",
        "district": "CHAMOLI",
        "statename": "UTTARAKHAND",
        "latitude": "NA",
        "longitude": "NA"
    },
    {
        "circlename": "Uttarakhand Circle",
        "regionname": "DivReportingCircle",
        "divisionname": "Chamoli Division",
        "officename": "Salurdungra BO",
        "pincode": "246443",
        "officetype": "BO",
        "delivery": "Delivery",
        "district": "CHAMOLI",
        "statename": "UTTARAKHAND",
        "latitude": "30.5851240",
        "longitude": "79.5854260"
    },
    {
        "circlename": "Uttarakhand Circle",
        "regionname": "DivReportingCircle",
        "divisionname": "Chamoli Division",
        "officename": "Subhain BO",
        "pincode": "246483",
        "officetype": "BO",
        "delivery": "Delivery",
        "district": "CHAMOLI",
        "statename": "UTTARAKHAND",
        "latitude": "NA",
        "longitude": "NA"
    },
    {
        "circlename": "Uttarakhand Circle",
        "regionname": "DivReportingCircle",
        "divisionname": "Chamoli Division",
        "officename": "Suraithota BO",
        "pincode": "246483",
        "officetype": "BO",
        "delivery": "Delivery",
        "district": "CHAMOLI",
        "statename": "UTTARAKHAND",
        "latitude": "NA",
        "longitude": "NA"
    },
    {
        "circlename": "Uttarakhand Circle",
        "regionname": "DivReportingCircle",
        "divisionname": "Chamoli Division",
        "officename": "Ghandiyal BO",
        "pincode": "246444",
        "officetype": "BO",
        "delivery": "Delivery",
        "district": "CHAMOLI",
        "statename": "UTTARAKHAND",
        "latitude": "30.211839000000001",
        "longitude": "79.271895000000001"
    },
    {
        "circlename": "Uttarakhand Circle",
        "regionname": "DivReportingCircle",
        "divisionname": "Chamoli Division",
        "officename": "Khainoli BO",
        "pincode": "246444",
        "officetype": "BO",
        "delivery": "Delivery",
        "district": "CHAMOLI",
        "statename": "UTTARAKHAND",
        "latitude": "30.080583000000001",
        "longitude": "79.376121999999995"
    },
    {
        "circlename": "Uttarakhand Circle",
        "regionname": "DivReportingCircle",
        "divisionname": "Chamoli Division",
        "officename": "Umatta Chatti BO",
        "pincode": "246444",
        "officetype": "BO",
        "delivery": "Delivery",
        "district": "CHAMOLI",
        "statename": "UTTARAKHAND",
        "latitude": "30.6375160",
        "longitude": "79.4527610"
    },
    {
        "circlename": "Uttarakhand Circle",
        "regionname": "DivReportingCircle",
        "divisionname": "Chamoli Division",
        "officename": "Kanchula BO",
        "pincode": "246446",
        "officetype": "BO",
        "delivery": "Delivery",
        "district": "CHAMOLI",
        "statename": "UTTARAKHAND",
        "latitude": "30.2671600",
        "longitude": "79.2859860"
    },
    {
        "circlename": "Uttarakhand Circle",
        "regionname": "DivReportingCircle",
        "divisionname": "Chamoli Division",
        "officename": "Kalusain BO",
        "pincode": "246488",
        "officetype": "BO",
        "delivery": "Delivery",
        "district": "CHAMOLI",
        "statename": "UTTARAKHAND",
        "latitude": "30.1786370",
        "longitude": "79.3725370"
    },
    {
        "circlename": "Uttarakhand Circle",
        "regionname": "DivReportingCircle",
        "divisionname": "Chamoli Division",
        "officename": "Mokh BO",
        "pincode": "246449",
        "officetype": "BO",
        "delivery": "Delivery",
        "district": "CHAMOLI",
        "statename": "UTTARAKHAND",
        "latitude": "30.2407620",
        "longitude": "79.4338190"
    },
    {
        "circlename": "Uttarakhand Circle",
        "regionname": "DivReportingCircle",
        "divisionname": "Chamoli Division",
        "officename": "Tefna BO",
        "pincode": "246449",
        "officetype": "BO",
        "delivery": "Delivery",
        "district": "CHAMOLI",
        "statename": "UTTARAKHAND",
        "latitude": "30.2548720",
        "longitude": "79.3757310"
    },
    {
        "circlename": "Uttarakhand Circle",
        "regionname": "DivReportingCircle",
        "divisionname": "Chamoli Division",
        "officename": "Thirpak BO",
        "pincode": "246449",
        "officetype": "BO",
        "delivery": "Delivery",
        "district": "CHAMOLI",
        "statename": "UTTARAKHAND",
        "latitude": "30.3114990",
        "longitude": "79.3636280"
    },
    {
        "circlename": "Uttarakhand Circle",
        "regionname": "DivReportingCircle",
        "divisionname": "Chamoli Division",
        "officename": "Aser Simli BO",
        "pincode": "246455",
        "officetype": "BO",
        "delivery": "Delivery",
        "district": "CHAMOLI",
        "statename": "UTTARAKHAND",
        "latitude": "30.2548720",
        "longitude": "79.3867210"
    },
    {
        "circlename": "Uttarakhand Circle",
        "regionname": "DivReportingCircle",
        "divisionname": "Chamoli Division",
        "officename": "Bhagoti BO",
        "pincode": "246455",
        "officetype": "BO",
        "delivery": "Delivery",
        "district": "CHAMOLI",
        "statename": "UTTARAKHAND",
        "latitude": "30.1457630",
        "longitude": "79.3704910"
    },
    {
        "circlename": "Uttarakhand Circle",
        "regionname": "DivReportingCircle",
        "divisionname": "Chamoli Division",
        "officename": "Chhekura BO",
        "pincode": "246455",
        "officetype": "BO",
        "delivery": "Delivery",
        "district": "CHAMOLI",
        "statename": "UTTARAKHAND",
        "latitude": "30.2673210",
        "longitude": "79.3726260"
    },
    {
        "circlename": "Uttarakhand Circle",
        "regionname": "DivReportingCircle",
        "divisionname": "Chamoli Division",
        "officename": "Jhinjhoni BO",
        "pincode": "246455",
        "officetype": "BO",
        "delivery": "Delivery",
        "district": "CHAMOLI",
        "statename": "UTTARAKHAND",
        "latitude": "30.4272270",
        "longitude": "79.4592920"
    },
    {
        "circlename": "Uttarakhand Circle",
        "regionname": "DivReportingCircle",
        "divisionname": "Chamoli Division",
        "officename": "Malai BO",
        "pincode": "246487",
        "officetype": "BO",
        "delivery": "Delivery",
        "district": "CHAMOLI",
        "statename": "UTTARAKHAND",
        "latitude": "30.1971290",
        "longitude": "79.1802480"
    },
    {
        "circlename": "Uttarakhand Circle",
        "regionname": "DivReportingCircle",
        "divisionname": "Chamoli Division",
        "officename": "Malethi BO",
        "pincode": "246487",
        "officetype": "BO",
        "delivery": "Delivery",
        "district": "CHAMOLI",
        "statename": "UTTARAKHAND",
        "latitude": "30.2029280",
        "longitude": "79.1985840"
    },
    {
        "circlename": "Uttarakhand Circle",
        "regionname": "DivReportingCircle",
        "divisionname": "Chamoli Division",
        "officename": "Fafanj BO",
        "pincode": "246469",
        "officetype": "BO",
        "delivery": "Delivery",
        "district": "RUDRA PRAYAG",
        "statename": "UTTARAKHAND",
        "latitude": "30.2028340",
        "longitude": "79.1982410"
    },
    {
        "circlename": "Uttarakhand Circle",
        "regionname": "DivReportingCircle",
        "divisionname": "Chamoli Division",
        "officename": "Gaurikund BO",
        "pincode": "246471",
        "officetype": "BO",
        "delivery": "Delivery",
        "district": "RUDRA PRAYAG",
        "statename": "UTTARAKHAND",
        "latitude": "30.6529130",
        "longitude": "79.0256580"
    },
    {
        "circlename": "Uttarakhand Circle",
        "regionname": "DivReportingCircle",
        "divisionname": "Chamoli Division",
        "officename": "Rampur BO",
        "pincode": "246471",
        "officetype": "BO",
        "delivery": "Delivery",
        "district": "RUDRA PRAYAG",
        "statename": "UTTARAKHAND",
        "latitude": "30.2432560",
        "longitude": "78.9408450"
    },
    {
        "circlename": "Uttarakhand Circle",
        "regionname": "DivReportingCircle",
        "divisionname": "Chamoli Division",
        "officename": "Dweeng BO",
        "pincode": "246472",
        "officetype": "BO",
        "delivery": "Delivery",
        "district": "CHAMOLI",
        "statename": "UTTARAKHAND",
        "latitude": "30.4576680",
        "longitude": "79.4212750"
    },
    {
        "circlename": "Uttarakhand Circle",
        "regionname": "DivReportingCircle",
        "divisionname": "Chamoli Division",
        "officename": "Pagnapainkhanda BO",
        "pincode": "246472",
        "officetype": "BO",
        "delivery": "Delivery",
        "district": "CHAMOLI",
        "statename": "UTTARAKHAND",
        "latitude": "30.3691210",
        "longitude": "79.5406740"
    },
    {
        "circlename": "Uttarakhand Circle",
        "regionname": "DivReportingCircle",
        "divisionname": "Chamoli Division",
        "officename": "Masoli BO",
        "pincode": "246473",
        "officetype": "BO",
        "delivery": "Delivery",
        "district": "CHAMOLI",
        "statename": "UTTARAKHAND",
        "latitude": "30.4145940",
        "longitude": "79.2176230"
    },
    {
        "circlename": "Uttarakhand Circle",
        "regionname": "DivReportingCircle",
        "divisionname": "Chamoli Division",
        "officename": "Simlasu BO",
        "pincode": "246473",
        "officetype": "BO",
        "delivery": "Delivery",
        "district": "CHAMOLI",
        "statename": "UTTARAKHAND",
        "latitude": "30.3847760",
        "longitude": "79.1898120"
    },
    {
        "circlename": "Uttarakhand Circle",
        "regionname": "DivReportingCircle",
        "divisionname": "Chamoli Division",
        "officename": "Udamanda BO",
        "pincode": "246473",
        "officetype": "BO",
        "delivery": "Delivery",
        "district": "CHAMOLI",
        "statename": "UTTARAKHAND",
        "latitude": "30.3219890",
        "longitude": "79.1954110"
    },
    {
        "circlename": "Uttarakhand Circle",
        "regionname": "DivReportingCircle",
        "divisionname": "Chamoli Division",
        "officename": "Barsudi BO",
        "pincode": "246171",
        "officetype": "BO",
        "delivery": "Delivery",
        "district": "RUDRA PRAYAG",
        "statename": "UTTARAKHAND",
        "latitude": "30.4440240",
        "longitude": "79.0426120"
    },
    {
        "circlename": "Uttarakhand Circle",
        "regionname": "DivReportingCircle",
        "divisionname": "Chamoli Division",
        "officename": "Biron BO",
        "pincode": "246171",
        "officetype": "BO",
        "delivery": "Delivery",
        "district": "RUDRA PRAYAG",
        "statename": "UTTARAKHAND",
        "latitude": "30.2665020",
        "longitude": "78.9882080"
    },
    {
        "circlename": "Uttarakhand Circle",
        "regionname": "DivReportingCircle",
        "divisionname": "Chamoli Division",
        "officename": "Gholtir BO",
        "pincode": "246171",
        "officetype": "BO",
        "delivery": "Delivery",
        "district": "RUDRA PRAYAG",
        "statename": "UTTARAKHAND",
        "latitude": "30.297331",
        "longitude": "79.092042000000006"
    },
    {
        "circlename": "Uttarakhand Circle",
        "regionname": "DivReportingCircle",
        "divisionname": "Chamoli Division",
        "officename": "Maiki Marhi BO",
        "pincode": "246171",
        "officetype": "BO",
        "delivery": "Delivery",
        "district": "RUDRA PRAYAG",
        "statename": "UTTARAKHAND",
        "latitude": "30.2462950",
        "longitude": "78.9167090"
    },
    {
        "circlename": "Uttarakhand Circle",
        "regionname": "DivReportingCircle",
        "divisionname": "Chamoli Division",
        "officename": "Nawasu BO",
        "pincode": "246171",
        "officetype": "BO",
        "delivery": "Delivery",
        "district": "RUDRA PRAYAG",
        "statename": "UTTARAKHAND",
        "latitude": "30.2148210",
        "longitude": "78.9330670"
    },
    {
        "circlename": "Uttarakhand Circle",
        "regionname": "DivReportingCircle",
        "divisionname": "Chamoli Division",
        "officename": "Gairoli BO",
        "pincode": "246474",
        "officetype": "BO",
        "delivery": "Delivery",
        "district": "CHAMOLI",
        "statename": "UTTARAKHAND",
        "latitude": "30.2180660",
        "longitude": "79.2437050"
    },
    {
        "circlename": "Uttarakhand Circle",
        "regionname": "DivReportingCircle",
        "divisionname": "Chamoli Division",
        "officename": "Ratura BO",
        "pincode": "246472",
        "officetype": "BO",
        "delivery": "Delivery",
        "district": "CHAMOLI",
        "statename": "UTTARAKHAND",
        "latitude": "30.1971180",
        "longitude": "79.2775320"
    },
    {
        "circlename": "Uttarakhand Circle",
        "regionname": "DivReportingCircle",
        "divisionname": "Chamoli Division",
        "officename": "Sunaonbhenta BO",
        "pincode": "246482",
        "officetype": "BO",
        "delivery": "Delivery",
        "district": "CHAMOLI",
        "statename": "UTTARAKHAND",
        "latitude": "30.0306670",
        "longitude": "79.5382680"
    },
    {
        "circlename": "Uttarakhand Circle",
        "regionname": "DivReportingCircle",
        "divisionname": "Chamoli Division",
        "officename": "Gairbaram BO",
        "pincode": "246481",
        "officetype": "BO",
        "delivery": "Delivery",
        "district": "CHAMOLI",
        "statename": "UTTARAKHAND",
        "latitude": "30.0817220",
        "longitude": "79.5037250"
    },
    {
        "circlename": "Uttarakhand Circle",
        "regionname": "DivReportingCircle",
        "divisionname": "Chamoli Division",
        "officename": "Silori BO",
        "pincode": "246481",
        "officetype": "BO",
        "delivery": "Delivery",
        "district": "CHAMOLI",
        "statename": "UTTARAKHAND",
        "latitude": "30.1512130",
        "longitude": "79.3455000"
    },
    {
        "circlename": "Uttarakhand Circle",
        "regionname": "DivReportingCircle",
        "divisionname": "Chamoli Division",
        "officename": "Devidharmamani BO",
        "pincode": "246475",
        "officetype": "BO",
        "delivery": "Delivery",
        "district": "RUDRA PRAYAG",
        "statename": "UTTARAKHAND",
        "latitude": "30.3811720",
        "longitude": "78.8973520"
    },
    {
        "circlename": "Uttarakhand Circle",
        "regionname": "DivReportingCircle",
        "divisionname": "Chamoli Division",
        "officename": "Jakhal BO",
        "pincode": "246475",
        "officetype": "BO",
        "delivery": "Delivery",
        "district": "RUDRA PRAYAG",
        "statename": "UTTARAKHAND",
        "latitude": "30.3911720",
        "longitude": "78.8963820"
    },
    {
        "circlename": "Uttarakhand Circle",
        "regionname": "DivReportingCircle",
        "divisionname": "Chamoli Division",
        "officename": "Kanda BO",
        "pincode": "246475",
        "officetype": "BO",
        "delivery": "Delivery",
        "district": "RUDRA PRAYAG",
        "statename": "UTTARAKHAND",
        "latitude": "30.3443750",
        "longitude": "79.1012200"
    },
    {
        "circlename": "Uttarakhand Circle",
        "regionname": "DivReportingCircle",
        "divisionname": "Chamoli Division",
        "officename": "Queelakhal BO",
        "pincode": "246475",
        "officetype": "BO",
        "delivery": "Delivery",
        "district": "RUDRA PRAYAG",
        "statename": "UTTARAKHAND",
        "latitude": "30.4076300",
        "longitude": "78.9323600"
    },
    {
        "circlename": "Uttarakhand Circle",
        "regionname": "DivReportingCircle",
        "divisionname": "Dehradun Division",
        "officename": "Shigali BO",
        "pincode": "248003",
        "officetype": "BO",
        "delivery": "Delivery",
        "district": "DEHRADUN",
        "statename": "UTTARAKHAND",
        "latitude": "30.3750000",
        "longitude": "78.0600000"
    },
    {
        "circlename": "Uttarakhand Circle",
        "regionname": "DivReportingCircle",
        "divisionname": "Dehradun Division",
        "officename": "Khabau BO",
        "pincode": "248124",
        "officetype": "BO",
        "delivery": "Delivery",
        "district": "DEHRADUN",
        "statename": "UTTARAKHAND",
        "latitude": "30.6908000",
        "longitude": "77.9668000"
    },
    {
        "circlename": "Uttarakhand Circle",
        "regionname": "DivReportingCircle",
        "divisionname": "Dehradun Division",
        "officename": "Kharsi BO",
        "pincode": "248124",
        "officetype": "BO",
        "delivery": "Delivery",
        "district": "DEHRADUN",
        "statename": "UTTARAKHAND",
        "latitude": "30.7532000",
        "longitude": "77.9706000"
    },
    {
        "circlename": "Uttarakhand Circle",
        "regionname": "DivReportingCircle",
        "divisionname": "Dehradun Division",
        "officename": "Kota BO",
        "pincode": "248124",
        "officetype": "BO",
        "delivery": "Delivery",
        "district": "DEHRADUN",
        "statename": "UTTARAKHAND",
        "latitude": "30.7500000",
        "longitude": "77.9535000"
    },
    {
        "circlename": "Uttarakhand Circle",
        "regionname": "DivReportingCircle",
        "divisionname": "Dehradun Division",
        "officename": "Lakhamandal BO",
        "pincode": "248124",
        "officetype": "BO",
        "delivery": "Delivery",
        "district": "DEHRADUN",
        "statename": "UTTARAKHAND",
        "latitude": "30.7313000",
        "longitude": "78.0675000"
    },
    {
        "circlename": "Uttarakhand Circle",
        "regionname": "DivReportingCircle",
        "divisionname": "Dehradun Division",
        "officename": "Ghanta BO",
        "pincode": "248123",
        "officetype": "BO",
        "delivery": "Delivery",
        "district": "DEHRADUN",
        "statename": "UTTARAKHAND",
        "latitude": "30.3243300",
        "longitude": "78.0413000"
    },
    {
        "circlename": "Uttarakhand Circle",
        "regionname": "DivReportingCircle",
        "divisionname": "Dehradun Division",
        "officename": "Lorli BO",
        "pincode": "248123",
        "officetype": "BO",
        "delivery": "Delivery",
        "district": "DEHRADUN",
        "statename": "UTTARAKHAND",
        "latitude": "30.7016258",
        "longitude": "77.8695900"
    },
    {
        "circlename": "Uttarakhand Circle",
        "regionname": "DivReportingCircle",
        "divisionname": "Dehradun Division",
        "officename": "Marlau BO",
        "pincode": "248123",
        "officetype": "BO",
        "delivery": "Delivery",
        "district": "DEHRADUN",
        "statename": "UTTARAKHAND",
        "latitude": "30.7228000",
        "longitude": "77.8431200"
    },
    {
        "circlename": "Uttarakhand Circle",
        "regionname": "DivReportingCircle",
        "divisionname": "Dehradun Division",
        "officename": "Sujau BO",
        "pincode": "248123",
        "officetype": "BO",
        "delivery": "Delivery",
        "district": "DEHRADUN",
        "statename": "UTTARAKHAND",
        "latitude": "30.7016000",
        "longitude": "77.8695946"
    },
    {
        "circlename": "Uttarakhand Circle",
        "regionname": "DivReportingCircle",
        "divisionname": "Dehradun Division",
        "officename": "Ashok Ashram BO",
        "pincode": "248125",
        "officetype": "BO",
        "delivery": "Delivery",
        "district": "DEHRADUN",
        "statename": "UTTARAKHAND",
        "latitude": "30.4786110",
        "longitude": "77.8302000"
    },
    {
        "circlename": "Uttarakhand Circle",
        "regionname": "DivReportingCircle",
        "divisionname": "Dehradun Division",
        "officename": "Madrasu BO",
        "pincode": "248125",
        "officetype": "BO",
        "delivery": "Delivery",
        "district": "DEHRADUN",
        "statename": "UTTARAKHAND",
        "latitude": "30.4195980",
        "longitude": "77.7962400"
    },
    {
        "circlename": "Uttarakhand Circle",
        "regionname": "DivReportingCircle",
        "divisionname": "Dehradun Division",
        "officename": "Dharmawala BO",
        "pincode": "248142",
        "officetype": "BO",
        "delivery": "Delivery",
        "district": "DEHRADUN",
        "statename": "UTTARAKHAND",
        "latitude": "30.4350900",
        "longitude": "77.7401900"
    },
    {
        "circlename": "Uttarakhand Circle",
        "regionname": "DivReportingCircle",
        "divisionname": "Dehradun Division",
        "officename": "WhtII BO",
        "pincode": "248142",
        "officetype": "BO",
        "delivery": "Delivery",
        "district": "DEHRADUN",
        "statename": "UTTARAKHAND",
        "latitude": "30.4683060",
        "longitude": "77.7749940"
    },
    {
        "circlename": "Uttarakhand Circle",
        "regionname": "DivReportingCircle",
        "divisionname": "Dehradun Division",
        "officename": "Kyari BO",
        "pincode": "248158",
        "officetype": "BO",
        "delivery": "Delivery",
        "district": "DEHRADUN",
        "statename": "UTTARAKHAND",
        "latitude": "30.7016000",
        "longitude": "77.8695946"
    },
    {
        "circlename": "Uttarakhand Circle",
        "regionname": "DivReportingCircle",
        "divisionname": "Dehradun Division",
        "officename": "Laksyar BO",
        "pincode": "248158",
        "officetype": "BO",
        "delivery": "Delivery",
        "district": "DEHRADUN",
        "statename": "UTTARAKHAND",
        "latitude": "30.3164900",
        "longitude": "78.0320000"
    },
    {
        "circlename": "Uttarakhand Circle",
        "regionname": "DivReportingCircle",
        "divisionname": "Dehradun Division",
        "officename": "Yamunapul BO",
        "pincode": "248158",
        "officetype": "BO",
        "delivery": "Delivery",
        "district": "TEHRI GARHWAL",
        "statename": "UTTARAKHAND",
        "latitude": "30.516",
        "longitude": "77.8354"
    },
    {
        "circlename": "Uttarakhand Circle",
        "regionname": "DivReportingCircle",
        "divisionname": "Dehradun Division",
        "officename": "Dimau BO",
        "pincode": "248165",
        "officetype": "BO",
        "delivery": "Delivery",
        "district": "DEHRADUN",
        "statename": "UTTARAKHAND",
        "latitude": "30.6082000",
        "longitude": "77.7809000"
    },
    {
        "circlename": "Uttarakhand Circle",
        "regionname": "DivReportingCircle",
        "divisionname": "Dehradun Division",
        "officename": "Bidholi BO",
        "pincode": "248007",
        "officetype": "BO",
        "delivery": "Delivery",
        "district": "DEHRADUN",
        "statename": "UTTARAKHAND",
        "latitude": "30.3906550",
        "longitude": "77.9692680"
    },
    {
        "circlename": "Uttarakhand Circle",
        "regionname": "DivReportingCircle",
        "divisionname": "Dehradun Division",
        "officename": "Chandanwari BO",
        "pincode": "248007",
        "officetype": "BO",
        "delivery": "Delivery",
        "district": "DEHRADUN",
        "statename": "UTTARAKHAND",
        "latitude": "30.3541000",
        "longitude": "77.9460000"
    },
    {
        "circlename": "Uttarakhand Circle",
        "regionname": "DivReportingCircle",
        "divisionname": "Dehradun Division",
        "officename": "Barwa BO",
        "pincode": "248197",
        "officetype": "BO",
        "delivery": "Delivery",
        "district": "DEHRADUN",
        "statename": "UTTARAKHAND",
        "latitude": "30.3164900",
        "longitude": "78.0321918"
    },
    {
        "circlename": "Uttarakhand Circle",
        "regionname": "DivReportingCircle",
        "divisionname": "Dehradun Division",
        "officename": "Rampur BO",
        "pincode": "248197",
        "officetype": "BO",
        "delivery": "Delivery",
        "district": "DEHRADUN",
        "statename": "UTTARAKHAND",
        "latitude": "30.3680436",
        "longitude": "77.8338693"
    },
    {
        "circlename": "Uttarakhand Circle",
        "regionname": "DivReportingCircle",
        "divisionname": "Dehradun Division",
        "officename": "Haza BO",
        "pincode": "248196",
        "officetype": "BO",
        "delivery": "Delivery",
        "district": "DEHRADUN",
        "statename": "UTTARAKHAND",
        "latitude": "30.7016000",
        "longitude": "77.8695000"
    },
    {
        "circlename": "Uttarakhand Circle",
        "regionname": "DivReportingCircle",
        "divisionname": "Dehradun Division",
        "officename": "Kuwanoo BO",
        "pincode": "248196",
        "officetype": "BO",
        "delivery": "Delivery",
        "district": "DEHRADUN",
        "statename": "UTTARAKHAND",
        "latitude": "30.3160000",
        "longitude": "78.0320000"
    },
    {
        "circlename": "Uttarakhand Circle",
        "regionname": "DivReportingCircle",
        "divisionname": "Dehradun Division",
        "officename": "Naraya BO",
        "pincode": "248196",
        "officetype": "BO",
        "delivery": "Delivery",
        "district": "DEHRADUN",
        "statename": "UTTARAKHAND",
        "latitude": "30.7309000",
        "longitude": "78.0118800"
    },
    {
        "circlename": "Uttarakhand Circle",
        "regionname": "DivReportingCircle",
        "divisionname": "Dehradun Division",
        "officename": "Dangutha BO",
        "pincode": "248199",
        "officetype": "BO",
        "delivery": "Delivery",
        "district": "DEHRADUN",
        "statename": "UTTARAKHAND",
        "latitude": "30.4836500",
        "longitude": "77.9359100"
    },
    {
        "circlename": "Uttarakhand Circle",
        "regionname": "DivReportingCircle",
        "divisionname": "Dehradun Division",
        "officename": "Fanar BO",
        "pincode": "248199",
        "officetype": "BO",
        "delivery": "Delivery",
        "district": "DEHRADUN",
        "statename": "UTTARAKHAND",
        "latitude": "30.3164000",
        "longitude": "78.0321918"
    },
    {
        "circlename": "Uttarakhand Circle",
        "regionname": "DivReportingCircle",
        "divisionname": "Dehradun Division",
        "officename": "Mendrath BO",
        "pincode": "248199",
        "officetype": "BO",
        "delivery": "Delivery",
        "district": "DEHRADUN",
        "statename": "UTTARAKHAND",
        "latitude": "30.4836500",
        "longitude": "77.9359100"
    },
    {
        "circlename": "Uttarakhand Circle",
        "regionname": "DivReportingCircle",
        "divisionname": "Dehradun Division",
        "officename": "Dharkot BO",
        "pincode": "248143",
        "officetype": "BO",
        "delivery": "Delivery",
        "district": "DEHRADUN",
        "statename": "UTTARAKHAND",
        "latitude": "30.2390000",
        "longitude": "78.2094000"
    },
    {
        "circlename": "Uttarakhand Circle",
        "regionname": "DivReportingCircle",
        "divisionname": "Dehradun Division",
        "officename": "Thano BO",
        "pincode": "248143",
        "officetype": "BO",
        "delivery": "Delivery",
        "district": "DEHRADUN",
        "statename": "UTTARAKHAND",
        "latitude": "30.1981200",
        "longitude": "78.2215500"
    },
    {
        "circlename": "Uttarakhand Circle",
        "regionname": "DivReportingCircle",
        "divisionname": "Dehradun Division",
        "officename": "Mohbewala BO",
        "pincode": "248002",
        "officetype": "BO",
        "delivery": "Delivery",
        "district": "DEHRADUN",
        "statename": "UTTARAKHAND",
        "latitude": "30.4836500",
        "longitude": "77.9359100"
    },
    {
        "circlename": "Uttarakhand Circle",
        "regionname": "DivReportingCircle",
        "divisionname": "Dehradun Division",
        "officename": "Badonwala BO",
        "pincode": "248140",
        "officetype": "BO",
        "delivery": "Delivery",
        "district": "DEHRADUN",
        "statename": "UTTARAKHAND",
        "latitude": "30.2550000",
        "longitude": "78.1130000"
    },
    {
        "circlename": "Uttarakhand Circle",
        "regionname": "DivReportingCircle",
        "divisionname": "Dehradun Division",
        "officename": "Dodhli BO",
        "pincode": "248140",
        "officetype": "BO",
        "delivery": "Delivery",
        "district": "DEHRADUN",
        "statename": "UTTARAKHAND",
        "latitude": "30.3165000",
        "longitude": "78.0321800"
    },
    {
        "circlename": "Uttarakhand Circle",
        "regionname": "DivReportingCircle",
        "divisionname": "Dehradun Division",
        "officename": "Fatehpur Tanda BO",
        "pincode": "248140",
        "officetype": "BO",
        "delivery": "Delivery",
        "district": "DEHRADUN",
        "statename": "UTTARAKHAND",
        "latitude": "30.1734000",
        "longitude": "78.1251000"
    },
    {
        "circlename": "Uttarakhand Circle",
        "regionname": "DivReportingCircle",
        "divisionname": "Dehradun Division",
        "officename": "Nagal Bulandawala BO",
        "pincode": "248140",
        "officetype": "BO",
        "delivery": "Delivery",
        "district": "DEHRADUN",
        "statename": "UTTARAKHAND",
        "latitude": "30.1640000",
        "longitude": "78.1087000"
    },
    {
        "circlename": "Uttarakhand Circle",
        "regionname": "DivReportingCircle",
        "divisionname": "Dehradun Division",
        "officename": "Nagal Jwalapur BO",
        "pincode": "248140",
        "officetype": "BO",
        "delivery": "Delivery",
        "district": "DEHRADUN",
        "statename": "UTTARAKHAND",
        "latitude": "30.1640000",
        "longitude": "78.1087000"
    },
    {
        "circlename": "Uttarakhand Circle",
        "regionname": "DivReportingCircle",
        "divisionname": "Dehradun Division",
        "officename": "Dwara BO",
        "pincode": "248008",
        "officetype": "BO",
        "delivery": "Delivery",
        "district": "DEHRADUN",
        "statename": "UTTARAKHAND",
        "latitude": "30.3100000",
        "longitude": "78.1220000"
    },
    {
        "circlename": "Uttarakhand Circle",
        "regionname": "DivReportingCircle",
        "divisionname": "Dehradun Division",
        "officename": "Ranjhawala BO",
        "pincode": "248008",
        "officetype": "BO",
        "delivery": "Delivery",
        "district": "DEHRADUN",
        "statename": "UTTARAKHAND",
        "latitude": "30.2900000",
        "longitude": "78.0990000"
    },
    {
        "circlename": "Uttarakhand Circle",
        "regionname": "DivReportingCircle",
        "divisionname": "Dehradun Division",
        "officename": "Dev Sanskriti Vishwavidyalaya B.O",
        "pincode": "249205",
        "officetype": "BO",
        "delivery": "Delivery",
        "district": "DEHRADUN",
        "statename": "UTTARAKHAND",
        "latitude": "29.998000000000001",
        "longitude": "78.191999999999993"
    },
    {
        "circlename": "Uttarakhand Circle",
        "regionname": "DivReportingCircle",
        "divisionname": "Dehradun Division",
        "officename": "Nirmal Block BO",
        "pincode": "249202",
        "officetype": "BO",
        "delivery": "Non Delivery",
        "district": "DEHRADUN",
        "statename": "UTTARAKHAND",
        "latitude": "30.0600000",
        "longitude": "78.2700000"
    },
    {
        "circlename": "Uttarakhand Circle",
        "regionname": "DivReportingCircle",
        "divisionname": "Dehradun Division",
        "officename": "Paniyala BO",
        "pincode": "247667",
        "officetype": "BO",
        "delivery": "Delivery",
        "district": "HARIDWAR",
        "statename": "UTTARAKHAND",
        "latitude": "29.8500000",
        "longitude": "77.8400000"
    },
    {
        "circlename": "Uttarakhand Circle",
        "regionname": "DivReportingCircle",
        "divisionname": "Dehradun Division",
        "officename": "Saliyar BO",
        "pincode": "247667",
        "officetype": "BO",
        "delivery": "Delivery",
        "district": "HARIDWAR",
        "statename": "UTTARAKHAND",
        "latitude": "29.8500000",
        "longitude": "77.8800000"
    },
    {
        "circlename": "Uttarakhand Circle",
        "regionname": "DivReportingCircle",
        "divisionname": "Dehradun Division",
        "officename": "Bharapur Bhori BO",
        "pincode": "247667",
        "officetype": "BO",
        "delivery": "Delivery",
        "district": "HARIDWAR",
        "statename": "UTTARAKHAND",
        "latitude": "30.4900000",
        "longitude": "78.4700000"
    },
    {
        "circlename": "Uttarakhand Circle",
        "regionname": "DivReportingCircle",
        "divisionname": "Dehradun Division",
        "officename": "Sohelpur Sikroda BO",
        "pincode": "247667",
        "officetype": "BO",
        "delivery": "Delivery",
        "district": "HARIDWAR",
        "statename": "UTTARAKHAND",
        "latitude": "29.9600000",
        "longitude": "77.9200000"
    },
    {
        "circlename": "Uttarakhand Circle",
        "regionname": "DivReportingCircle",
        "divisionname": "Dehradun Division",
        "officename": "Aurangabad BO",
        "pincode": "249402",
        "officetype": "BO",
        "delivery": "Delivery",
        "district": "HARIDWAR",
        "statename": "UTTARAKHAND",
        "latitude": "29.9100000",
        "longitude": "78.0400000"
    },
    {
        "circlename": "Uttarakhand Circle",
        "regionname": "DivReportingCircle",
        "divisionname": "Dehradun Division",
        "officename": "Salempur Mehdood BO",
        "pincode": "249402",
        "officetype": "BO",
        "delivery": "Delivery",
        "district": "HARIDWAR",
        "statename": "UTTARAKHAND",
        "latitude": "29.9400000",
        "longitude": "78.0400000"
    },
    {
        "circlename": "Uttarakhand Circle",
        "regionname": "DivReportingCircle",
        "divisionname": "Dehradun Division",
        "officename": "Harchadpur Nizampur BO",
        "pincode": "247670",
        "officetype": "BO",
        "delivery": "Delivery",
        "district": "HARIDWAR",
        "statename": "UTTARAKHAND",
        "latitude": "29.7025000",
        "longitude": "77.8496000"
    },
    {
        "circlename": "Uttarakhand Circle",
        "regionname": "DivReportingCircle",
        "divisionname": "Dehradun Division",
        "officename": "Khera Jatt BO",
        "pincode": "247670",
        "officetype": "BO",
        "delivery": "Delivery",
        "district": "HARIDWAR",
        "statename": "UTTARAKHAND",
        "latitude": "29.7000000",
        "longitude": "77.8400000"
    },
    {
        "circlename": "Uttarakhand Circle",
        "regionname": "DivReportingCircle",
        "divisionname": "Dehradun Division",
        "officename": "Ambuwala BO",
        "pincode": "249404",
        "officetype": "BO",
        "delivery": "Delivery",
        "district": "HARIDWAR",
        "statename": "UTTARAKHAND",
        "latitude": "29.9200000",
        "longitude": "78.1230000"
    },
    {
        "circlename": "Uttarakhand Circle",
        "regionname": "DivReportingCircle",
        "divisionname": "Dehradun Division",
        "officename": "Manakpur Adampur BO",
        "pincode": "247668",
        "officetype": "BO",
        "delivery": "Delivery",
        "district": "HARIDWAR",
        "statename": "UTTARAKHAND",
        "latitude": "29.86",
        "longitude": "77.86"
    },
    {
        "circlename": "Uttarakhand Circle",
        "regionname": "DivReportingCircle",
        "divisionname": "Dehradun Division",
        "officename": "Majhaul BO",
        "pincode": "247665",
        "officetype": "BO",
        "delivery": "Delivery",
        "district": "HARIDWAR",
        "statename": "UTTARAKHAND",
        "latitude": "29.8542600",
        "longitude": "77.8879900"
    },
    {
        "circlename": "Uttarakhand Circle",
        "regionname": "DivReportingCircle",
        "divisionname": "Dehradun Division",
        "officename": "Sherpur Khelmau BO",
        "pincode": "247665",
        "officetype": "BO",
        "delivery": "Delivery",
        "district": "HARIDWAR",
        "statename": "UTTARAKHAND",
        "latitude": "29.7900000",
        "longitude": "77.7900000"
    },
    {
        "circlename": "Uttarakhand Circle",
        "regionname": "DivReportingCircle",
        "divisionname": "Dehradun Division",
        "officename": "Shyampur BO",
        "pincode": "249408",
        "officetype": "BO",
        "delivery": "Delivery",
        "district": "HARIDWAR",
        "statename": "UTTARAKHAND",
        "latitude": "29.8654000",
        "longitude": "78.1821000"
    },
    {
        "circlename": "Uttarakhand Circle",
        "regionname": "DivReportingCircle",
        "divisionname": "Dehradun Division",
        "officename": "Bijholi BO",
        "pincode": "247666",
        "officetype": "BO",
        "delivery": "Delivery",
        "district": "HARIDWAR",
        "statename": "UTTARAKHAND",
        "latitude": "29.7192000",
        "longitude": "77.3806000"
    },
    {
        "circlename": "Uttarakhand Circle",
        "regionname": "DivReportingCircle",
        "divisionname": "Dehradun Division",
        "officename": "Daulatpur BO",
        "pincode": "249405",
        "officetype": "BO",
        "delivery": "Delivery",
        "district": "HARIDWAR",
        "statename": "UTTARAKHAND",
        "latitude": "29.9340000",
        "longitude": "77.9810000"
    },
    {
        "circlename": "Uttarakhand Circle",
        "regionname": "DivReportingCircle",
        "divisionname": "Dehradun Division",
        "officename": "Brahmpur Khanpur BO",
        "pincode": "247671",
        "officetype": "BO",
        "delivery": "Delivery",
        "district": "HARIDWAR",
        "statename": "UTTARAKHAND",
        "latitude": "29.9457000",
        "longitude": "78.1642000"
    },
    {
        "circlename": "Uttarakhand Circle",
        "regionname": "DivReportingCircle",
        "divisionname": "Nainital Division",
        "officename": "Industrial Estate BO",
        "pincode": "263139",
        "officetype": "BO",
        "delivery": "Delivery",
        "district": "NAINITAL",
        "statename": "UTTARAKHAND",
        "latitude": "29.1379314",
        "longitude": "79.5185233"
    },
    {
        "circlename": "Uttarakhand Circle",
        "regionname": "DivReportingCircle",
        "divisionname": "Nainital Division",
        "officename": "Indranagar BO",
        "pincode": "263139",
        "officetype": "BO",
        "delivery": "Delivery",
        "district": "NAINITAL",
        "statename": "UTTARAKHAND",
        "latitude": "29.2022685",
        "longitude": "79.5308371"
    },
    {
        "circlename": "Uttarakhand Circle",
        "regionname": "DivReportingCircle",
        "divisionname": "Nainital Division",
        "officename": "Barhani BO",
        "pincode": "262401",
        "officetype": "BO",
        "delivery": "Delivery",
        "district": "UDAM SINGH NAGAR",
        "statename": "UTTARAKHAND",
        "latitude": "29.2086614",
        "longitude": "79.2155073"
    },
    {
        "circlename": "Uttarakhand Circle",
        "regionname": "DivReportingCircle",
        "divisionname": "Nainital Division",
        "officename": "Doraha BO",
        "pincode": "262401",
        "officetype": "BO",
        "delivery": "Delivery",
        "district": "UDAM SINGH NAGAR",
        "statename": "UTTARAKHAND",
        "latitude": "29.1556402",
        "longitude": "79.1471489"
    },
    {
        "circlename": "Uttarakhand Circle",
        "regionname": "DivReportingCircle",
        "divisionname": "Nainital Division",
        "officename": "Gular Bhoj Canal Coloney BO",
        "pincode": "262401",
        "officetype": "BO",
        "delivery": "Delivery",
        "district": "UDAM SINGH NAGAR",
        "statename": "UTTARAKHAND",
        "latitude": "29.1917854",
        "longitude": "79.3015478"
    },
    {
        "circlename": "Uttarakhand Circle",
        "regionname": "DivReportingCircle",
        "divisionname": "Nainital Division",
        "officename": "Jogipura BO",
        "pincode": "262401",
        "officetype": "BO",
        "delivery": "Delivery",
        "district": "UDAM SINGH NAGAR",
        "statename": "UTTARAKHAND",
        "latitude": "29.2286195",
        "longitude": "79.1082784"
    },
    {
        "circlename": "Uttarakhand Circle",
        "regionname": "DivReportingCircle",
        "divisionname": "Nainital Division",
        "officename": "Raipur BO",
        "pincode": "244712",
        "officetype": "BO",
        "delivery": "Non Delivery",
        "district": "UDAM SINGH NAGAR",
        "statename": "UTTARAKHAND",
        "latitude": "29.6600000",
        "longitude": "79.8200000"
    },
    {
        "circlename": "Uttarakhand Circle",
        "regionname": "DivReportingCircle",
        "divisionname": "Nainital Division",
        "officename": "Dhamola BO",
        "pincode": "263140",
        "officetype": "BO",
        "delivery": "Delivery",
        "district": "NAINITAL",
        "statename": "UTTARAKHAND",
        "latitude": "29.2856418",
        "longitude": "79.2830737"
    },
    {
        "circlename": "Uttarakhand Circle",
        "regionname": "DivReportingCircle",
        "divisionname": "Nainital Division",
        "officename": "Gabuwa BO",
        "pincode": "263140",
        "officetype": "BO",
        "delivery": "Delivery",
        "district": "NAINITAL",
        "statename": "UTTARAKHAND",
        "latitude": "29.3296011",
        "longitude": "79.1643342"
    },
    {
        "circlename": "Uttarakhand Circle",
        "regionname": "DivReportingCircle",
        "divisionname": "Nainital Division",
        "officename": "Dhanauri BO",
        "pincode": "244713",
        "officetype": "BO",
        "delivery": "Delivery",
        "district": "UDAM SINGH NAGAR",
        "statename": "UTTARAKHAND",
        "latitude": "29.2534049",
        "longitude": "78.9964024"
    },
    {
        "circlename": "Uttarakhand Circle",
        "regionname": "DivReportingCircle",
        "divisionname": "Nainital Division",
        "officename": "Karanpur BO",
        "pincode": "244713",
        "officetype": "BO",
        "delivery": "Delivery",
        "district": "UDAM SINGH NAGAR",
        "statename": "UTTARAKHAND",
        "latitude": "29.2728215",
        "longitude": "78.9316528"
    },
    {
        "circlename": "Uttarakhand Circle",
        "regionname": "DivReportingCircle",
        "divisionname": "Nainital Division",
        "officename": "Kunda BO",
        "pincode": "244713",
        "officetype": "BO",
        "delivery": "Delivery",
        "district": "UDAM SINGH NAGAR",
        "statename": "UTTARAKHAND",
        "latitude": "29.2369871",
        "longitude": "78.9146798"
    },
    {
        "circlename": "Uttarakhand Circle",
        "regionname": "DivReportingCircle",
        "divisionname": "Nainital Division",
        "officename": "Kundeshwari BO",
        "pincode": "244713",
        "officetype": "BO",
        "delivery": "Delivery",
        "district": "UDAM SINGH NAGAR",
        "statename": "UTTARAKHAND",
        "latitude": "29.2115083",
        "longitude": "78.9691685"
    },
    {
        "circlename": "Uttarakhand Circle",
        "regionname": "DivReportingCircle",
        "divisionname": "Nainital Division",
        "officename": "Shivrajpur BO",
        "pincode": "244713",
        "officetype": "BO",
        "delivery": "Delivery",
        "district": "UDAM SINGH NAGAR",
        "statename": "UTTARAKHAND",
        "latitude": "29.2606706",
        "longitude": "78.8892146"
    },
    {
        "circlename": "Uttarakhand Circle",
        "regionname": "DivReportingCircle",
        "divisionname": "Nainital Division",
        "officename": "Industrial Area Kashipur BO",
        "pincode": "244713",
        "officetype": "BO",
        "delivery": "Delivery",
        "district": "UDAM SINGH NAGAR",
        "statename": "UTTARAKHAND",
        "latitude": "29.6800000",
        "longitude": "79.3600000"
    },
    {
        "circlename": "Uttarakhand Circle",
        "regionname": "DivReportingCircle",
        "divisionname": "Nainital Division",
        "officename": "Ranibagh BO",
        "pincode": "263126",
        "officetype": "BO",
        "delivery": "Delivery",
        "district": "NAINITAL",
        "statename": "UTTARAKHAND",
        "latitude": "29.2861205",
        "longitude": "79.5469968"
    },
    {
        "circlename": "Uttarakhand Circle",
        "regionname": "DivReportingCircle",
        "divisionname": "Nainital Division",
        "officename": "Bhanga BO",
        "pincode": "263148",
        "officetype": "BO",
        "delivery": "Delivery",
        "district": "UDAM SINGH NAGAR",
        "statename": "UTTARAKHAND",
        "latitude": "28.8838450",
        "longitude": "79.5372400"
    },
    {
        "circlename": "Uttarakhand Circle",
        "regionname": "DivReportingCircle",
        "divisionname": "Nainital Division",
        "officename": "Bhuria Coloney BO",
        "pincode": "263148",
        "officetype": "BO",
        "delivery": "Delivery",
        "district": "UDAM SINGH NAGAR",
        "statename": "UTTARAKHAND",
        "latitude": "28.8341140",
        "longitude": "79.6426380"
    },
    {
        "circlename": "Uttarakhand Circle",
        "regionname": "DivReportingCircle",
        "divisionname": "Nainital Division",
        "officename": "Darau BO",
        "pincode": "263148",
        "officetype": "BO",
        "delivery": "Delivery",
        "district": "UDAM SINGH NAGAR",
        "statename": "UTTARAKHAND",
        "latitude": "28.8719740",
        "longitude": "79.4450770"
    },
    {
        "circlename": "Uttarakhand Circle",
        "regionname": "DivReportingCircle",
        "divisionname": "Nainital Division",
        "officename": "Deoria BO",
        "pincode": "263148",
        "officetype": "BO",
        "delivery": "Delivery",
        "district": "UDAM SINGH NAGAR",
        "statename": "UTTARAKHAND",
        "latitude": "28.9211210",
        "longitude": "79.4844540"
    },
    {
        "circlename": "Uttarakhand Circle",
        "regionname": "DivReportingCircle",
        "divisionname": "Nainital Division",
        "officename": "Gokul Nagar BO",
        "pincode": "263148",
        "officetype": "BO",
        "delivery": "Delivery",
        "district": "UDAM SINGH NAGAR",
        "statename": "UTTARAKHAND",
        "latitude": "28.9300000",
        "longitude": "79.4400000"
    },
    {
        "circlename": "Uttarakhand Circle",
        "regionname": "DivReportingCircle",
        "divisionname": "Nainital Division",
        "officename": "Pratappur BO",
        "pincode": "263148",
        "officetype": "BO",
        "delivery": "Delivery",
        "district": "UDAM SINGH NAGAR",
        "statename": "UTTARAKHAND",
        "latitude": "29.2569320",
        "longitude": "79.0164950"
    },
    {
        "circlename": "Uttarakhand Circle",
        "regionname": "DivReportingCircle",
        "divisionname": "Nainital Division",
        "officename": "Sahdaura BO",
        "pincode": "263148",
        "officetype": "BO",
        "delivery": "Delivery",
        "district": "UDAM SINGH NAGAR",
        "statename": "UTTARAKHAND",
        "latitude": "28.8887310",
        "longitude": "79.5856370"
    },
    {
        "circlename": "Uttarakhand Circle",
        "regionname": "DivReportingCircle",
        "divisionname": "Nainital Division",
        "officename": "Uttarsia BO",
        "pincode": "263148",
        "officetype": "BO",
        "delivery": "Delivery",
        "district": "UDAM SINGH NAGAR",
        "statename": "UTTARAKHAND",
        "latitude": "28.9100000",
        "longitude": "79.5100000"
    },
    {
        "circlename": "Uttarakhand Circle",
        "regionname": "DivReportingCircle",
        "divisionname": "Nainital Division",
        "officename": "Don BO",
        "pincode": "263159",
        "officetype": "BO",
        "delivery": "Delivery",
        "district": "NAINITAL",
        "statename": "UTTARAKHAND",
        "latitude": "29.3900000",
        "longitude": "79.3000000"
    },
    {
        "circlename": "Uttarakhand Circle",
        "regionname": "DivReportingCircle",
        "divisionname": "Nainital Division",
        "officename": "Bhairongkhal BO",
        "pincode": "244715",
        "officetype": "BO",
        "delivery": "Delivery",
        "district": "NAINITAL",
        "statename": "UTTARAKHAND",
        "latitude": "29.8412900",
        "longitude": "79.0296580"
    },
    {
        "circlename": "Uttarakhand Circle",
        "regionname": "DivReportingCircle",
        "divisionname": "Nainital Division",
        "officename": "Dhikala Nc ParkSeasonal BO",
        "pincode": "244715",
        "officetype": "BO",
        "delivery": "Delivery",
        "district": "NAINITAL",
        "statename": "UTTARAKHAND",
        "latitude": "29.584592000000001",
        "longitude": "78.862463000000005"
    },
    {
        "circlename": "Uttarakhand Circle",
        "regionname": "DivReportingCircle",
        "divisionname": "Nainital Division",
        "officename": "Danpur BO",
        "pincode": "263153",
        "officetype": "BO",
        "delivery": "Delivery",
        "district": "UDAM SINGH NAGAR",
        "statename": "UTTARAKHAND",
        "latitude": "28.9850050",
        "longitude": "79.3515480"
    },
    {
        "circlename": "Uttarakhand Circle",
        "regionname": "DivReportingCircle",
        "divisionname": "Nainital Division",
        "officename": "Ghusari BO",
        "pincode": "262405",
        "officetype": "BO",
        "delivery": "Delivery",
        "district": "UDAM SINGH NAGAR",
        "statename": "UTTARAKHAND",
        "latitude": "29.3700000",
        "longitude": "79.6300000"
    },
    {
        "circlename": "Uttarakhand Circle",
        "regionname": "DivReportingCircle",
        "divisionname": "Nainital Division",
        "officename": "Ghangreti BO",
        "pincode": "263134",
        "officetype": "BO",
        "delivery": "Delivery",
        "district": "NAINITAL",
        "statename": "UTTARAKHAND",
        "latitude": "29.5672370",
        "longitude": "79.3832750"
    },
    {
        "circlename": "Uttarakhand Circle",
        "regionname": "DivReportingCircle",
        "divisionname": "Nainital Division",
        "officename": "Sethi Belgaon BO",
        "pincode": "263134",
        "officetype": "BO",
        "delivery": "Delivery",
        "district": "NAINITAL",
        "statename": "UTTARAKHAND",
        "latitude": "29.6470000",
        "longitude": "79.8420000"
    },
    {
        "circlename": "Uttarakhand Circle",
        "regionname": "DivReportingCircle",
        "divisionname": "Nainital Division",
        "officename": "Churigarh BO",
        "pincode": "263136",
        "officetype": "BO",
        "delivery": "Delivery",
        "district": "NAINITAL",
        "statename": "UTTARAKHAND",
        "latitude": "29.3300000",
        "longitude": "79.6700000"
    },
    {
        "circlename": "Uttarakhand Circle",
        "regionname": "DivReportingCircle",
        "divisionname": "Nainital Division",
        "officename": "Gunialekh BO",
        "pincode": "263136",
        "officetype": "BO",
        "delivery": "Delivery",
        "district": "NAINITAL",
        "statename": "UTTARAKHAND",
        "latitude": "29.3500000",
        "longitude": "79.6500000"
    },
    {
        "circlename": "Uttarakhand Circle",
        "regionname": "DivReportingCircle",
        "divisionname": "Nainital Division",
        "officename": "Bhatalia BO",
        "pincode": "263137",
        "officetype": "BO",
        "delivery": "Delivery",
        "district": "NAINITAL",
        "statename": "UTTARAKHAND",
        "latitude": "29.4300000",
        "longitude": "79.6400000"
    },
    {
        "circlename": "Uttarakhand Circle",
        "regionname": "DivReportingCircle",
        "divisionname": "Nainital Division",
        "officename": "Dhanachuli BO",
        "pincode": "263132",
        "officetype": "BO",
        "delivery": "Delivery",
        "district": "NAINITAL",
        "statename": "UTTARAKHAND",
        "latitude": "29.3900000",
        "longitude": "79.6600000"
    },
    {
        "circlename": "Uttarakhand Circle",
        "regionname": "DivReportingCircle",
        "divisionname": "Nainital Division",
        "officename": "Nai BO",
        "pincode": "263132",
        "officetype": "BO",
        "delivery": "Delivery",
        "district": "NAINITAL",
        "statename": "UTTARAKHAND",
        "latitude": "29.3800000",
        "longitude": "79.7300000"
    },
    {
        "circlename": "Uttarakhand Circle",
        "regionname": "DivReportingCircle",
        "divisionname": "Nainital Division",
        "officename": "Nartola BO",
        "pincode": "263132",
        "officetype": "BO",
        "delivery": "Delivery",
        "district": "NAINITAL",
        "statename": "UTTARAKHAND",
        "latitude": "29.4000000",
        "longitude": "79.7600000"
    },
    {
        "circlename": "Uttarakhand Circle",
        "regionname": "DivReportingCircle",
        "divisionname": "Nainital Division",
        "officename": "Ratighat BO",
        "pincode": "263135",
        "officetype": "BO",
        "delivery": "Delivery",
        "district": "NAINITAL",
        "statename": "UTTARAKHAND",
        "latitude": "29.5900000",
        "longitude": "79.4900000"
    },
    {
        "circlename": "Uttarakhand Circle",
        "regionname": "DivReportingCircle",
        "divisionname": "Nainital Division",
        "officename": "Simrar BO",
        "pincode": "263135",
        "officetype": "BO",
        "delivery": "Delivery",
        "district": "NAINITAL",
        "statename": "UTTARAKHAND",
        "latitude": "29.5199860",
        "longitude": "79.5743915"
    },
    {
        "circlename": "Uttarakhand Circle",
        "regionname": "DivReportingCircle",
        "divisionname": "Nainital Division",
        "officename": "Suyal Bari BO",
        "pincode": "263135",
        "officetype": "BO",
        "delivery": "Delivery",
        "district": "NAINITAL",
        "statename": "UTTARAKHAND",
        "latitude": "29.5383640",
        "longitude": "79.5552512"
    },
    {
        "circlename": "Uttarakhand Circle",
        "regionname": "DivReportingCircle",
        "divisionname": "Nainital Division",
        "officename": "Bhura Kishani BO",
        "pincode": "262308",
        "officetype": "BO",
        "delivery": "Delivery",
        "district": "UDAM SINGH NAGAR",
        "statename": "UTTARAKHAND",
        "latitude": "28.9848552",
        "longitude": "79.9388571"
    },
    {
        "circlename": "Uttarakhand Circle",
        "regionname": "DivReportingCircle",
        "divisionname": "Nainital Division",
        "officename": "Bigra Bagh BO",
        "pincode": "262308",
        "officetype": "BO",
        "delivery": "Delivery",
        "district": "UDAM SINGH NAGAR",
        "statename": "UTTARAKHAND",
        "latitude": "28.9700000",
        "longitude": "79.9400000"
    },
    {
        "circlename": "Uttarakhand Circle",
        "regionname": "DivReportingCircle",
        "divisionname": "Nainital Division",
        "officename": "Khali Mahuwat BO",
        "pincode": "262308",
        "officetype": "BO",
        "delivery": "Delivery",
        "district": "UDAM SINGH NAGAR",
        "statename": "UTTARAKHAND",
        "latitude": "28.9051273",
        "longitude": "80.0283415"
    },
    {
        "circlename": "Uttarakhand Circle",
        "regionname": "DivReportingCircle",
        "divisionname": "Nainital Division",
        "officename": "Lohia Head BO",
        "pincode": "262308",
        "officetype": "BO",
        "delivery": "Delivery",
        "district": "UDAM SINGH NAGAR",
        "statename": "UTTARAKHAND",
        "latitude": "28.9235453",
        "longitude": "80.0241489"
    },
    {
        "circlename": "Uttarakhand Circle",
        "regionname": "DivReportingCircle",
        "divisionname": "Nainital Division",
        "officename": "Nayeli BO",
        "pincode": "263138",
        "officetype": "BO",
        "delivery": "Delivery",
        "district": "NAINITAL",
        "statename": "UTTARAKHAND",
        "latitude": "29.5093895",
        "longitude": "79.6768724"
    },
    {
        "circlename": "Uttarakhand Circle",
        "regionname": "DivReportingCircle",
        "divisionname": "Nainital Division",
        "officename": "Hartola BO",
        "pincode": "263158",
        "officetype": "BO",
        "delivery": "Delivery",
        "district": "NAINITAL",
        "statename": "UTTARAKHAND",
        "latitude": "29.4771862",
        "longitude": "79.5589391"
    },
    {
        "circlename": "Uttarakhand Circle",
        "regionname": "DivReportingCircle",
        "divisionname": "Nainital Division",
        "officename": "Badon BO",
        "pincode": "263157",
        "officetype": "BO",
        "delivery": "Delivery",
        "district": "NAINITAL",
        "statename": "UTTARAKHAND",
        "latitude": "28.0311101",
        "longitude": "79.1271229"
    },
    {
        "circlename": "Uttarakhand Circle",
        "regionname": "DivReportingCircle",
        "divisionname": "Nainital Division",
        "officename": "Dalkania BO",
        "pincode": "263157",
        "officetype": "BO",
        "delivery": "Delivery",
        "district": "NAINITAL",
        "statename": "UTTARAKHAND",
        "latitude": "29.2467790",
        "longitude": "79.8321660"
    },
    {
        "circlename": "Uttarakhand Circle",
        "regionname": "DivReportingCircle",
        "divisionname": "Pauri Division",
        "officename": "Balasaur BO",
        "pincode": "246149",
        "officetype": "BO",
        "delivery": "Delivery",
        "district": "PAURI GARHWAL",
        "statename": "UTTARAKHAND",
        "latitude": "29.7524010",
        "longitude": "78.5269030"
    },
    {
        "circlename": "Uttarakhand Circle",
        "regionname": "DivReportingCircle",
        "divisionname": "Pauri Division",
        "officename": "Chamkotkhal BO",
        "pincode": "246121",
        "officetype": "BO",
        "delivery": "Delivery",
        "district": "PAURI GARHWAL",
        "statename": "UTTARAKHAND",
        "latitude": "29.8925040",
        "longitude": "78.6700870"
    },
    {
        "circlename": "Uttarakhand Circle",
        "regionname": "DivReportingCircle",
        "divisionname": "Pauri Division",
        "officename": "Heerakhal BO",
        "pincode": "246121",
        "officetype": "BO",
        "delivery": "Delivery",
        "district": "PAURI GARHWAL",
        "statename": "UTTARAKHAND",
        "latitude": "29.8925040",
        "longitude": "78.6700870"
    },
    {
        "circlename": "Uttarakhand Circle",
        "regionname": "DivReportingCircle",
        "divisionname": "Pauri Division",
        "officename": "Yamkeshwar BO",
        "pincode": "246121",
        "officetype": "BO",
        "delivery": "Delivery",
        "district": "PAURI GARHWAL",
        "statename": "UTTARAKHAND",
        "latitude": "29.8925040",
        "longitude": "78.6700870"
    },
    {
        "circlename": "Uttarakhand Circle",
        "regionname": "DivReportingCircle",
        "divisionname": "Pauri Division",
        "officename": "Balli BO",
        "pincode": "246127",
        "officetype": "BO",
        "delivery": "Delivery",
        "district": "PAURI GARHWAL",
        "statename": "UTTARAKHAND",
        "latitude": "29.8069550",
        "longitude": "78.6093720"
    },
    {
        "circlename": "Uttarakhand Circle",
        "regionname": "DivReportingCircle",
        "divisionname": "Pauri Division",
        "officename": "Syalinga BO",
        "pincode": "246127",
        "officetype": "BO",
        "delivery": "Delivery",
        "district": "PAURI GARHWAL",
        "statename": "UTTARAKHAND",
        "latitude": "29.8069550",
        "longitude": "78.6093720"
    },