[
    {
        "circlename": "West Bengal Circle",
        "regionname": "Kolkata Region",
        "divisionname": "Baruipur Division",
        "officename": "Amgachia BO",
        "pincode": "700104",
        "officetype": "BO",
        "delivery": "Delivery",
        "district": "24 PARAGANAS SOUTH",
        "statename": "WEST BENGAL",
        "latitude": "22.4340960",
        "longitude": "88.3014110"
    },
    {
        "circlename": "West Bengal Circle",
        "regionname": "Kolkata Region",
        "divisionname": "Baruipur Division",
        "officename": "Pailanhat BO",
        "pincode": "700104",
        "officetype": "BO",
        "delivery": "Delivery",
        "district": "24 PARAGANAS SOUTH",
        "statename": "WEST BENGAL",
        "latitude": "22.4357360",
        "longitude": "88.2917230"
    },
    {
        "circlename": "West Bengal Circle",
        "regionname": "Kolkata Region",
        "divisionname": "Baruipur Division",
        "officename": "Ramchandrapur Chak Thakurani BO",
        "pincode": "700104",
        "officetype": "BO",
        "delivery": "Delivery",
        "district": "24 PARAGANAS SOUTH",
        "statename": "WEST BENGAL",
        "latitude": "22.4775620",
        "longitude": "88.3140600"
    },
    {
        "circlename": "West Bengal Circle",
        "regionname": "Kolkata Region",
        "divisionname": "Barasat Division",
        "officename": "Sabdalpur BO",
        "pincode": "743222",
        "officetype": "BO",
        "delivery": "Delivery",
        "district": "24 PARAGANAS NORTH",
        "statename": "WEST BENGAL",
        "latitude": "22.8430584",
        "longitude": "88.5692453"
    },
    {
        "circlename": "West Bengal Circle",
        "regionname": "Kolkata Region",
        "divisionname": "Barasat Division",
        "officename": "Kirtipur BO",
        "pincode": "700128",
        "officetype": "BO",
        "delivery": "Delivery",
        "district": "24 PARAGANAS NORTH",
        "statename": "WEST BENGAL",
        "latitude": "22.6645605",
        "longitude": "88.5373424"
    },
    {
        "circlename": "West Bengal Circle",
        "regionname": "Kolkata Region",
        "divisionname": "Barasat Division",
        "officename": "Hatkurulia BO",
        "pincode": "743232",
        "officetype": "BO",
        "delivery": "Delivery",
        "district": "24 PARAGANAS NORTH",
        "statename": "WEST BENGAL",
        "latitude": "23.1792814",
        "longitude": "88.9342030"
    },
    {
        "circlename": "West Bengal Circle",
        "regionname": "Kolkata Region",
        "divisionname": "Barasat Division",
        "officename": "Angrail BO",
        "pincode": "743235",
        "officetype": "BO",
        "delivery": "Delivery",
        "district": "24 PARAGANAS NORTH",
        "statename": "WEST BENGAL",
        "latitude": "22.9999760",
        "longitude": "88.8431038"
    },
    {
        "circlename": "West Bengal Circle",
        "regionname": "Kolkata Region",
        "divisionname": "Barasat Division",
        "officename": "Balisa Chowmatha BO",
        "pincode": "743702",
        "officetype": "BO",
        "delivery": "Delivery",
        "district": "24 PARAGANAS NORTH",
        "statename": "WEST BENGAL",
        "latitude": "22.4657208",
        "longitude": "88.6144936"
    },
    {
        "circlename": "West Bengal Circle",
        "regionname": "Kolkata Region",
        "divisionname": "Barasat Division",
        "officename": "Dharampukuria BO",
        "pincode": "743235",
        "officetype": "BO",
        "delivery": "Delivery",
        "district": "24 PARAGANAS NORTH",
        "statename": "WEST BENGAL",
        "latitude": "23.0820090",
        "longitude": "88.8209683"
    },
    {
        "circlename": "West Bengal Circle",
        "regionname": "Kolkata Region",
        "divisionname": "Barasat Division",
        "officename": "Nakpul BO",
        "pincode": "743235",
        "officetype": "BO",
        "delivery": "Delivery",
        "district": "24 PARAGANAS NORTH",
        "statename": "WEST BENGAL",
        "latitude": "23.1187149",
        "longitude": "88.7952375"
    },
    {
        "circlename": "West Bengal Circle",
        "regionname": "Kolkata Region",
        "divisionname": "Barasat Division",
        "officename": "Panchita BO",
        "pincode": "743235",
        "officetype": "BO",
        "delivery": "Delivery",
        "district": "24 PARAGANAS NORTH",
        "statename": "WEST BENGAL",
        "latitude": "23.1070394",
        "longitude": "88.8238996"
    },
    {
        "circlename": "West Bengal Circle",
        "regionname": "Kolkata Region",
        "divisionname": "Barasat Division",
        "officename": "Paschim Malikberia BO",
        "pincode": "743702",
        "officetype": "BO",
        "delivery": "Delivery",
        "district": "24 PARAGANAS NORTH",
        "statename": "WEST BENGAL",
        "latitude": "22.4608824",
        "longitude": "88.6138499"
    },
    {
        "circlename": "West Bengal Circle",
        "regionname": "Kolkata Region",
        "divisionname": "Barasat Division",
        "officename": "Puratan Bongaon BO",
        "pincode": "743235",
        "officetype": "BO",
        "delivery": "Delivery",
        "district": "24 PARAGANAS NORTH",
        "statename": "WEST BENGAL",
        "latitude": "23.0175147",
        "longitude": "88.8497752"
    },
    {
        "circlename": "West Bengal Circle",
        "regionname": "Kolkata Region",
        "divisionname": "Barasat Division",
        "officename": "Jesur Jeoldanga BO",
        "pincode": "743233",
        "officetype": "BO",
        "delivery": "Delivery",
        "district": "24 PARAGANAS NORTH",
        "statename": "WEST BENGAL",
        "latitude": "22.8131537",
        "longitude": "88.6558270"
    },
    {
        "circlename": "West Bengal Circle",
        "regionname": "Kolkata Region",
        "divisionname": "Barasat Division",
        "officename": "Laxmipul BO",
        "pincode": "743234",
        "officetype": "BO",
        "delivery": "Delivery",
        "district": "24 PARAGANAS NORTH",
        "statename": "WEST BENGAL",
        "latitude": "22.7909399",
        "longitude": "88.5878062"
    },
    {
        "circlename": "West Bengal Circle",
        "regionname": "Kolkata Region",
        "divisionname": "Barasat Division",
        "officename": "Dhakuria kalibari BO",
        "pincode": "743245",
        "officetype": "BO",
        "delivery": "Delivery",
        "district": "24 PARAGANAS NORTH",
        "statename": "WEST BENGAL",
        "latitude": "22.9578203",
        "longitude": "88.7828993"
    },
    {
        "circlename": "West Bengal Circle",
        "regionname": "Kolkata Region",
        "divisionname": "Barasat Division",
        "officename": "Digha BO",
        "pincode": "743245",
        "officetype": "BO",
        "delivery": "Delivery",
        "district": "24 PARAGANAS NORTH",
        "statename": "WEST BENGAL",
        "latitude": "22.9460129",
        "longitude": "88.7950767"
    },
    {
        "circlename": "West Bengal Circle",
        "regionname": "Kolkata Region",
        "divisionname": "Barasat Division",
        "officename": "Duma BO",
        "pincode": "743245",
        "officetype": "BO",
        "delivery": "Delivery",
        "district": "24 PARAGANAS NORTH",
        "statename": "WEST BENGAL",
        "latitude": "22.9760103",
        "longitude": "88.8238996"
    },
    {
        "circlename": "West Bengal Circle",
        "regionname": "Kolkata Region",
        "divisionname": "Barasat Division",
        "officename": "Barghoria BO",
        "pincode": "743247",
        "officetype": "BO",
        "delivery": "Delivery",
        "district": "24 PARAGANAS NORTH",
        "statename": "WEST BENGAL",
        "latitude": "22.8219551",
        "longitude": "88.8309431"
    },
    {
        "circlename": "West Bengal Circle",
        "regionname": "Kolkata Region",
        "divisionname": "Barasat Division",
        "officename": "Charghat BO",
        "pincode": "743247",
        "officetype": "BO",
        "delivery": "Delivery",
        "district": "24 PARAGANAS NORTH",
        "statename": "WEST BENGAL",
        "latitude": "22.8525512",
        "longitude": "88.8068513"
    },
    {
        "circlename": "West Bengal Circle",
        "regionname": "Kolkata Region",
        "divisionname": "Barasat Division",
        "officename": "Ramchandrapur Khaspur BO",
        "pincode": "743247",
        "officetype": "BO",
        "delivery": "Delivery",
        "district": "24 PARAGANAS NORTH",
        "statename": "WEST BENGAL",
        "latitude": "22.7892030",
        "longitude": "88.8345909"
    },
    {
        "circlename": "West Bengal Circle",
        "regionname": "Kolkata Region",
        "divisionname": "Barasat Division",
        "officename": "Chakla BO",
        "pincode": "743424",
        "officetype": "BO",
        "delivery": "Delivery",
        "district": "24 PARAGANAS NORTH",
        "statename": "WEST BENGAL",
        "latitude": "22.7565647",
        "longitude": "88.6912000"
    },
    {
        "circlename": "West Bengal Circle",
        "regionname": "Kolkata Region",
        "divisionname": "Barasat Division",
        "officename": "Kachua BO",
        "pincode": "743424",
        "officetype": "BO",
        "delivery": "Delivery",
        "district": "24 PARAGANAS NORTH",
        "statename": "WEST BENGAL",
        "latitude": "22.6802815",
        "longitude": "88.7253856"
    },
    {
        "circlename": "West Bengal Circle",
        "regionname": "Kolkata Region",
        "divisionname": "Barasat Division",
        "officename": "Bhasila BO",
        "pincode": "743423",
        "officetype": "BO",
        "delivery": "Delivery",
        "district": "24 PARAGANAS NORTH",
        "statename": "WEST BENGAL",
        "latitude": "22.6710458",
        "longitude": "88.6430811"
    },
    {
        "circlename": "West Bengal Circle",
        "regionname": "Kolkata Region",
        "divisionname": "Barasat Division",
        "officename": "Natagram BO",
        "pincode": "743249",
        "officetype": "BO",
        "delivery": "Delivery",
        "district": "24 PARAGANAS NORTH",
        "statename": "WEST BENGAL",
        "latitude": "22.8807440",
        "longitude": "88.6859574"
    },
    {
        "circlename": "West Bengal Circle",
        "regionname": "Kolkata Region",
        "divisionname": "Barasat Division",
        "officename": "Amdobe BO",
        "pincode": "743251",
        "officetype": "BO",
        "delivery": "Delivery",
        "district": "24 PARAGANAS NORTH",
        "statename": "WEST BENGAL",
        "latitude": "23.1517333",
        "longitude": "88.8911834"
    },
    {
        "circlename": "West Bengal Circle",
        "regionname": "Kolkata Region",
        "divisionname": "Barasat Division",
        "officename": "Asharu BO",
        "pincode": "743251",
        "officetype": "BO",
        "delivery": "Delivery",
        "district": "24 PARAGANAS NORTH",
        "statename": "WEST BENGAL",
        "latitude": "23.1699216",
        "longitude": "88.8446401"
    },
    {
        "circlename": "West Bengal Circle",
        "regionname": "Kolkata Region",
        "divisionname": "Barasat Division",
        "officename": "Baliadanga BO",
        "pincode": "743251",
        "officetype": "BO",
        "delivery": "Delivery",
        "district": "24 PARAGANAS NORTH",
        "statename": "WEST BENGAL",
        "latitude": "23.1799265",
        "longitude": "88.8154949"
    },
    {
        "circlename": "West Bengal Circle",
        "regionname": "Kolkata Region",
        "divisionname": "Barasat Division",
        "officename": "Jagadishpur BO",
        "pincode": "743251",
        "officetype": "BO",
        "delivery": "Delivery",
        "district": "24 PARAGANAS NORTH",
        "statename": "WEST BENGAL",
        "latitude": "23.1685220",
        "longitude": "88.8850822"
    },
    {
        "circlename": "West Bengal Circle",
        "regionname": "Kolkata Region",
        "divisionname": "Barasat Division",
        "officename": "Tangra Colony BO",
        "pincode": "743251",
        "officetype": "BO",
        "delivery": "Delivery",
        "district": "24 PARAGANAS NORTH",
        "statename": "WEST BENGAL",
        "latitude": "23.1248963",
        "longitude": "88.8478951"
    },
    {
        "circlename": "West Bengal Circle",
        "regionname": "Kolkata Region",
        "divisionname": "Barasat Division",
        "officename": "Satberia BO",
        "pincode": "743262",
        "officetype": "BO",
        "delivery": "Delivery",
        "district": "24 PARAGANAS NORTH",
        "statename": "WEST BENGAL",
        "latitude": "23.0473647",
        "longitude": "88.7920618"
    },
    {
        "circlename": "West Bengal Circle",
        "regionname": "Kolkata Region",
        "divisionname": "Barasat Division",
        "officename": "Akaipur BO",
        "pincode": "743710",
        "officetype": "BO",
        "delivery": "Delivery",
        "district": "24 PARAGANAS NORTH",
        "statename": "WEST BENGAL",
        "latitude": "23.0947137",
        "longitude": "88.7202644"
    },
    {
        "circlename": "West Bengal Circle",
        "regionname": "Kolkata Region",
        "divisionname": "Barasat Division",
        "officename": "Panchberia BO",
        "pincode": "743710",
        "officetype": "BO",
        "delivery": "Delivery",
        "district": "24 PARAGANAS NORTH",
        "statename": "WEST BENGAL",
        "latitude": "23.1468534",
        "longitude": "88.7111663"
    },
    {
        "circlename": "West Bengal Circle",
        "regionname": "Kolkata Region",
        "divisionname": "Barasat Division",
        "officename": "Habra Srinagar BO",
        "pincode": "743263",
        "officetype": "BO",
        "delivery": "Delivery",
        "district": "24 PARAGANAS NORTH",
        "statename": "WEST BENGAL",
        "latitude": "22.8387174",
        "longitude": "88.6597331"
    },
    {
        "circlename": "West Bengal Circle",
        "regionname": "Kolkata Region",
        "divisionname": "Barasat Division",
        "officename": "Salua Govt Colony BO",
        "pincode": "743263",
        "officetype": "BO",
        "delivery": "Delivery",
        "district": "24 PARAGANAS NORTH",
        "statename": "WEST BENGAL",
        "latitude": "22.2695028",
        "longitude": "87.2866995"
    },
    {
        "circlename": "West Bengal Circle",
        "regionname": "Kolkata Region",
        "divisionname": "Barasat Division",
        "officename": "Kumarkhola BO",
        "pincode": "743270",
        "officetype": "BO",
        "delivery": "Delivery",
        "district": "24 PARAGANAS NORTH",
        "statename": "WEST BENGAL",
        "latitude": "23.1817893",
        "longitude": "88.8344407"
    },
    {
        "circlename": "West Bengal Circle",
        "regionname": "Kolkata Region",
        "divisionname": "Barasat Division",
        "officename": "Kankpul BO",
        "pincode": "743272",
        "officetype": "BO",
        "delivery": "Delivery",
        "district": "24 PARAGANAS NORTH",
        "statename": "WEST BENGAL",
        "latitude": "22.8494193",
        "longitude": "88.6258399"
    },
    {
        "circlename": "West Bengal Circle",
        "regionname": "Kolkata Region",
        "divisionname": "Barasat Division",
        "officename": "Media BO",
        "pincode": "743273",
        "officetype": "BO",
        "delivery": "Delivery",
        "district": "24 PARAGANAS NORTH",
        "statename": "WEST BENGAL",
        "latitude": "22.8776183",
        "longitude": "88.7723422"
    },
    {
        "circlename": "West Bengal Circle",
        "regionname": "Kolkata Region",
        "divisionname": "Barasat Division",
        "officename": "Saguna BO",
        "pincode": "743273",
        "officetype": "BO",
        "delivery": "Delivery",
        "district": "24 PARAGANAS NORTH",
        "statename": "WEST BENGAL",
        "latitude": "22.8914144",
        "longitude": "88.8634986"
    },
    {
        "circlename": "West Bengal Circle",
        "regionname": "Kolkata Region",
        "divisionname": "Barasat Division",
        "officename": "Sutia Barasat BO",
        "pincode": "743273",
        "officetype": "BO",
        "delivery": "Delivery",
        "district": "24 PARAGANAS NORTH",
        "statename": "WEST BENGAL",
        "latitude": "22.9115517",
        "longitude": "88.8247844"
    },
    {
        "circlename": "West Bengal Circle",
        "regionname": "South Bengal Region",
        "divisionname": "Hooghly South Division",
        "officename": "Ramnagar BO",
        "pincode": "712410",
        "officetype": "BO",
        "delivery": "Delivery",
        "district": "HOOGHLY",
        "statename": "WEST BENGAL",
        "latitude": "22.9222370",
        "longitude": "88.3081370"
    },
    {
        "circlename": "West Bengal Circle",
        "regionname": "Kolkata Region",
        "divisionname": "Barasat Division",
        "officename": "Parpatna BO",
        "pincode": "743438",
        "officetype": "BO",
        "delivery": "Delivery",
        "district": "24 PARAGANAS NORTH",
        "statename": "WEST BENGAL",
        "latitude": "22.7889043",
        "longitude": "88.7071538"
    },
    {
        "circlename": "West Bengal Circle",
        "regionname": "Kolkata Region",
        "divisionname": "Barasat Division",
        "officename": "Ghoshpur BO",
        "pincode": "743289",
        "officetype": "BO",
        "delivery": "Delivery",
        "district": "24 PARAGANAS NORTH",
        "statename": "WEST BENGAL",
        "latitude": "22.8579022",
        "longitude": "88.7626271"
    },
    {
        "circlename": "West Bengal Circle",
        "regionname": "Kolkata Region",
        "divisionname": "Barasat Division",
        "officename": "Uludanga BO",
        "pincode": "743289",
        "officetype": "BO",
        "delivery": "Delivery",
        "district": "24 PARAGANAS NORTH",
        "statename": "WEST BENGAL",
        "latitude": "22.8572342",
        "longitude": "88.7365294"
    },
    {
        "circlename": "West Bengal Circle",
        "regionname": "Kolkata Region",
        "divisionname": "Barasat Division",
        "officename": "Bhandarkhola BO",
        "pincode": "743701",
        "officetype": "BO",
        "delivery": "Delivery",
        "district": "24 PARAGANAS NORTH",
        "statename": "WEST BENGAL",
        "latitude": "23.4438450",
        "longitude": "88.5202700"
    },
    {
        "circlename": "West Bengal Circle",
        "regionname": "Kolkata Region",
        "divisionname": "Barasat Division",
        "officename": "Noapara Madhavpur BO",
        "pincode": "700125",
        "officetype": "BO",
        "delivery": "Delivery",
        "district": "24 PARAGANAS NORTH",
        "statename": "WEST BENGAL",
        "latitude": "22.7775488",
        "longitude": "88.4721765"
    },
    {
        "circlename": "West Bengal Circle",
        "regionname": "Kolkata Region",
        "divisionname": "Barasat Division",
        "officename": "Narayanpur BO",
        "pincode": "700136",
        "officetype": "BO",
        "delivery": "Delivery",
        "district": "24 PARAGANAS NORTH",
        "statename": "WEST BENGAL",
        "latitude": "22.6457469",
        "longitude": "88.4586739"
    },
    {
        "circlename": "West Bengal Circle",
        "regionname": "Kolkata Region",
        "divisionname": "Barasat Division",
        "officename": "Kadampukur BO",
        "pincode": "700135",
        "officetype": "BO",
        "delivery": "Delivery",
        "district": "24 PARAGANAS NORTH",
        "statename": "WEST BENGAL",
        "latitude": "22.5933465",
        "longitude": "88.4803479"
    },
    {
        "circlename": "West Bengal Circle",
        "regionname": "Kolkata Region",
        "divisionname": "Barasat Division",
        "officename": "Machibhanga BO",
        "pincode": "700135",
        "officetype": "BO",
        "delivery": "Delivery",
        "district": "24 PARAGANAS SOUTH",
        "statename": "WEST BENGAL",
        "latitude": "22.6061441",
        "longitude": "88.5770650"
    },
    {
        "circlename": "West Bengal Circle",
        "regionname": "Kolkata Region",
        "divisionname": "Barasat Division",
        "officename": "Matiagachha BO",
        "pincode": "700135",
        "officetype": "BO",
        "delivery": "Delivery",
        "district": "24 PARAGANAS NORTH",
        "statename": "WEST BENGAL",
        "latitude": "22.6338452",
        "longitude": "88.5105955"
    },
    {
        "circlename": "West Bengal Circle",
        "regionname": "Kolkata Region",
        "divisionname": "Barasat Division",
        "officename": "Rajarhat Bishnupur BO",
        "pincode": "700135",
        "officetype": "BO",
        "delivery": "Delivery",
        "district": "24 PARAGANAS NORTH",
        "statename": "WEST BENGAL",
        "latitude": "22.6138393",
        "longitude": "88.4931085"
    },
    {
        "circlename": "West Bengal Circle",
        "regionname": "Kolkata Region",
        "divisionname": "Barasat Division",
        "officename": "Sonepur BO",
        "pincode": "700135",
        "officetype": "BO",
        "delivery": "Delivery",
        "district": "24 PARAGANAS SOUTH",
        "statename": "WEST BENGAL",
        "latitude": "22.5445534",
        "longitude": "88.5965580"
    },
    {
        "circlename": "West Bengal Circle",
        "regionname": "Kolkata Region",
        "divisionname": "Barasat Division",
        "officename": "Srikrishnapur BO",
        "pincode": "743711",
        "officetype": "BO",
        "delivery": "Delivery",
        "district": "24 PARAGANAS NORTH",
        "statename": "WEST BENGAL",
        "latitude": "22.9084477",
        "longitude": "88.5734421"
    },
    {
        "circlename": "West Bengal Circle",
        "regionname": "Kolkata Region",
        "divisionname": "Barasat Division",
        "officename": "Bena BO",
        "pincode": "743401",
        "officetype": "BO",
        "delivery": "Delivery",
        "district": "24 PARAGANAS NORTH",
        "statename": "WEST BENGAL",
        "latitude": "22.8089660",
        "longitude": "88.7902709"
    },
    {
        "circlename": "West Bengal Circle",
        "regionname": "Kolkata Region",
        "divisionname": "Barasat Division",
        "officename": "Nayabastia BO",
        "pincode": "743401",
        "officetype": "BO",
        "delivery": "Delivery",
        "district": "24 PARAGANAS NORTH",
        "statename": "WEST BENGAL",
        "latitude": "22.7631126",
        "longitude": "88.8259765"
    },
    {
        "circlename": "West Bengal Circle",
        "regionname": "Kolkata Region",
        "divisionname": "Barasat Division",
        "officename": "Raghunathpur BO",
        "pincode": "743401",
        "officetype": "BO",
        "delivery": "Delivery",
        "district": "24 PARAGANAS NORTH",
        "statename": "WEST BENGAL",
        "latitude": "22.7286557",
        "longitude": "88.7675648"
    },
    {
        "circlename": "West Bengal Circle",
        "regionname": "Kolkata Region",
        "divisionname": "Barasat Division",
        "officename": "Simulia Durgapur BO",
        "pincode": "743401",
        "officetype": "BO",
        "delivery": "Delivery",
        "district": "24 PARAGANAS NORTH",
        "statename": "WEST BENGAL",
        "latitude": "22.7170331",
        "longitude": "88.7860139"
    },
    {
        "circlename": "West Bengal Circle",
        "regionname": "Kolkata Region",
        "divisionname": "Barasat Division",
        "officename": "Taragunia BO",
        "pincode": "743401",
        "officetype": "BO",
        "delivery": "Delivery",
        "district": "24 PARAGANAS NORTH",
        "statename": "WEST BENGAL",
        "latitude": "22.7167916",
        "longitude": "88.7969408"
    },
    {
        "circlename": "West Bengal Circle",
        "regionname": "Kolkata Region",
        "divisionname": "Barasat Division",
        "officename": "Basirhat RS BO",
        "pincode": "743412",
        "officetype": "BO",
        "delivery": "Delivery",
        "district": "24 PARAGANAS NORTH",
        "statename": "WEST BENGAL",
        "latitude": "22.6504438",
        "longitude": "88.8691204"
    },
    {
        "circlename": "West Bengal Circle",
        "regionname": "Kolkata Region",
        "divisionname": "Barasat Division",
        "officename": "Harishpur BO",
        "pincode": "743412",
        "officetype": "BO",
        "delivery": "Delivery",
        "district": "24 PARAGANAS NORTH",
        "statename": "WEST BENGAL",
        "latitude": "22.6821286",
        "longitude": "88.8393294"
    },
    {
        "circlename": "West Bengal Circle",
        "regionname": "Kolkata Region",
        "divisionname": "Barasat Division",
        "officename": "Abadkuliadanga BO",
        "pincode": "743456",
        "officetype": "BO",
        "delivery": "Delivery",
        "district": "24 PARAGANAS NORTH",
        "statename": "WEST BENGAL",
        "latitude": "22.5622761",
        "longitude": "88.8694951"
    },
    {
        "circlename": "West Bengal Circle",
        "regionname": "Kolkata Region",
        "divisionname": "Barasat Division",
        "officename": "Kharampur BO",
        "pincode": "743456",
        "officetype": "BO",
        "delivery": "Delivery",
        "district": "24 PARAGANAS NORTH",
        "statename": "WEST BENGAL",
        "latitude": "22.5272536",
        "longitude": "88.8431896"
    },
    {
        "circlename": "West Bengal Circle",
        "regionname": "Kolkata Region",
        "divisionname": "Barasat Division",
        "officename": "Murarisaha BO",
        "pincode": "743456",
        "officetype": "BO",
        "delivery": "Delivery",
        "district": "24 PARAGANAS NORTH",
        "statename": "WEST BENGAL",
        "latitude": "22.5739220",
        "longitude": "88.8426494"
    },
    {
        "circlename": "West Bengal Circle",
        "regionname": "Kolkata Region",
        "divisionname": "Barasat Division",
        "officename": "Matia BO",
        "pincode": "743437",
        "officetype": "BO",
        "delivery": "Delivery",
        "district": "24 PARAGANAS NORTH",
        "statename": "WEST BENGAL",
        "latitude": "22.6896646",
        "longitude": "88.7710424"
    },
    {
        "circlename": "West Bengal Circle",
        "regionname": "Kolkata Region",
        "divisionname": "Barasat Division",
        "officename": "Nehalpur BO",
        "pincode": "743437",
        "officetype": "BO",
        "delivery": "Delivery",
        "district": "24 PARAGANAS NORTH",
        "statename": "WEST BENGAL",
        "latitude": "22.6895538",
        "longitude": "88.7566152"
    },
    {
        "circlename": "West Bengal Circle",
        "regionname": "Kolkata Region",
        "divisionname": "Barasat Division",
        "officename": "Amta BO",
        "pincode": "743445",
        "officetype": "BO",
        "delivery": "Delivery",
        "district": "24 PARAGANAS NORTH",
        "statename": "WEST BENGAL",
        "latitude": "22.6011115",
        "longitude": "88.7812586"
    },
    {
        "circlename": "West Bengal Circle",
        "regionname": "Kolkata Region",
        "divisionname": "Barasat Division",
        "officename": "Chaita BO",
        "pincode": "743445",
        "officetype": "BO",
        "delivery": "Delivery",
        "district": "24 PARAGANAS NORTH",
        "statename": "WEST BENGAL",
        "latitude": "22.6374655",
        "longitude": "88.7626271"
    },
    {
        "circlename": "West Bengal Circle",
        "regionname": "Kolkata Region",
        "divisionname": "Barasat Division",
        "officename": "Ghona BO",
        "pincode": "743445",
        "officetype": "BO",
        "delivery": "Delivery",
        "district": "24 PARAGANAS NORTH",
        "statename": "WEST BENGAL",
        "latitude": "22.6301184",
        "longitude": "88.7758503"
    },
    {
        "circlename": "West Bengal Circle",
        "regionname": "Kolkata Region",
        "divisionname": "Barasat Division",
        "officename": "Atpukur BO",
        "pincode": "743425",
        "officetype": "BO",
        "delivery": "Delivery",
        "district": "24 PARAGANAS NORTH",
        "statename": "WEST BENGAL",
        "latitude": "22.5342941",
        "longitude": "88.7133039"
    },
    {
        "circlename": "West Bengal Circle",
        "regionname": "Kolkata Region",
        "divisionname": "Barasat Division",
        "officename": "Khalisadi BO",
        "pincode": "743425",
        "officetype": "BO",
        "delivery": "Delivery",
        "district": "24 PARAGANAS NORTH",
        "statename": "WEST BENGAL",
        "latitude": "22.5975838",
        "longitude": "88.6205162"
    },
    {
        "circlename": "West Bengal Circle",
        "regionname": "Kolkata Region",
        "divisionname": "Barasat Division",
        "officename": "Kharupala BO",
        "pincode": "743425",
        "officetype": "BO",
        "delivery": "Delivery",
        "district": "24 PARAGANAS NORTH",
        "statename": "WEST BENGAL",
        "latitude": "22.6312318",
        "longitude": "88.6250484"
    },
    {
        "circlename": "West Bengal Circle",
        "regionname": "Kolkata Region",
        "divisionname": "Barasat Division",
        "officename": "Narabunia BO",
        "pincode": "743425",
        "officetype": "BO",
        "delivery": "Delivery",
        "district": "24 PARAGANAS SOUTH",
        "statename": "WEST BENGAL",
        "latitude": "22.6305475",
        "longitude": "88.6991846"
    },
    {
        "circlename": "West Bengal Circle",
        "regionname": "Kolkata Region",
        "divisionname": "Barasat Division",
        "officename": "Simulia Kalibari BO",
        "pincode": "743426",
        "officetype": "BO",
        "delivery": "Delivery",
        "district": "24 PARAGANAS NORTH",
        "statename": "WEST BENGAL",
        "latitude": "22.5112611",
        "longitude": "88.9118176"
    },
    {
        "circlename": "West Bengal Circle",
        "regionname": "Kolkata Region",
        "divisionname": "Barasat Division",
        "officename": "Dakshin Hatgachha BO",
        "pincode": "743439",
        "officetype": "BO",
        "delivery": "Delivery",
        "district": "24 PARAGANAS NORTH",
        "statename": "WEST BENGAL",
        "latitude": "22.5334524",
        "longitude": "88.4673435"
    },
    {
        "circlename": "West Bengal Circle",
        "regionname": "Kolkata Region",
        "divisionname": "Barasat Division",
        "officename": "Deuli Pukuria BO",
        "pincode": "743439",
        "officetype": "BO",
        "delivery": "Delivery",
        "district": "24 PARAGANAS NORTH",
        "statename": "WEST BENGAL",
        "latitude": "22.2478349",
        "longitude": "88.9701903"
    },
    {
        "circlename": "West Bengal Circle",
        "regionname": "Kolkata Region",
        "divisionname": "Barasat Division",
        "officename": "Hemnagar BO",
        "pincode": "743439",
        "officetype": "BO",
        "delivery": "Delivery",
        "district": "24 PARAGANAS NORTH",
        "statename": "WEST BENGAL",
        "latitude": "22.2143724",
        "longitude": "88.9820696"
    },
    {
        "circlename": "West Bengal Circle",
        "regionname": "Kolkata Region",
        "divisionname": "Barasat Division",
        "officename": "Jogeshganj BO",
        "pincode": "743439",
        "officetype": "BO",
        "delivery": "Delivery",
        "district": "24 PARAGANAS NORTH",
        "statename": "WEST BENGAL",
        "latitude": "22.2411617",
        "longitude": "88.9753187"
    },
    {
        "circlename": "West Bengal Circle",
        "regionname": "Kolkata Region",
        "divisionname": "Barasat Division",
        "officename": "Kalitala BO",
        "pincode": "743439",
        "officetype": "BO",
        "delivery": "Delivery",
        "district": "24 PARAGANAS NORTH",
        "statename": "WEST BENGAL",
        "latitude": "22.2124954",
        "longitude": "89.0160070"
    },
    {
        "circlename": "West Bengal Circle",
        "regionname": "Kolkata Region",
        "divisionname": "Barasat Division",
        "officename": "Lebukhali BO",
        "pincode": "743439",
        "officetype": "BO",
        "delivery": "Delivery",
        "district": "24 PARAGANAS NORTH",
        "statename": "WEST BENGAL",
        "latitude": "22.3751166",
        "longitude": "88.9533563"
    },
    {
        "circlename": "West Bengal Circle",
        "regionname": "Kolkata Region",
        "divisionname": "Barasat Division",
        "officename": "Sahebkhali BO",
        "pincode": "743439",
        "officetype": "BO",
        "delivery": "Delivery",
        "district": "24 PARAGANAS NORTH",
        "statename": "WEST BENGAL",
        "latitude": "22.3454988",
        "longitude": "88.9820696"
    },
    {
        "circlename": "West Bengal Circle",
        "regionname": "Kolkata Region",
        "divisionname": "Barasat Division",
        "officename": "South Charalkhali BO",
        "pincode": "743439",
        "officetype": "BO",
        "delivery": "Delivery",
        "district": "24 PARAGANAS NORTH",
        "statename": "WEST BENGAL",
        "latitude": "22.3003759",
        "longitude": "89.0028448"
    },
    {
        "circlename": "West Bengal Circle",
        "regionname": "Kolkata Region",
        "divisionname": "Barasat Division",
        "officename": "Kanchanpur BO",
        "pincode": "743435",
        "officetype": "BO",
        "delivery": "Delivery",
        "district": "24 PARAGANAS NORTH",
        "statename": "WEST BENGAL",
        "latitude": "22.4703071",
        "longitude": "88.9835602"
    },
    {
        "circlename": "West Bengal Circle",
        "regionname": "Kolkata Region",
        "divisionname": "Barasat Division",
        "officename": "Kothabari BO",
        "pincode": "743435",
        "officetype": "BO",
        "delivery": "Delivery",
        "district": "24 PARAGANAS NORTH",
        "statename": "WEST BENGAL",
        "latitude": "25.0122311",
        "longitude": "88.1418024"
    },
    {
        "circlename": "West Bengal Circle",
        "regionname": "Kolkata Region",
        "divisionname": "Barasat Division",
        "officename": "Purba  Khejurberia BO",
        "pincode": "743435",
        "officetype": "BO",
        "delivery": "Delivery",
        "district": "24 PARAGANAS NORTH",
        "statename": "WEST BENGAL",
        "latitude": "22.4463565",
        "longitude": "88.9343355"
    },
    {
        "circlename": "West Bengal Circle",
        "regionname": "Kolkata Region",
        "divisionname": "Barasat Division",
        "officename": "Gachha BO",
        "pincode": "743292",
        "officetype": "BO",
        "delivery": "Delivery",
        "district": "24 PARAGANAS NORTH",
        "statename": "WEST BENGAL",
        "latitude": "22.7056114",
        "longitude": "88.9174366"
    },
    {
        "circlename": "West Bengal Circle",
        "regionname": "Kolkata Region",
        "divisionname": "Barasat Division",
        "officename": "Barabankra BO",
        "pincode": "743427",
        "officetype": "BO",
        "delivery": "Delivery",
        "district": "24 PARAGANAS NORTH",
        "statename": "WEST BENGAL",
        "latitude": "22.7167446",
        "longitude": "88.8524085"
    },
    {
        "circlename": "West Bengal Circle",
        "regionname": "Kolkata Region",
        "divisionname": "Barasat Division",
        "officename": "Khorgachi BO",
        "pincode": "743427",
        "officetype": "BO",
        "delivery": "Delivery",
        "district": "24 PARAGANAS NORTH",
        "statename": "WEST BENGAL",
        "latitude": "22.7349530",
        "longitude": "88.8320666"
    },
    {
        "circlename": "West Bengal Circle",
        "regionname": "Kolkata Region",
        "divisionname": "Barasat Division",
        "officename": "Boyermari BO",
        "pincode": "743442",
        "officetype": "BO",
        "delivery": "Delivery",
        "district": "24 PARAGANAS NORTH",
        "statename": "WEST BENGAL",
        "latitude": "22.4423215",
        "longitude": "88.7638294"
    },
    {
        "circlename": "West Bengal Circle",
        "regionname": "Kolkata Region",
        "divisionname": "Barasat Division",
        "officename": "Nalkora BO",
        "pincode": "743442",
        "officetype": "BO",
        "delivery": "Delivery",
        "district": "24 PARAGANAS NORTH",
        "statename": "WEST BENGAL",
        "latitude": "22.4158451",
        "longitude": "88.8094906"
    },
    {
        "circlename": "West Bengal Circle",
        "regionname": "Kolkata Region",
        "divisionname": "Barasat Division",
        "officename": "Duchnikhali BO",
        "pincode": "743446",
        "officetype": "BO",
        "delivery": "Delivery",
        "district": "24 PARAGANAS NORTH",
        "statename": "WEST BENGAL",
        "latitude": "22.3101876",
        "longitude": "88.8935780"
    },
    {
        "circlename": "West Bengal Circle",
        "regionname": "Kolkata Region",
        "divisionname": "Barasat Division",
        "officename": "Sukduani BO",
        "pincode": "743446",
        "officetype": "BO",
        "delivery": "Delivery",
        "district": "24 PARAGANAS NORTH",
        "statename": "WEST BENGAL",
        "latitude": "22.3641940",
        "longitude": "88.8889636"
    },
    {
        "circlename": "West Bengal Circle",
        "regionname": "Kolkata Region",
        "divisionname": "Barasat Division",
        "officename": "Nirman BO",
        "pincode": "743286",
        "officetype": "BO",
        "delivery": "Delivery",
        "district": "24 PARAGANAS NORTH",
        "statename": "WEST BENGAL",
        "latitude": "22.8426412",
        "longitude": "88.8881492"
    },
    {
        "circlename": "West Bengal Circle",
        "regionname": "Kolkata Region",
        "divisionname": "Barasat Division",
        "officename": "Kishor Nagar Jalalpur BO",
        "pincode": "743429",
        "officetype": "BO",
        "delivery": "Delivery",
        "district": "24 PARAGANAS NORTH",
        "statename": "WEST BENGAL",
        "latitude": "22.6171801",
        "longitude": "88.8837719"
    },
    {
        "circlename": "West Bengal Circle",
        "regionname": "Kolkata Region",
        "divisionname": "Birbhum Division",
        "officename": "Barakartickchungri BO",
        "pincode": "731202",
        "officetype": "BO",
        "delivery": "Delivery",
        "district": "BIRBHUM",
        "statename": "WEST BENGAL",
        "latitude": "24.1790180",
        "longitude": "87.8675370"
    },
    {
        "circlename": "West Bengal Circle",
        "regionname": "Kolkata Region",
        "divisionname": "Birbhum Division",
        "officename": "Kaluha BO",
        "pincode": "731202",
        "officetype": "BO",
        "delivery": "Delivery",
        "district": "BIRBHUM",
        "statename": "WEST BENGAL",
        "latitude": "24.2075360",
        "longitude": "87.8493160"
    },
    {
        "circlename": "West Bengal Circle",
        "regionname": "Kolkata Region",
        "divisionname": "Birbhum Division",
        "officename": "Ningha BO",
        "pincode": "731202",
        "officetype": "BO",
        "delivery": "Delivery",
        "district": "BIRBHUM",
        "statename": "WEST BENGAL",
        "latitude": "23.6725670",
        "longitude": "87.0349420"
    },
    {
        "circlename": "West Bengal Circle",
        "regionname": "Kolkata Region",
        "divisionname": "Birbhum Division",
        "officename": "Debiparulia BO",
        "pincode": "731244",
        "officetype": "BO",
        "delivery": "Delivery",
        "district": "MURSHIDABAD",
        "statename": "WEST BENGAL",
        "latitude": "24.0734960",
        "longitude": "87.9092700"
    },
    {
        "circlename": "West Bengal Circle",
        "regionname": "Kolkata Region",
        "divisionname": "Birbhum Division",
        "officename": "Birchandrapur BO",
        "pincode": "731245",
        "officetype": "BO",
        "delivery": "Delivery",
        "district": "BIRBHUM",
        "statename": "WEST BENGAL",
        "latitude": "24.0641040",
        "longitude": "87.8396270"
    },
    {
        "circlename": "West Bengal Circle",
        "regionname": "Kolkata Region",
        "divisionname": "Birbhum Division",
        "officename": "Ghoshgram BO",
        "pincode": "731245",
        "officetype": "BO",
        "delivery": "Delivery",
        "district": "BIRBHUM",
        "statename": "WEST BENGAL",
        "latitude": "24.0531520",
        "longitude": "87.8786360"
    },
    {
        "circlename": "West Bengal Circle",
        "regionname": "Kolkata Region",
        "divisionname": "Birbhum Division",
        "officename": "Sanakpur BO",
        "pincode": "731245",
        "officetype": "BO",
        "delivery": "Delivery",
        "district": "BIRBHUM",
        "statename": "WEST BENGAL",
        "latitude": "24.0158520",
        "longitude": "87.8496190"
    },
    {
        "circlename": "West Bengal Circle",
        "regionname": "Kolkata Region",
        "divisionname": "Birbhum Division",
        "officename": "Sardha BO",
        "pincode": "731242",
        "officetype": "BO",
        "delivery": "Delivery",
        "district": "BIRBHUM",
        "statename": "WEST BENGAL",
        "latitude": "24.2452620",
        "longitude": "87.8964840"
    },
    {
        "circlename": "West Bengal Circle",
        "regionname": "Kolkata Region",
        "divisionname": "Birbhum Division",
        "officename": "Bhadrapur BO",
        "pincode": "731237",
        "officetype": "BO",
        "delivery": "Delivery",
        "district": "BIRBHUM",
        "statename": "WEST BENGAL",
        "latitude": "24.2660350",
        "longitude": "87.9402200"
    },
    {
        "circlename": "West Bengal Circle",
        "regionname": "Kolkata Region",
        "divisionname": "Birbhum Division",
        "officename": "Salisanda BO",
        "pincode": "731237",
        "officetype": "BO",
        "delivery": "Delivery",
        "district": "BIRBHUM",
        "statename": "WEST BENGAL",
        "latitude": "24.3017420",
        "longitude": "88.0008350"
    },
    {
        "circlename": "West Bengal Circle",
        "regionname": "Kolkata Region",
        "divisionname": "Birbhum Division",
        "officename": "Ujirpur BO",
        "pincode": "731237",
        "officetype": "BO",
        "delivery": "Delivery",
        "district": "BIRBHUM",
        "statename": "WEST BENGAL",
        "latitude": "24.2644680",
        "longitude": "87.9898200"
    },
    {
        "circlename": "West Bengal Circle",
        "regionname": "Kolkata Region",
        "divisionname": "Birbhum Division",
        "officename": "Dighalgram BO",
        "pincode": "731216",
        "officetype": "BO",
        "delivery": "Delivery",
        "district": "BIRBHUM",
        "statename": "WEST BENGAL",
        "latitude": "24.0456590",
        "longitude": "87.6457810"
    },
    {
        "circlename": "West Bengal Circle",
        "regionname": "Kolkata Region",
        "divisionname": "Birbhum Division",
        "officename": "Gonpur BO",
        "pincode": "731216",
        "officetype": "BO",
        "delivery": "Delivery",
        "district": "BIRBHUM",
        "statename": "WEST BENGAL",
        "latitude": "24.0654050",
        "longitude": "87.6741400"
    },
    {
        "circlename": "West Bengal Circle",
        "regionname": "Kolkata Region",
        "divisionname": "Birbhum Division",
        "officename": "Mohula BO",
        "pincode": "731216",
        "officetype": "BO",
        "delivery": "Delivery",
        "district": "BIRBHUM",
        "statename": "WEST BENGAL",
        "latitude": "24.0964710",
        "longitude": "87.7652630"
    },
    {
        "circlename": "West Bengal Circle",
        "regionname": "Kolkata Region",
        "divisionname": "Birbhum Division",
        "officename": "Sekpur BO",
        "pincode": "731216",
        "officetype": "BO",
        "delivery": "Delivery",
        "district": "BIRBHUM",
        "statename": "WEST BENGAL",
        "latitude": "24.0183410",
        "longitude": "87.7061770"
    },
    {
        "circlename": "West Bengal Circle",
        "regionname": "Kolkata Region",
        "divisionname": "Birbhum Division",
        "officename": "Sonj BO",
        "pincode": "731216",
        "officetype": "BO",
        "delivery": "Delivery",
        "district": "BIRBHUM",
        "statename": "WEST BENGAL",
        "latitude": "24.0261530",
        "longitude": "87.7320370"
    },
    {
        "circlename": "West Bengal Circle",
        "regionname": "Kolkata Region",
        "divisionname": "Birbhum Division",
        "officename": "Beliapalsa BO",
        "pincode": "731219",
        "officetype": "BO",
        "delivery": "Delivery",
        "district": "BIRBHUM",
        "statename": "WEST BENGAL",
        "latitude": "24.4493060",
        "longitude": "87.8255010"
    },
    {
        "circlename": "West Bengal Circle",
        "regionname": "Kolkata Region",
        "divisionname": "Birbhum Division",
        "officename": "Bipranandigram BO",
        "pincode": "731219",
        "officetype": "BO",
        "delivery": "Delivery",
        "district": "BIRBHUM",
        "statename": "WEST BENGAL",
        "latitude": "24.4947740",
        "longitude": "87.8917920"
    },
    {
        "circlename": "West Bengal Circle",
        "regionname": "Kolkata Region",
        "divisionname": "Birbhum Division",
        "officename": "Edrakpur BO",
        "pincode": "731219",
        "officetype": "BO",
        "delivery": "Delivery",
        "district": "BIRBHUM",
        "statename": "WEST BENGAL",
        "latitude": "24.4493060",
        "longitude": "87.8255010"
    },
    {
        "circlename": "West Bengal Circle",
        "regionname": "Kolkata Region",
        "divisionname": "Birbhum Division",
        "officename": "Kathia BO",
        "pincode": "731219",
        "officetype": "BO",
        "delivery": "Delivery",
        "district": "BIRBHUM",
        "statename": "WEST BENGAL",
        "latitude": "24.4682920",
        "longitude": "87.9089620"
    },
    {
        "circlename": "West Bengal Circle",
        "regionname": "Kolkata Region",
        "divisionname": "Birbhum Division",
        "officename": "Nayagram BO",
        "pincode": "731219",
        "officetype": "BO",
        "delivery": "Delivery",
        "district": "MURSHIDABAD",
        "statename": "WEST BENGAL",
        "latitude": "24.4161650",
        "longitude": "87.9512470"
    },
    {
        "circlename": "West Bengal Circle",
        "regionname": "Kolkata Region",
        "divisionname": "Birbhum Division",
        "officename": "Diha BO",
        "pincode": "731220",
        "officetype": "BO",
        "delivery": "Delivery",
        "district": "BIRBHUM",
        "statename": "WEST BENGAL",
        "latitude": "24.3441560",
        "longitude": "87.8439250"
    },
    {
        "circlename": "West Bengal Circle",
        "regionname": "Kolkata Region",
        "divisionname": "Birbhum Division",
        "officename": "Mustofadanga BO",
        "pincode": "731220",
        "officetype": "BO",
        "delivery": "Delivery",
        "district": "BIRBHUM",
        "statename": "WEST BENGAL",
        "latitude": "24.3073260",
        "longitude": "87.8647960"
    },
    {
        "circlename": "West Bengal Circle",
        "regionname": "Kolkata Region",
        "divisionname": "Birbhum Division",
        "officename": "Chilinpur BO",
        "pincode": "731243",
        "officetype": "BO",
        "delivery": "Delivery",
        "district": "BIRBHUM",
        "statename": "WEST BENGAL",
        "latitude": "24.2583980",
        "longitude": "87.7664930"
    },
    {
        "circlename": "West Bengal Circle",
        "regionname": "Kolkata Region",
        "divisionname": "Birbhum Division",
        "officename": "Bonha BO",
        "pincode": "731221",
        "officetype": "BO",
        "delivery": "Delivery",
        "district": "BIRBHUM",
        "statename": "WEST BENGAL",
        "latitude": "24.3926270",
        "longitude": "87.9126410"
    },
    {
        "circlename": "West Bengal Circle",
        "regionname": "Kolkata Region",
        "divisionname": "Birbhum Division",
        "officename": "Barapahari BO",
        "pincode": "731223",
        "officetype": "BO",
        "delivery": "Delivery",
        "district": "BIRBHUM",
        "statename": "WEST BENGAL",
        "latitude": "24.2337610",
        "longitude": "87.7074090"
    },
    {
        "circlename": "West Bengal Circle",
        "regionname": "Kolkata Region",
        "divisionname": "Birbhum Division",
        "officename": "Swadhinpur BO",
        "pincode": "731223",
        "officetype": "BO",
        "delivery": "Delivery",
        "district": "BIRBHUM",
        "statename": "WEST BENGAL",
        "latitude": "24.2546350",
        "longitude": "87.8144430"
    },
    {
        "circlename": "West Bengal Circle",
        "regionname": "South Bengal Region",
        "divisionname": "Howrah Division",
        "officename": "Abhoynagar BO",
        "pincode": "711205",
        "officetype": "BO",
        "delivery": "Delivery",
        "district": "HOWRAH",
        "statename": "WEST BENGAL",
        "latitude": "23.7271000",
        "longitude": "91.3177000"
    },
    {
        "circlename": "West Bengal Circle",
        "regionname": "South Bengal Region",
        "divisionname": "Midnapore Division",
        "officename": "Chandabila BO",
        "pincode": "721125",
        "officetype": "BO",
        "delivery": "Delivery",
        "district": "Jhargram",
        "statename": "WEST BENGAL",
        "latitude": "22.2080000",
        "longitude": "87.1463500"
    },
    {
        "circlename": "West Bengal Circle",
        "regionname": "South Bengal Region",
        "divisionname": "Midnapore Division",
        "officename": "Chilkipada BO",
        "pincode": "721125",
        "officetype": "BO",
        "delivery": "Delivery",
        "district": "Jhargram",
        "statename": "WEST BENGAL",
        "latitude": "22.2080000",
        "longitude": "87.1463500"
    },
    {
        "circlename": "West Bengal Circle",
        "regionname": "South Bengal Region",
        "divisionname": "Midnapore Division",
        "officename": "Dhumsai BO",
        "pincode": "721125",
        "officetype": "BO",
        "delivery": "Delivery",
        "district": "Jhargram",
        "statename": "WEST BENGAL",
        "latitude": "22.2080000",
        "longitude": "87.1463500"
    },
    {
        "circlename": "West Bengal Circle",
        "regionname": "South Bengal Region",
        "divisionname": "Midnapore Division",
        "officename": "Rautarapur BO",
        "pincode": "721133",
        "officetype": "BO",
        "delivery": "Delivery",
        "district": "MEDINIPUR WEST",
        "statename": "WEST BENGAL",
        "latitude": "22.1167506",
        "longitude": "87.2344562"
    },
    {
        "circlename": "West Bengal Circle",
        "regionname": "South Bengal Region",
        "divisionname": "Midnapore Division",
        "officename": "Singaijamuna BO",
        "pincode": "721133",
        "officetype": "BO",
        "delivery": "Delivery",
        "district": "MEDINIPUR WEST",
        "statename": "WEST BENGAL",
        "latitude": "22.1167000",
        "longitude": "87.2345000"
    },
    {
        "circlename": "West Bengal Circle",
        "regionname": "South Bengal Region",
        "divisionname": "Midnapore Division",
        "officename": "Uttar Dumurkhola BO",
        "pincode": "721133",
        "officetype": "BO",
        "delivery": "Delivery",
        "district": "MEDINIPUR WEST",
        "statename": "WEST BENGAL",
        "latitude": "22.2786000",
        "longitude": "87.2344562"
    },
    {
        "circlename": "West Bengal Circle",
        "regionname": "South Bengal Region",
        "divisionname": "Midnapore Division",
        "officename": "Nayagram BO",
        "pincode": "721159",
        "officetype": "BO",
        "delivery": "Delivery",
        "district": "Jhargram",
        "statename": "WEST BENGAL",
        "latitude": "22.0035000",
        "longitude": "87.1460000"
    },
    {
        "circlename": "West Bengal Circle",
        "regionname": "South Bengal Region",
        "divisionname": "Midnapore Division",
        "officename": "Nekrasole BO",
        "pincode": "721159",
        "officetype": "BO",
        "delivery": "Delivery",
        "district": "Jhargram",
        "statename": "WEST BENGAL",
        "latitude": "22.0035000",
        "longitude": "87.1460000"
    },
    {
        "circlename": "West Bengal Circle",
        "regionname": "South Bengal Region",
        "divisionname": "Midnapore Division",
        "officename": "Binandapur BO",
        "pincode": "721135",
        "officetype": "BO",
        "delivery": "Delivery",
        "district": "MEDINIPUR WEST",
        "statename": "WEST BENGAL",
        "latitude": "22.1810000",
        "longitude": "87.1597000"
    },
    {
        "circlename": "West Bengal Circle",
        "regionname": "South Bengal Region",
        "divisionname": "Midnapore Division",
        "officename": "Keshiapada BO",
        "pincode": "721135",
        "officetype": "BO",
        "delivery": "Delivery",
        "district": "Jhargram",
        "statename": "WEST BENGAL",
        "latitude": "22.1810000",
        "longitude": "87.1597000"
    },
    {
        "circlename": "West Bengal Circle",
        "regionname": "South Bengal Region",
        "divisionname": "Midnapore Division",
        "officename": "Pathra BO",
        "pincode": "721135",
        "officetype": "BO",
        "delivery": "Delivery",
        "district": "Jhargram",
        "statename": "WEST BENGAL",
        "latitude": "22.1810000",
        "longitude": "87.1597000"
    },
    {
        "circlename": "West Bengal Circle",
        "regionname": "South Bengal Region",
        "divisionname": "Midnapore Division",
        "officename": "Bachhurkhoyar BO",
        "pincode": "721143",
        "officetype": "BO",
        "delivery": "Delivery",
        "district": "Jhargram",
        "statename": "WEST BENGAL",
        "latitude": "22.2786000",
        "longitude": "87.3798000"
    },
    {
        "circlename": "West Bengal Circle",
        "regionname": "South Bengal Region",
        "divisionname": "Midnapore Division",
        "officename": "Bhulaveda BO",
        "pincode": "721501",
        "officetype": "BO",
        "delivery": "Delivery",
        "district": "Jhargram",
        "statename": "WEST BENGAL",
        "latitude": "22.6320000",
        "longitude": "86.7642000"
    },
    {
        "circlename": "West Bengal Circle",
        "regionname": "South Bengal Region",
        "divisionname": "Midnapore Division",
        "officename": "Chakadoba BO",
        "pincode": "721501",
        "officetype": "BO",
        "delivery": "Delivery",
        "district": "Jhargram",
        "statename": "WEST BENGAL",
        "latitude": "22.6320000",
        "longitude": "86.7642000"
    },
    {
        "circlename": "West Bengal Circle",
        "regionname": "South Bengal Region",
        "divisionname": "Midnapore Division",
        "officename": "Charakpahari BO",
        "pincode": "721501",
        "officetype": "BO",
        "delivery": "Delivery",
        "district": "Jhargram",
        "statename": "WEST BENGAL",
        "latitude": "22.6320000",
        "longitude": "86.7642000"
    },
    {
        "circlename": "West Bengal Circle",
        "regionname": "South Bengal Region",
        "divisionname": "Midnapore Division",
        "officename": "Kankrajhore BO",
        "pincode": "721501",
        "officetype": "BO",
        "delivery": "Delivery",
        "district": "Jhargram",
        "statename": "WEST BENGAL",
        "latitude": "22.6321000",
        "longitude": "86.7643000"
    },
    {
        "circlename": "West Bengal Circle",
        "regionname": "South Bengal Region",
        "divisionname": "Midnapore Division",
        "officename": "Odalchua BO",
        "pincode": "721501",
        "officetype": "BO",
        "delivery": "Delivery",
        "district": "Jhargram",
        "statename": "WEST BENGAL",
        "latitude": "22.6320000",
        "longitude": "86.7642000"
    },
    {
        "circlename": "West Bengal Circle",
        "regionname": "South Bengal Region",
        "divisionname": "Midnapore Division",
        "officename": "Thakurnpahari BO",
        "pincode": "721501",
        "officetype": "BO",
        "delivery": "Delivery",
        "district": "Jhargram",
        "statename": "WEST BENGAL",
        "latitude": "22.6320000",
        "longitude": "86.7642000"
    },
    {
        "circlename": "West Bengal Circle",
        "regionname": "South Bengal Region",
        "divisionname": "Midnapore Division",
        "officename": "Bhaturkadamdiha BO",
        "pincode": "721503",
        "officetype": "BO",
        "delivery": "Delivery",
        "district": "Jhargram",
        "statename": "WEST BENGAL",
        "latitude": "22.4497000",
        "longitude": "86.8747000"
    },
    {
        "circlename": "West Bengal Circle",
        "regionname": "South Bengal Region",
        "divisionname": "Midnapore Division",
        "officename": "Chichra BO",
        "pincode": "721503",
        "officetype": "BO",
        "delivery": "Delivery",
        "district": "Jhargram",
        "statename": "WEST BENGAL",
        "latitude": "22.6320000",
        "longitude": "86.7642000"
    },
    {
        "circlename": "West Bengal Circle",
        "regionname": "South Bengal Region",
        "divisionname": "Midnapore Division",
        "officename": "Akanischintapur BO",
        "pincode": "721504",
        "officetype": "BO",
        "delivery": "Delivery",
        "district": "Jhargram",
        "statename": "WEST BENGAL",
        "latitude": "22.5040000",
        "longitude": "86.9912000"
    },
    {
        "circlename": "West Bengal Circle",
        "regionname": "South Bengal Region",
        "divisionname": "Midnapore Division",
        "officename": "Jashpur BO",
        "pincode": "721504",
        "officetype": "BO",
        "delivery": "Delivery",
        "district": "Jhargram",
        "statename": "WEST BENGAL",
        "latitude": "22.5040000",
        "longitude": "86.9912000"
    },
    {
        "circlename": "West Bengal Circle",
        "regionname": "South Bengal Region",
        "divisionname": "Midnapore Division",
        "officename": "Muramouli BO",
        "pincode": "721504",
        "officetype": "BO",
        "delivery": "Delivery",
        "district": "BANKURA",
        "statename": "WEST BENGAL",
        "latitude": "22.6320000",
        "longitude": "86.7642000"
    },
    {
        "circlename": "West Bengal Circle",
        "regionname": "South Bengal Region",
        "divisionname": "Midnapore Division",
        "officename": "Amlatora BO",
        "pincode": "721505",
        "officetype": "BO",
        "delivery": "Delivery",
        "district": "Jhargram",
        "statename": "WEST BENGAL",
        "latitude": "22.4761000",
        "longitude": "86.8572000"
    },
    {
        "circlename": "West Bengal Circle",
        "regionname": "South Bengal Region",
        "divisionname": "Midnapore Division",
        "officename": "Dumuria BO",
        "pincode": "721505",
        "officetype": "BO",
        "delivery": "Delivery",
        "district": "Jhargram",
        "statename": "WEST BENGAL",
        "latitude": "22.4761000",
        "longitude": "86.8572000"
    },
    {
        "circlename": "West Bengal Circle",
        "regionname": "South Bengal Region",
        "divisionname": "Midnapore Division",
        "officename": "Kapgari BO",
        "pincode": "721505",
        "officetype": "BO",
        "delivery": "Delivery",
        "district": "Jhargram",
        "statename": "WEST BENGAL",
        "latitude": "22.4761000",
        "longitude": "86.8572000"
    },
    {
        "circlename": "West Bengal Circle",
        "regionname": "South Bengal Region",
        "divisionname": "Midnapore Division",
        "officename": "Narasimul BO",
        "pincode": "721506",
        "officetype": "BO",
        "delivery": "Delivery",
        "district": "Jhargram",
        "statename": "WEST BENGAL",
        "latitude": "22.2059000",
        "longitude": "86.8948000"
    },
    {
        "circlename": "West Bengal Circle",
        "regionname": "South Bengal Region",
        "divisionname": "Midnapore Division",
        "officename": "Phulbani BO",
        "pincode": "721506",
        "officetype": "BO",
        "delivery": "Delivery",
        "district": "Jhargram",
        "statename": "WEST BENGAL",
        "latitude": "22.2059000",
        "longitude": "86.8948000"
    },
    {
        "circlename": "West Bengal Circle",
        "regionname": "South Bengal Region",
        "divisionname": "Midnapore Division",
        "officename": "Bhimpur BO",
        "pincode": "721516",
        "officetype": "BO",
        "delivery": "Delivery",
        "district": "Jhargram",
        "statename": "WEST BENGAL",
        "latitude": "22.5840000",
        "longitude": "87.0499000"
    },
    {
        "circlename": "West Bengal Circle",
        "regionname": "South Bengal Region",
        "divisionname": "Midnapore Division",
        "officename": "Dharampur BO",
        "pincode": "721516",
        "officetype": "BO",
        "delivery": "Delivery",
        "district": "Jhargram",
        "statename": "WEST BENGAL",
        "latitude": "22.5840000",
        "longitude": "87.0499000"
    },
    {
        "circlename": "West Bengal Circle",
        "regionname": "South Bengal Region",
        "divisionname": "Midnapore Division",
        "officename": "Kalaimuri BO",
        "pincode": "721516",
        "officetype": "BO",
        "delivery": "Delivery",
        "district": "Jhargram",
        "statename": "WEST BENGAL",
        "latitude": "22.5840000",
        "longitude": "87.0499000"
    },
    {
        "circlename": "West Bengal Circle",
        "regionname": "South Bengal Region",
        "divisionname": "Midnapore Division",
        "officename": "Kharikasuli BO",
        "pincode": "721516",
        "officetype": "BO",
        "delivery": "Delivery",
        "district": "Jhargram",
        "statename": "WEST BENGAL",
        "latitude": "22.5840000",
        "longitude": "87.0499000"
    },
    {
        "circlename": "West Bengal Circle",
        "regionname": "South Bengal Region",
        "divisionname": "Midnapore Division",
        "officename": "Netai BO",
        "pincode": "721516",
        "officetype": "BO",
        "delivery": "Delivery",
        "district": "Jhargram",
        "statename": "WEST BENGAL",
        "latitude": "22.5840000",
        "longitude": "87.0499000"
    },
    {
        "circlename": "West Bengal Circle",
        "regionname": "South Bengal Region",
        "divisionname": "Midnapore Division",
        "officename": "Pirakata BO",
        "pincode": "721516",
        "officetype": "BO",
        "delivery": "Delivery",
        "district": "MEDINIPUR WEST",
        "statename": "WEST BENGAL",
        "latitude": "22.5840000",
        "longitude": "87.0499000"
    },
    {
        "circlename": "West Bengal Circle",
        "regionname": "South Bengal Region",
        "divisionname": "Midnapore Division",
        "officename": "Satpati BO",
        "pincode": "721516",
        "officetype": "BO",
        "delivery": "Delivery",
        "district": "MEDINIPUR WEST",
        "statename": "WEST BENGAL",
        "latitude": "22.5840000",
        "longitude": "87.0499000"
    },
    {
        "circlename": "West Bengal Circle",
        "regionname": "South Bengal Region",
        "divisionname": "Midnapore Division",
        "officename": "Amdoi BO",
        "pincode": "721513",
        "officetype": "BO",
        "delivery": "Delivery",
        "district": "Jhargram",
        "statename": "WEST BENGAL",
        "latitude": "22.3710000",
        "longitude": "87.1248000"
    },
    {
        "circlename": "West Bengal Circle",
        "regionname": "South Bengal Region",
        "divisionname": "Midnapore Division",
        "officename": "Dhaniapara BO",
        "pincode": "721513",
        "officetype": "BO",
        "delivery": "Delivery",
        "district": "MEDINIPUR WEST",
        "statename": "WEST BENGAL",
        "latitude": "22.3710000",
        "longitude": "87.1248000"
    },
    {
        "circlename": "West Bengal Circle",
        "regionname": "South Bengal Region",
        "divisionname": "Midnapore Division",
        "officename": "Kharbandi BO",
        "pincode": "721513",
        "officetype": "BO",
        "delivery": "Delivery",
        "district": "Jhargram",
        "statename": "WEST BENGAL",
        "latitude": "22.3710000",
        "longitude": "87.1248000"
    },
    {
        "circlename": "West Bengal Circle",
        "regionname": "South Bengal Region",
        "divisionname": "Midnapore Division",
        "officename": "Lodhasuli BO",
        "pincode": "721513",
        "officetype": "BO",
        "delivery": "Delivery",
        "district": "Jhargram",
        "statename": "WEST BENGAL",
        "latitude": "22.3710000",
        "longitude": "87.1248000"
    },
    {
        "circlename": "West Bengal Circle",
        "regionname": "South Bengal Region",
        "divisionname": "Midnapore Division",
        "officename": "Montipa Mohanpur BO",
        "pincode": "721513",
        "officetype": "BO",
        "delivery": "Delivery",
        "district": "Jhargram",
        "statename": "WEST BENGAL",
        "latitude": "22.3710000",
        "longitude": "87.1248000"
    },
    {
        "circlename": "West Bengal Circle",
        "regionname": "South Bengal Region",
        "divisionname": "Midnapore Division",
        "officename": "Noharia BO",
        "pincode": "721513",
        "officetype": "BO",
        "delivery": "Delivery",
        "district": "Jhargram",
        "statename": "WEST BENGAL",
        "latitude": "22.3710000",
        "longitude": "87.1248000"
    },
    {
        "circlename": "West Bengal Circle",
        "regionname": "South Bengal Region",
        "divisionname": "Midnapore Division",
        "officename": "Jhargram Rajbati BO",
        "pincode": "721514",
        "officetype": "BO",
        "delivery": "Delivery",
        "district": "Jhargram",
        "statename": "WEST BENGAL",
        "latitude": "22.4745000",
        "longitude": "87.0207000"
    },
    {
        "circlename": "West Bengal Circle",
        "regionname": "South Bengal Region",
        "divisionname": "Midnapore Division",
        "officename": "Chhotosukjora BO",
        "pincode": "721515",
        "officetype": "BO",
        "delivery": "Delivery",
        "district": "Jhargram",
        "statename": "WEST BENGAL",
        "latitude": "22.6168000",
        "longitude": "86.8183000"
    },
    {
        "circlename": "West Bengal Circle",
        "regionname": "South Bengal Region",
        "divisionname": "Midnapore Division",
        "officename": "Sahari BO",
        "pincode": "721515",
        "officetype": "BO",
        "delivery": "Delivery",
        "district": "Jhargram",
        "statename": "WEST BENGAL",
        "latitude": "22.6168000",
        "longitude": "86.8183000"
    },
    {
        "circlename": "West Bengal Circle",
        "regionname": "South Bengal Region",
        "divisionname": "Midnapore Division",
        "officename": "Ambi BO",
        "pincode": "721517",
        "officetype": "BO",
        "delivery": "Delivery",
        "district": "Jhargram",
        "statename": "WEST BENGAL",
        "latitude": "22.6203000",
        "longitude": "86.7806000"
    },
    {
        "circlename": "West Bengal Circle",
        "regionname": "South Bengal Region",
        "divisionname": "Midnapore Division",
        "officename": "Jugdiha BO",
        "pincode": "721517",
        "officetype": "BO",
        "delivery": "Delivery",
        "district": "Jhargram",
        "statename": "WEST BENGAL",
        "latitude": "22.6203000",
        "longitude": "86.7806000"
    },
    {
        "circlename": "West Bengal Circle",
        "regionname": "South Bengal Region",
        "divisionname": "Midnapore Division",
        "officename": "Kanpursalbani BO",
        "pincode": "721517",
        "officetype": "BO",
        "delivery": "Delivery",
        "district": "Jhargram",
        "statename": "WEST BENGAL",
        "latitude": "22.6203000",
        "longitude": "86.7806000"
    },
    {
        "circlename": "West Bengal Circle",
        "regionname": "South Bengal Region",
        "divisionname": "Midnapore Division",
        "officename": "Jagardanga BO",
        "pincode": "721121",
        "officetype": "BO",
        "delivery": "Delivery",
        "district": "MEDINIPUR WEST",
        "statename": "WEST BENGAL",
        "latitude": "22.4308890",
        "longitude": "87.3214910"
    },
    {
        "circlename": "West Bengal Circle",
        "regionname": "South Bengal Region",
        "divisionname": "Midnapore Division",
        "officename": "Jirapara BO",
        "pincode": "721121",
        "officetype": "BO",
        "delivery": "Delivery",
        "district": "MEDINIPUR WEST",
        "statename": "WEST BENGAL",
        "latitude": "22.4308890",
        "longitude": "87.3214910"
    },
    {
        "circlename": "West Bengal Circle",
        "regionname": "South Bengal Region",
        "divisionname": "Midnapore Division",
        "officename": "Makli BO",
        "pincode": "721121",
        "officetype": "BO",
        "delivery": "Delivery",
        "district": "MEDINIPUR WEST",
        "statename": "WEST BENGAL",
        "latitude": "22.4308890",
        "longitude": "87.3355900"
    },
    {
        "circlename": "West Bengal Circle",
        "regionname": "South Bengal Region",
        "divisionname": "Midnapore Division",
        "officename": "Barateghari BO",
        "pincode": "721122",
        "officetype": "BO",
        "delivery": "Delivery",
        "district": "MEDINIPUR WEST",
        "statename": "WEST BENGAL",
        "latitude": "22.5537865",
        "longitude": "87.4641119"
    },
    {
        "circlename": "West Bengal Circle",
        "regionname": "South Bengal Region",
        "divisionname": "Midnapore Division",
        "officename": "Duria Radhaballav BO",
        "pincode": "721122",
        "officetype": "BO",
        "delivery": "Delivery",
        "district": "MEDINIPUR WEST",
        "statename": "WEST BENGAL",
        "latitude": "22.5537865",
        "longitude": "87.4641119"
    },
    {
        "circlename": "West Bengal Circle",
        "regionname": "South Bengal Region",
        "divisionname": "Midnapore Division",
        "officename": "Kamargeria BO",
        "pincode": "721122",
        "officetype": "BO",
        "delivery": "Delivery",
        "district": "MEDINIPUR WEST",
        "statename": "WEST BENGAL",
        "latitude": "22.5537865",
        "longitude": "87.4641119"
    },
    {
        "circlename": "West Bengal Circle",
        "regionname": "South Bengal Region",
        "divisionname": "Midnapore Division",
        "officename": "Antala BO",
        "pincode": "721124",
        "officetype": "BO",
        "delivery": "Delivery",
        "district": "MEDINIPUR WEST",
        "statename": "WEST BENGAL",
        "latitude": "22.4308890",
        "longitude": "87.3214910"
    },
    {
        "circlename": "West Bengal Circle",
        "regionname": "South Bengal Region",
        "divisionname": "Midnapore Division",
        "officename": "Benachapra BO",
        "pincode": "721201",
        "officetype": "BO",
        "delivery": "Delivery",
        "district": "MEDINIPUR WEST",
        "statename": "WEST BENGAL",
        "latitude": "22.7329000",
        "longitude": "87.5169000"
    },
    {
        "circlename": "West Bengal Circle",
        "regionname": "South Bengal Region",
        "divisionname": "Midnapore Division",
        "officename": "Bhagabantapur BO",
        "pincode": "721201",
        "officetype": "BO",
        "delivery": "Delivery",
        "district": "MEDINIPUR WEST",
        "statename": "WEST BENGAL",
        "latitude": "22.7329000",
        "longitude": "87.5169000"
    },
    {
        "circlename": "West Bengal Circle",
        "regionname": "South Bengal Region",
        "divisionname": "Midnapore Division",
        "officename": "Chhatraganj BO",
        "pincode": "721201",
        "officetype": "BO",
        "delivery": "Delivery",
        "district": "MEDINIPUR WEST",
        "statename": "WEST BENGAL",
        "latitude": "22.7329000",
        "longitude": "87.5169000"
    },
    {
        "circlename": "West Bengal Circle",
        "regionname": "South Bengal Region",
        "divisionname": "Midnapore Division",
        "officename": "Ghatmura BO",
        "pincode": "721201",
        "officetype": "BO",
        "delivery": "Delivery",
        "district": "MEDINIPUR WEST",
        "statename": "WEST BENGAL",
        "latitude": "22.7329000",
        "longitude": "87.5169000"
    },
    {
        "circlename": "West Bengal Circle",
        "regionname": "South Bengal Region",
        "divisionname": "Midnapore Division",
        "officename": "Tenpur BO",
        "pincode": "721201",
        "officetype": "BO",
        "delivery": "Delivery",
        "district": "MEDINIPUR WEST",
        "statename": "WEST BENGAL",
        "latitude": "22.7329000",
        "longitude": "87.5169000"
    },
    {
        "circlename": "West Bengal Circle",
        "regionname": "South Bengal Region",
        "divisionname": "Midnapore Division",
        "officename": "Barhgobinda BO",
        "pincode": "721211",
        "officetype": "BO",
        "delivery": "Delivery",
        "district": "MEDINIPUR WEST",
        "statename": "WEST BENGAL",
        "latitude": "22.6068031",
        "longitude": "87.7246498"
    },
    {
        "circlename": "West Bengal Circle",
        "regionname": "South Bengal Region",
        "divisionname": "Midnapore Division",
        "officename": "Brahmanbasan BO",
        "pincode": "721211",
        "officetype": "BO",
        "delivery": "Delivery",
        "district": "MEDINIPUR WEST",
        "statename": "WEST BENGAL",
        "latitude": "22.6068030",
        "longitude": "87.7246498"
    },
    {
        "circlename": "West Bengal Circle",
        "regionname": "South Bengal Region",
        "divisionname": "Midnapore Division",
        "officename": "Dadpur BO",
        "pincode": "721211",
        "officetype": "BO",
        "delivery": "Delivery",
        "district": "MEDINIPUR WEST",
        "statename": "WEST BENGAL",
        "latitude": "22.6068031",
        "longitude": "87.7246498"
    },
    {
        "circlename": "West Bengal Circle",
        "regionname": "South Bengal Region",
        "divisionname": "Midnapore Division",
        "officename": "Dharampur BO",
        "pincode": "721211",
        "officetype": "BO",
        "delivery": "Delivery",
        "district": "MEDINIPUR WEST",
        "statename": "WEST BENGAL",
        "latitude": "22.6068031",
        "longitude": "87.7246498"
    },
    {
        "circlename": "West Bengal Circle",
        "regionname": "South Bengal Region",
        "divisionname": "Midnapore Division",
        "officename": "Kalmijore BO",
        "pincode": "721211",
        "officetype": "BO",
        "delivery": "Delivery",
        "district": "MEDINIPUR WEST",
        "statename": "WEST BENGAL",
        "latitude": "22.6068031",
        "longitude": "87.7246498"
    },
    {
        "circlename": "West Bengal Circle",
        "regionname": "South Bengal Region",
        "divisionname": "Midnapore Division",
        "officename": "Sankarpur BO",
        "pincode": "721211",
        "officetype": "BO",
        "delivery": "Delivery",
        "district": "MEDINIPUR WEST",
        "statename": "WEST BENGAL",
        "latitude": "22.6068031",
        "longitude": "87.7246498"
    },
    {
        "circlename": "West Bengal Circle",
        "regionname": "South Bengal Region",
        "divisionname": "Midnapore Division",
        "officename": "Chandeabila Khudiasole BO",
        "pincode": "721127",
        "officetype": "BO",
        "delivery": "Delivery",
        "district": "MEDINIPUR WEST",
        "statename": "WEST BENGAL",
        "latitude": "22.8631347",
        "longitude": "87.3537738"
    },
    {
        "circlename": "West Bengal Circle",
        "regionname": "South Bengal Region",
        "divisionname": "Midnapore Division",
        "officename": "Panikotor BO",
        "pincode": "721127",
        "officetype": "BO",
        "delivery": "Delivery",
        "district": "MEDINIPUR WEST",
        "statename": "WEST BENGAL",
        "latitude": "22.8631000",
        "longitude": "87.3537000"
    },
    {
        "circlename": "West Bengal Circle",
        "regionname": "South Bengal Region",
        "divisionname": "Midnapore Division",
        "officename": "Bandar BO",
        "pincode": "721212",
        "officetype": "BO",
        "delivery": "Delivery",
        "district": "HOOGHLY",
        "statename": "WEST BENGAL",
        "latitude": "22.6637000",
        "longitude": "87.7468000"
    },
    {
        "circlename": "West Bengal Circle",
        "regionname": "South Bengal Region",
        "divisionname": "Midnapore Division",
        "officename": "Jaynagar BO",
        "pincode": "721212",
        "officetype": "BO",
        "delivery": "Delivery",
        "district": "MEDINIPUR WEST",
        "statename": "WEST BENGAL",
        "latitude": "22.6637000",
        "longitude": "87.7468000"
    },
    {
        "circlename": "West Bengal Circle",
        "regionname": "South Bengal Region",
        "divisionname": "Midnapore Division",
        "officename": "Jotekanuram Garh BO",
        "pincode": "721212",
        "officetype": "BO",
        "delivery": "Delivery",
        "district": "MEDINIPUR WEST",
        "statename": "WEST BENGAL",
        "latitude": "22.6637000",
        "longitude": "87.7468000"
    },
    {
        "circlename": "West Bengal Circle",
        "regionname": "South Bengal Region",
        "divisionname": "Midnapore Division",
        "officename": "Mansuka BO",
        "pincode": "721212",
        "officetype": "BO",
        "delivery": "Delivery",
        "district": "MEDINIPUR WEST",
        "statename": "WEST BENGAL",
        "latitude": "22.6637000",
        "longitude": "87.7468000"
    },
    {
        "circlename": "West Bengal Circle",
        "regionname": "South Bengal Region",
        "divisionname": "Midnapore Division",
        "officename": "Rathipur BO",
        "pincode": "721212",
        "officetype": "BO",
        "delivery": "Delivery",
        "district": "MEDINIPUR WEST",
        "statename": "WEST BENGAL",
        "latitude": "22.6637000",
        "longitude": "87.7468000"
    },
    {
        "circlename": "West Bengal Circle",
        "regionname": "South Bengal Region",
        "divisionname": "Midnapore Division",
        "officename": "Hijli Cooperative BO",
        "pincode": "721306",
        "officetype": "BO",
        "delivery": "Delivery",
        "district": "MEDINIPUR WEST",
        "statename": "WEST BENGAL",
        "latitude": "22.3145000",
        "longitude": "87.3090000"
    },
    {
        "circlename": "West Bengal Circle",
        "regionname": "South Bengal Region",
        "divisionname": "Midnapore Division",
        "officename": "Chhotonakdona BO",
        "pincode": "721157",
        "officetype": "BO",
        "delivery": "Delivery",
        "district": "MEDINIPUR WEST",
        "statename": "WEST BENGAL",
        "latitude": "22.8240000",
        "longitude": "87.2407000"
    },
    {
        "circlename": "West Bengal Circle",
        "regionname": "South Bengal Region",
        "divisionname": "Midnapore Division",
        "officename": "Gobardhanpur BO",
        "pincode": "721131",
        "officetype": "BO",
        "delivery": "Delivery",
        "district": "MEDINIPUR WEST",
        "statename": "WEST BENGAL",
        "latitude": "22.3956000",
        "longitude": "87.7419000"
    },
    {
        "circlename": "West Bengal Circle",
        "regionname": "South Bengal Region",
        "divisionname": "Midnapore Division",
        "officename": "Ragpur BO",
        "pincode": "721131",
        "officetype": "BO",
        "delivery": "Delivery",
        "district": "MEDINIPUR WEST",
        "statename": "WEST BENGAL",
        "latitude": "22.3956000",
        "longitude": "87.7419000"
    },
    {
        "circlename": "West Bengal Circle",
        "regionname": "South Bengal Region",
        "divisionname": "Midnapore Division",
        "officename": "Saharda BO",
        "pincode": "721131",
        "officetype": "BO",
        "delivery": "Delivery",
        "district": "MEDINIPUR WEST",
        "statename": "WEST BENGAL",
        "latitude": "22.3956000",
        "longitude": "87.7419000"
    },
    {
        "circlename": "West Bengal Circle",
        "regionname": "South Bengal Region",
        "divisionname": "Midnapore Division",
        "officename": "Matkatpur BO",
        "pincode": "721305",
        "officetype": "BO",
        "delivery": "Delivery",
        "district": "MEDINIPUR WEST",
        "statename": "WEST BENGAL",
        "latitude": "22.3304090",
        "longitude": "87.3180990"
    },
    {
        "circlename": "West Bengal Circle",
        "regionname": "South Bengal Region",
        "divisionname": "Midnapore Division",
        "officename": "Beluria BO",
        "pincode": "721155",
        "officetype": "BO",
        "delivery": "Delivery",
        "district": "MEDINIPUR WEST",
        "statename": "WEST BENGAL",
        "latitude": "22.2415000",
        "longitude": "87.6719000"
    },
    {
        "circlename": "West Bengal Circle",
        "regionname": "South Bengal Region",
        "divisionname": "Midnapore Division",
        "officename": "Sabong Shyamsundarpur BO",
        "pincode": "721155",
        "officetype": "BO",
        "delivery": "Delivery",
        "district": "MEDINIPUR WEST",
        "statename": "WEST BENGAL",
        "latitude": "22.2415000",
        "longitude": "87.6719000"
    },
    {
        "circlename": "West Bengal Circle",
        "regionname": "South Bengal Region",
        "divisionname": "Midnapore Division",
        "officename": "Ghoshpur BO",
        "pincode": "721150",
        "officetype": "BO",
        "delivery": "Delivery",
        "district": "MEDINIPUR WEST",
        "statename": "WEST BENGAL",
        "latitude": "22.5538000",
        "longitude": "87.4641000"
    },
    {
        "circlename": "West Bengal Circle",
        "regionname": "South Bengal Region",
        "divisionname": "Midnapore Division",
        "officename": "Parsura BO",
        "pincode": "721150",
        "officetype": "BO",
        "delivery": "Delivery",
        "district": "MEDINIPUR WEST",
        "statename": "WEST BENGAL",
        "latitude": "22.5538000",
        "longitude": "87.4641000"
    },
    {
        "circlename": "West Bengal Circle",
        "regionname": "South Bengal Region",
        "divisionname": "Midnapore Division",
        "officename": "Barkola BO",
        "pincode": "721301",
        "officetype": "BO",
        "delivery": "Delivery",
        "district": "MEDINIPUR WEST",
        "statename": "WEST BENGAL",
        "latitude": "22.3460000",
        "longitude": "87.2320000"
    },
    {
        "circlename": "West Bengal Circle",
        "regionname": "South Bengal Region",
        "divisionname": "Midnapore Division",
        "officename": "Shyamchak BO",
        "pincode": "721301",
        "officetype": "BO",
        "delivery": "Delivery",
        "district": "MEDINIPUR WEST",
        "statename": "WEST BENGAL",
        "latitude": "22.3460000",
        "longitude": "87.2320000"
    },
    {
        "circlename": "West Bengal Circle",
        "regionname": "South Bengal Region",
        "divisionname": "Midnapore Division",
        "officename": "Kuran BO",
        "pincode": "721222",
        "officetype": "BO",
        "delivery": "Delivery",
        "district": "MEDINIPUR WEST",
        "statename": "WEST BENGAL",
        "latitude": "22.7252000",
        "longitude": "87.6754000"
    },
    {
        "circlename": "West Bengal Circle",
        "regionname": "South Bengal Region",
        "divisionname": "Midnapore Division",
        "officename": "Hodal Srirampur BO",
        "pincode": "721232",
        "officetype": "BO",
        "delivery": "Delivery",
        "district": "MEDINIPUR WEST",
        "statename": "WEST BENGAL",
        "latitude": "22.7065000",
        "longitude": "87.6162000"
    },
    {
        "circlename": "West Bengal Circle",
        "regionname": "South Bengal Region",
        "divisionname": "Midnapore Division",
        "officename": "Bikrampur BO",
        "pincode": "721136",
        "officetype": "BO",
        "delivery": "Delivery",
        "district": "MEDINIPUR WEST",
        "statename": "WEST BENGAL",
        "latitude": "22.4461000",
        "longitude": "87.6297000"
    },
    {
        "circlename": "West Bengal Circle",
        "regionname": "South Bengal Region",
        "divisionname": "Midnapore Division",
        "officename": "Kalikageria BO",
        "pincode": "721136",
        "officetype": "BO",
        "delivery": "Delivery",
        "district": "MEDINIPUR WEST",
        "statename": "WEST BENGAL",
        "latitude": "22.4461000",
        "longitude": "87.6297000"
    },
    {
        "circlename": "West Bengal Circle",
        "regionname": "South Bengal Region",
        "divisionname": "Midnapore Division",
        "officename": "Kankra Atmaram BO",
        "pincode": "721136",
        "officetype": "BO",
        "delivery": "Delivery",
        "district": "MEDINIPUR WEST",
        "statename": "WEST BENGAL",
        "latitude": "22.4461000",
        "longitude": "87.6297000"
    },
    {
        "circlename": "West Bengal Circle",
        "regionname": "South Bengal Region",
        "divisionname": "Midnapore Division",
        "officename": "Khunkhunia BO",
        "pincode": "721166",
        "officetype": "BO",
        "delivery": "Delivery",
        "district": "MEDINIPUR WEST",
        "statename": "WEST BENGAL",
        "latitude": "22.4461000",
        "longitude": "87.5618000"
    },
    {
        "circlename": "West Bengal Circle",
        "regionname": "South Bengal Region",
        "divisionname": "Midnapore Division",
        "officename": "Jagul BO",
        "pincode": "721149",
        "officetype": "BO",
        "delivery": "Delivery",
        "district": "MEDINIPUR WEST",
        "statename": "WEST BENGAL",
        "latitude": "22.3810000",
        "longitude": "87.4401000"
    },
    {
        "circlename": "West Bengal Circle",
        "regionname": "South Bengal Region",
        "divisionname": "Midnapore Division",
        "officename": "Janardanpur BO",
        "pincode": "721149",
        "officetype": "BO",
        "delivery": "Delivery",
        "district": "MEDINIPUR WEST",
        "statename": "WEST BENGAL",
        "latitude": "22.3810000",
        "longitude": "87.4401000"
    },
    {
        "circlename": "West Bengal Circle",
        "regionname": "South Bengal Region",
        "divisionname": "Midnapore Division",
        "officename": "Kanikha BO",
        "pincode": "721149",
        "officetype": "BO",
        "delivery": "Delivery",
        "district": "MEDINIPUR WEST",
        "statename": "WEST BENGAL",
        "latitude": "22.3810000",
        "longitude": "87.4401000"
    },
    {
        "circlename": "West Bengal Circle",
        "regionname": "South Bengal Region",
        "divisionname": "Midnapore Division",
        "officename": "Krishnanagar BO",
        "pincode": "721149",
        "officetype": "BO",
        "delivery": "Delivery",
        "district": "MEDINIPUR WEST",
        "statename": "WEST BENGAL",
        "latitude": "22.3810000",
        "longitude": "87.4401000"
    },
    {
        "circlename": "West Bengal Circle",
        "regionname": "South Bengal Region",
        "divisionname": "Midnapore Division",
        "officename": "Paparara BO",
        "pincode": "721149",
        "officetype": "BO",
        "delivery": "Delivery",
        "district": "MEDINIPUR WEST",
        "statename": "WEST BENGAL",
        "latitude": "22.3810000",
        "longitude": "87.4401000"
    },
    {
        "circlename": "West Bengal Circle",
        "regionname": "South Bengal Region",
        "divisionname": "Midnapore Division",
        "officename": "Tentulmuriuttar BO",
        "pincode": "721149",
        "officetype": "BO",
        "delivery": "Delivery",
        "district": "MEDINIPUR WEST",
        "statename": "WEST BENGAL",
        "latitude": "22.3810000",
        "longitude": "87.4401000"
    },
    {
        "circlename": "West Bengal Circle",
        "regionname": "South Bengal Region",
        "divisionname": "Midnapore Division",
        "officename": "Aloke Kendra BO",
        "pincode": "721156",
        "officetype": "BO",
        "delivery": "Delivery",
        "district": "MEDINIPUR WEST",
        "statename": "WEST BENGAL",
        "latitude": "22.4308890",
        "longitude": "87.3214910"
    },
    {
        "circlename": "West Bengal Circle",
        "regionname": "South Bengal Region",
        "divisionname": "Midnapore Division",
        "officename": "Biswanathpur Patna BO",
        "pincode": "721156",
        "officetype": "BO",
        "delivery": "Delivery",
        "district": "MEDINIPUR WEST",
        "statename": "WEST BENGAL",
        "latitude": "22.4308890",
        "longitude": "87.3214910"
    },
    {
        "circlename": "West Bengal Circle",
        "regionname": "South Bengal Region",
        "divisionname": "Midnapore Division",
        "officename": "Boulasini BO",
        "pincode": "721156",
        "officetype": "BO",
        "delivery": "Delivery",
        "district": "MEDINIPUR WEST",
        "statename": "WEST BENGAL",
        "latitude": "22.4308890",
        "longitude": "87.3214910"
    },
    {
        "circlename": "West Bengal Circle",
        "regionname": "South Bengal Region",
        "divisionname": "Midnapore Division",
        "officename": "Panchgeria BO",
        "pincode": "721156",
        "officetype": "BO",
        "delivery": "Delivery",
        "district": "MEDINIPUR WEST",
        "statename": "WEST BENGAL",
        "latitude": "22.4308890",
        "longitude": "87.3214910"
    },
    {
        "circlename": "West Bengal Circle",
        "regionname": "South Bengal Region",
        "divisionname": "Midnapore Division",
        "officename": "Saiyadbali BO",
        "pincode": "721260",
        "officetype": "BO",
        "delivery": "Delivery",
        "district": "MEDINIPUR WEST",
        "statename": "WEST BENGAL",
        "latitude": "22.6388000",
        "longitude": "87.4977000"
    },
    {
        "circlename": "West Bengal Circle",
        "regionname": "South Bengal Region",
        "divisionname": "Midnapore Division",
        "officename": "Krishnapriya BO",
        "pincode": "721140",
        "officetype": "BO",
        "delivery": "Delivery",
        "district": "MEDINIPUR WEST",
        "statename": "WEST BENGAL",
        "latitude": "22.2831000",
        "longitude": "87.5865000"
    },
    {
        "circlename": "West Bengal Circle",
        "regionname": "South Bengal Region",
        "divisionname": "Midnapore Division",
        "officename": "Mundumari BO",
        "pincode": "721140",
        "officetype": "BO",
        "delivery": "Delivery",
        "district": "MEDINIPUR WEST",
        "statename": "WEST BENGAL",
        "latitude": "22.2831000",
        "longitude": "87.5865000"
    },
    {
        "circlename": "West Bengal Circle",
        "regionname": "South Bengal Region",
        "divisionname": "Midnapore Division",
        "officename": "Uttarbarh BO",
        "pincode": "721140",
        "officetype": "BO",
        "delivery": "Delivery",
        "district": "MEDINIPUR WEST",
        "statename": "WEST BENGAL",
        "latitude": "22.2831000",
        "longitude": "87.5865000"
    },
    {
        "circlename": "West Bengal Circle",
        "regionname": "South Bengal Region",
        "divisionname": "Midnapore Division",
        "officename": "Chaulkuri BO",
        "pincode": "721144",
        "officetype": "BO",
        "delivery": "Delivery",
        "district": "MEDINIPUR WEST",
        "statename": "WEST BENGAL",
        "latitude": "22.3842000",
        "longitude": "87.7445000"
    },
    {
        "circlename": "West Bengal Circle",
        "regionname": "South Bengal Region",
        "divisionname": "Midnapore Division",
        "officename": "Fatechak BO",
        "pincode": "721144",
        "officetype": "BO",
        "delivery": "Delivery",
        "district": "MEDINIPUR WEST",
        "statename": "WEST BENGAL",
        "latitude": "22.3842000",
        "longitude": "87.7445000"
    },
    {
        "circlename": "West Bengal Circle",
        "regionname": "South Bengal Region",
        "divisionname": "Midnapore Division",
        "officename": "Rambhadrapur BO",
        "pincode": "721144",
        "officetype": "BO",
        "delivery": "Delivery",
        "district": "MEDINIPUR WEST",
        "statename": "WEST BENGAL",
        "latitude": "22.3842000",
        "longitude": "87.7445000"
    },
    {
        "circlename": "West Bengal Circle",
        "regionname": "South Bengal Region",
        "divisionname": "Midnapore Division",
        "officename": "Ruinan BO",
        "pincode": "721144",
        "officetype": "BO",
        "delivery": "Delivery",
        "district": "MEDINIPUR WEST",
        "statename": "WEST BENGAL",
        "latitude": "22.3842000",
        "longitude": "87.7445000"
    },
    {
        "circlename": "West Bengal Circle",
        "regionname": "South Bengal Region",
        "divisionname": "Midnapore Division",
        "officename": "Taladiha BO",
        "pincode": "721144",
        "officetype": "BO",
        "delivery": "Delivery",
        "district": "MEDINIPUR EAST",
        "statename": "WEST BENGAL",
        "latitude": "22.3842000",
        "longitude": "87.7445000"
    },
    {
        "circlename": "West Bengal Circle",
        "regionname": "South Bengal Region",
        "divisionname": "Midnapore Division",
        "officename": "Uttar Eral BO",
        "pincode": "721144",
        "officetype": "BO",
        "delivery": "Delivery",
        "district": "MEDINIPUR WEST",
        "statename": "WEST BENGAL",
        "latitude": "22.3842000",
        "longitude": "87.7445000"
    },
    {
        "circlename": "West Bengal Circle",
        "regionname": "South Bengal Region",
        "divisionname": "Midnapore Division",
        "officename": "Barpara BO",
        "pincode": "721253",
        "officetype": "BO",
        "delivery": "Delivery",
        "district": "MEDINIPUR WEST",
        "statename": "WEST BENGAL",
        "latitude": "22.7021500",
        "longitude": "87.3378000"
    },
    {
        "circlename": "West Bengal Circle",
        "regionname": "South Bengal Region",
        "divisionname": "Midnapore Division",
        "officename": "Khamarbarh BO",
        "pincode": "721253",
        "officetype": "BO",
        "delivery": "Delivery",
        "district": "MEDINIPUR WEST",
        "statename": "WEST BENGAL",
        "latitude": "22.7021500",
        "longitude": "87.3378000"
    },
    {
        "circlename": "West Bengal Circle",
        "regionname": "South Bengal Region",
        "divisionname": "Midnapore Division",
        "officename": "Mangalbandhi BO",
        "pincode": "721253",
        "officetype": "BO",
        "delivery": "Delivery",
        "district": "MEDINIPUR WEST",
        "statename": "WEST BENGAL",
        "latitude": "22.7021500",
        "longitude": "87.3378000"
    },