[
    {
        "State":"Colorado",
        "StateAbbr":"CO",
        "City":"Aurora",
        "County":"Adams",
        "ZipCode":"80011",
        "Latitude":39.7378,
        "Longitude":-104.8152
    },
    {
        "State":"Colorado",
        "StateAbbr":"CO",
        "City":"Aurora",
        "County":"Adams",
        "ZipCode":"80019",
        "Latitude":39.7656,
        "Longitude":-104.7069
    },
    {
        "State":"Colorado",
        "StateAbbr":"CO",
        "City":"Commerce City",
        "County":"Adams",
        "ZipCode":"80022",
        "Latitude":39.8259,
        "Longitude":-104.9113
    },
    {
        "State":"Colorado",
        "StateAbbr":"CO",
        "City":"Dupont",
        "County":"Adams",
        "ZipCode":"80024",
        "Latitude":39.8445,
        "Longitude":-104.9188
    },
    {
        "State":"Colorado",
        "StateAbbr":"CO",
        "City":"Westminster",
        "County":"Adams",
        "ZipCode":"80030",
        "Latitude":39.8302,
        "Longitude":-105.037
    },
    {
        "State":"Colorado",
        "StateAbbr":"CO",
        "City":"Westminster",
        "County":"Adams",
        "ZipCode":"80031",
        "Latitude":39.8753,
        "Longitude":-105.0345
    },
    {
        "State":"Colorado",
        "StateAbbr":"CO",
        "City":"Westminster",
        "County":"Adams",
        "ZipCode":"80035",
        "Latitude":39.8367,
        "Longitude":-105.0372
    },
    {
        "State":"Colorado",
        "StateAbbr":"CO",
        "City":"Westminster",
        "County":"Adams",
        "ZipCode":"80036",
        "Latitude":39.8367,
        "Longitude":-105.0372
    },
    {
        "State":"Colorado",
        "StateAbbr":"CO",
        "City":"Commerce City",
        "County":"Adams",
        "ZipCode":"80037",
        "Latitude":39.8083,
        "Longitude":-104.9339
    },
    {
        "State":"Colorado",
        "StateAbbr":"CO",
        "City":"Aurora",
        "County":"Adams",
        "ZipCode":"80040",
        "Latitude":39.7294,
        "Longitude":-104.8319
    },
    {
        "State":"Colorado",
        "StateAbbr":"CO",
        "City":"Aurora",
        "County":"Adams",
        "ZipCode":"80042",
        "Latitude":39.7294,
        "Longitude":-104.8319
    },
    {
        "State":"Colorado",
        "StateAbbr":"CO",
        "City":"Aurora",
        "County":"Adams",
        "ZipCode":"80045",
        "Latitude":39.7467,
        "Longitude":-104.8384
    },
    {
        "State":"Colorado",
        "StateAbbr":"CO",
        "City":"Bennett",
        "County":"Adams",
        "ZipCode":"80102",
        "Latitude":39.7589,
        "Longitude":-104.4275
    },
    {
        "State":"Colorado",
        "StateAbbr":"CO",
        "City":"Strasburg",
        "County":"Adams",
        "ZipCode":"80136",
        "Latitude":39.7814,
        "Longitude":-104.2683
    },
    {
        "State":"Colorado",
        "StateAbbr":"CO",
        "City":"Watkins",
        "County":"Adams",
        "ZipCode":"80137",
        "Latitude":39.7623,
        "Longitude":-104.5834
    },
    {
        "State":"Colorado",
        "StateAbbr":"CO",
        "City":"Denver",
        "County":"Adams",
        "ZipCode":"80221",
        "Latitude":39.838,
        "Longitude":-104.9988
    },
    {
        "State":"Colorado",
        "StateAbbr":"CO",
        "City":"Denver",
        "County":"Adams",
        "ZipCode":"80229",
        "Latitude":39.8671,
        "Longitude":-104.9227
    },
    {
        "State":"Colorado",
        "StateAbbr":"CO",
        "City":"Denver",
        "County":"Adams",
        "ZipCode":"80233",
        "Latitude":39.9015,
        "Longitude":-104.9407
    },
    {
        "State":"Colorado",
        "StateAbbr":"CO",
        "City":"Denver",
        "County":"Adams",
        "ZipCode":"80234",
        "Latitude":39.9108,
        "Longitude":-105.0109
    },
    {
        "State":"Colorado",
        "StateAbbr":"CO",
        "City":"Thornton",
        "County":"Adams",
        "ZipCode":"80241",
        "Latitude":39.868,
        "Longitude":-104.9719
    },
    {
        "State":"Colorado",
        "StateAbbr":"CO",
        "City":"Denver",
        "County":"Adams",
        "ZipCode":"80260",
        "Latitude":39.8672,
        "Longitude":-105.0041
    },
    {
        "State":"Colorado",
        "StateAbbr":"CO",
        "City":"Brighton",
        "County":"Adams",
        "ZipCode":"80601",
        "Latitude":39.943,
        "Longitude":-104.7866
    },
    {
        "State":"Colorado",
        "StateAbbr":"CO",
        "City":"Brighton",
        "County":"Adams",
        "ZipCode":"80602",
        "Latitude":39.9636,
        "Longitude":-104.9072
    },
    {
        "State":"Colorado",
        "StateAbbr":"CO",
        "City":"Brighton",
        "County":"Adams",
        "ZipCode":"80603",
        "Latitude":39.9515,
        "Longitude":-104.7746
    },
    {
        "State":"Colorado",
        "StateAbbr":"CO",
        "City":"Eastlake",
        "County":"Adams",
        "ZipCode":"80614",
        "Latitude":39.9239,
        "Longitude":-104.9614
    },
    {
        "State":"Colorado",
        "StateAbbr":"CO",
        "City":"Henderson",
        "County":"Adams",
        "ZipCode":"80640",
        "Latitude":39.8983,
        "Longitude":-104.8718
    },
    {
        "State":"Colorado",
        "StateAbbr":"CO",
        "City":"Alamosa",
        "County":"Alamosa",
        "ZipCode":"81101",
        "Latitude":37.4703,
        "Longitude":-105.8786
    },
    {
        "State":"Colorado",
        "StateAbbr":"CO",
        "City":"Alamosa",
        "County":"Alamosa",
        "ZipCode":"81102",
        "Latitude":37.476,
        "Longitude":-105.8818
    },
    {
        "State":"Colorado",
        "StateAbbr":"CO",
        "City":"Hooper",
        "County":"Alamosa",
        "ZipCode":"81136",
        "Latitude":37.7232,
        "Longitude":-105.8712
    },
    {
        "State":"Colorado",
        "StateAbbr":"CO",
        "City":"Mosca",
        "County":"Alamosa",
        "ZipCode":"81146",
        "Latitude":37.6358,
        "Longitude":-105.8069
    },
    {
        "State":"Colorado",
        "StateAbbr":"CO",
        "City":"Aurora",
        "County":"Arapahoe",
        "ZipCode":"80010",
        "Latitude":39.7368,
        "Longitude":-104.8646
    },
    {
        "State":"Colorado",
        "StateAbbr":"CO",
        "City":"Aurora",
        "County":"Arapahoe",
        "ZipCode":"80012",
        "Latitude":39.6987,
        "Longitude":-104.8377
    },
    {
        "State":"Colorado",
        "StateAbbr":"CO",
        "City":"Aurora",
        "County":"Arapahoe",
        "ZipCode":"80013",
        "Latitude":39.6575,
        "Longitude":-104.7846
    },
    {
        "State":"Colorado",
        "StateAbbr":"CO",
        "City":"Aurora",
        "County":"Arapahoe",
        "ZipCode":"80014",
        "Latitude":39.6662,
        "Longitude":-104.835
    },
    {
        "State":"Colorado",
        "StateAbbr":"CO",
        "City":"Aurora",
        "County":"Arapahoe",
        "ZipCode":"80015",
        "Latitude":39.6255,
        "Longitude":-104.7874
    },
    {
        "State":"Colorado",
        "StateAbbr":"CO",
        "City":"Aurora",
        "County":"Arapahoe",
        "ZipCode":"80016",
        "Latitude":39.6012,
        "Longitude":-104.7394
    },
    {
        "State":"Colorado",
        "StateAbbr":"CO",
        "City":"Aurora",
        "County":"Arapahoe",
        "ZipCode":"80017",
        "Latitude":39.6948,
        "Longitude":-104.7881
    },
    {
        "State":"Colorado",
        "StateAbbr":"CO",
        "City":"Aurora",
        "County":"Arapahoe",
        "ZipCode":"80018",
        "Latitude":39.7102,
        "Longitude":-104.7071
    },
    {
        "State":"Colorado",
        "StateAbbr":"CO",
        "City":"Aurora",
        "County":"Arapahoe",
        "ZipCode":"80041",
        "Latitude":39.7388,
        "Longitude":-104.4083
    },
    {
        "State":"Colorado",
        "StateAbbr":"CO",
        "City":"Aurora",
        "County":"Arapahoe",
        "ZipCode":"80044",
        "Latitude":39.7388,
        "Longitude":-104.4083
    },
    {
        "State":"Colorado",
        "StateAbbr":"CO",
        "City":"Aurora",
        "County":"Arapahoe",
        "ZipCode":"80046",
        "Latitude":39.7388,
        "Longitude":-104.4083
    },
    {
        "State":"Colorado",
        "StateAbbr":"CO",
        "City":"Aurora",
        "County":"Arapahoe",
        "ZipCode":"80047",
        "Latitude":39.7388,
        "Longitude":-104.4083
    },
    {
        "State":"Colorado",
        "StateAbbr":"CO",
        "City":"Byers",
        "County":"Arapahoe",
        "ZipCode":"80103",
        "Latitude":39.6985,
        "Longitude":-104.2019
    },
    {
        "State":"Colorado",
        "StateAbbr":"CO",
        "City":"Deer Trail",
        "County":"Arapahoe",
        "ZipCode":"80105",
        "Latitude":39.5931,
        "Longitude":-104.068
    },
    {
        "State":"Colorado",
        "StateAbbr":"CO",
        "City":"Englewood",
        "County":"Arapahoe",
        "ZipCode":"80110",
        "Latitude":39.6463,
        "Longitude":-105.0092
    },
    {
        "State":"Colorado",
        "StateAbbr":"CO",
        "City":"Englewood",
        "County":"Arapahoe",
        "ZipCode":"80111",
        "Latitude":39.6123,
        "Longitude":-104.8799
    },
    {
        "State":"Colorado",
        "StateAbbr":"CO",
        "City":"Englewood",
        "County":"Arapahoe",
        "ZipCode":"80112",
        "Latitude":39.5805,
        "Longitude":-104.9011
    },
    {
        "State":"Colorado",
        "StateAbbr":"CO",
        "City":"Englewood",
        "County":"Arapahoe",
        "ZipCode":"80113",
        "Latitude":39.6405,
        "Longitude":-104.9614
    },
    {
        "State":"Colorado",
        "StateAbbr":"CO",
        "City":"Littleton",
        "County":"Arapahoe",
        "ZipCode":"80120",
        "Latitude":39.5994,
        "Longitude":-105.0044
    },
    {
        "State":"Colorado",
        "StateAbbr":"CO",
        "City":"Littleton",
        "County":"Arapahoe",
        "ZipCode":"80121",
        "Latitude":39.6111,
        "Longitude":-104.9532
    },
    {
        "State":"Colorado",
        "StateAbbr":"CO",
        "City":"Littleton",
        "County":"Arapahoe",
        "ZipCode":"80122",
        "Latitude":39.5814,
        "Longitude":-104.9557
    },
    {
        "State":"Colorado",
        "StateAbbr":"CO",
        "City":"Englewood",
        "County":"Arapahoe",
        "ZipCode":"80150",
        "Latitude":39.6478,
        "Longitude":-104.9878
    },
    {
        "State":"Colorado",
        "StateAbbr":"CO",
        "City":"Englewood",
        "County":"Arapahoe",
        "ZipCode":"80151",
        "Latitude":39.6478,
        "Longitude":-104.9878
    },
    {
        "State":"Colorado",
        "StateAbbr":"CO",
        "City":"Englewood",
        "County":"Arapahoe",
        "ZipCode":"80155",
        "Latitude":39.6478,
        "Longitude":-104.9878
    },
    {
        "State":"Colorado",
        "StateAbbr":"CO",
        "City":"Littleton",
        "County":"Arapahoe",
        "ZipCode":"80160",
        "Latitude":39.6133,
        "Longitude":-105.0166
    },
    {
        "State":"Colorado",
        "StateAbbr":"CO",
        "City":"Littleton",
        "County":"Arapahoe",
        "ZipCode":"80161",
        "Latitude":39.6133,
        "Longitude":-105.0166
    },
    {
        "State":"Colorado",
        "StateAbbr":"CO",
        "City":"Littleton",
        "County":"Arapahoe",
        "ZipCode":"80165",
        "Latitude":39.6133,
        "Longitude":-105.0166
    },
    {
        "State":"Colorado",
        "StateAbbr":"CO",
        "City":"Littleton",
        "County":"Arapahoe",
        "ZipCode":"80166",
        "Latitude":39.6133,
        "Longitude":-105.0166
    },
    {
        "State":"Colorado",
        "StateAbbr":"CO",
        "City":"Arboles",
        "County":"Archuleta",
        "ZipCode":"81121",
        "Latitude":37.0281,
        "Longitude":-107.4192
    },
    {
        "State":"Colorado",
        "StateAbbr":"CO",
        "City":"Chromo",
        "County":"Archuleta",
        "ZipCode":"81128",
        "Latitude":37.0364,
        "Longitude":-106.8434
    },
    {
        "State":"Colorado",
        "StateAbbr":"CO",
        "City":"Pagosa Springs",
        "County":"Archuleta",
        "ZipCode":"81147",
        "Latitude":37.2523,
        "Longitude":-107.0385
    },
    {
        "State":"Colorado",
        "StateAbbr":"CO",
        "City":"Pagosa Springs",
        "County":"Archuleta",
        "ZipCode":"81157",
        "Latitude":37.2694,
        "Longitude":-107.0098
    },
    {
        "State":"Colorado",
        "StateAbbr":"CO",
        "City":"Campo",
        "County":"Baca",
        "ZipCode":"81029",
        "Latitude":37.1195,
        "Longitude":-102.5464
    },
    {
        "State":"Colorado",
        "StateAbbr":"CO",
        "City":"Pritchett",
        "County":"Baca",
        "ZipCode":"81064",
        "Latitude":37.2723,
        "Longitude":-102.9145
    },
    {
        "State":"Colorado",
        "StateAbbr":"CO",
        "City":"Springfield",
        "County":"Baca",
        "ZipCode":"81073",
        "Latitude":37.4067,
        "Longitude":-102.6173
    },
    {
        "State":"Colorado",
        "StateAbbr":"CO",
        "City":"Two Buttes",
        "County":"Baca",
        "ZipCode":"81084",
        "Latitude":37.5214,
        "Longitude":-102.4332
    },
    {
        "State":"Colorado",
        "StateAbbr":"CO",
        "City":"Vilas",
        "County":"Baca",
        "ZipCode":"81087",
        "Latitude":37.373,
        "Longitude":-102.4437
    },
    {
        "State":"Colorado",
        "StateAbbr":"CO",
        "City":"Walsh",
        "County":"Baca",
        "ZipCode":"81090",
        "Latitude":37.3521,
        "Longitude":-102.2537
    },
    {
        "State":"Colorado",
        "StateAbbr":"CO",
        "City":"Fort Lyon",
        "County":"Bent",
        "ZipCode":"81038",
        "Latitude":37.9555,
        "Longitude":-103.0725
    },
    {
        "State":"Colorado",
        "StateAbbr":"CO",
        "City":"Hasty",
        "County":"Bent",
        "ZipCode":"81044",
        "Latitude":37.959,
        "Longitude":-103.015
    },
    {
        "State":"Colorado",
        "StateAbbr":"CO",
        "City":"Las Animas",
        "County":"Bent",
        "ZipCode":"81054",
        "Latitude":37.923,
        "Longitude":-103.0884
    },
    {
        "State":"Colorado",
        "StateAbbr":"CO",
        "City":"Mc Clave",
        "County":"Bent",
        "ZipCode":"81057",
        "Latitude":38.085,
        "Longitude":-102.8869
    },
    {
        "State":"Colorado",
        "StateAbbr":"CO",
        "City":"Broomfield",
        "County":"Boulder",
        "ZipCode":"80020",
        "Latitude":39.9245,
        "Longitude":-105.0609
    },
    {
        "State":"Colorado",
        "StateAbbr":"CO",
        "City":"Eldorado Springs",
        "County":"Boulder",
        "ZipCode":"80025",
        "Latitude":39.9324,
        "Longitude":-105.288
    },
    {
        "State":"Colorado",
        "StateAbbr":"CO",
        "City":"Lafayette",
        "County":"Boulder",
        "ZipCode":"80026",
        "Latitude":39.998,
        "Longitude":-105.0963
    },
    {
        "State":"Colorado",
        "StateAbbr":"CO",
        "City":"Louisville",
        "County":"Boulder",
        "ZipCode":"80027",
        "Latitude":39.9789,
        "Longitude":-105.1456
    },
    {
        "State":"Colorado",
        "StateAbbr":"CO",
        "City":"Broomfield",
        "County":"Boulder",
        "ZipCode":"80038",
        "Latitude":39.9205,
        "Longitude":-105.0867
    },
    {
        "State":"Colorado",
        "StateAbbr":"CO",
        "City":"Boulder",
        "County":"Boulder",
        "ZipCode":"80301",
        "Latitude":40.0497,
        "Longitude":-105.2143
    },
    {
        "State":"Colorado",
        "StateAbbr":"CO",
        "City":"Boulder",
        "County":"Boulder",
        "ZipCode":"80302",
        "Latitude":40.0172,
        "Longitude":-105.2851
    },
    {
        "State":"Colorado",
        "StateAbbr":"CO",
        "City":"Boulder",
        "County":"Boulder",
        "ZipCode":"80303",
        "Latitude":39.9914,
        "Longitude":-105.2392
    },
    {
        "State":"Colorado",
        "StateAbbr":"CO",
        "City":"Boulder",
        "County":"Boulder",
        "ZipCode":"80304",
        "Latitude":40.0375,
        "Longitude":-105.2771
    },
    {
        "State":"Colorado",
        "StateAbbr":"CO",
        "City":"Boulder",
        "County":"Boulder",
        "ZipCode":"80305",
        "Latitude":39.9807,
        "Longitude":-105.2531
    },
    {
        "State":"Colorado",
        "StateAbbr":"CO",
        "City":"Boulder",
        "County":"Boulder",
        "ZipCode":"80306",
        "Latitude":40.1022,
        "Longitude":-105.3847
    },
    {
        "State":"Colorado",
        "StateAbbr":"CO",
        "City":"Boulder",
        "County":"Boulder",
        "ZipCode":"80307",
        "Latitude":40.0878,
        "Longitude":-105.3735
    },
    {
        "State":"Colorado",
        "StateAbbr":"CO",
        "City":"Boulder",
        "County":"Boulder",
        "ZipCode":"80308",
        "Latitude":40.0277,
        "Longitude":-105.3868
    },
    {
        "State":"Colorado",
        "StateAbbr":"CO",
        "City":"Boulder",
        "County":"Boulder",
        "ZipCode":"80309",
        "Latitude":40.015,
        "Longitude":-105.2705
    },
    {
        "State":"Colorado",
        "StateAbbr":"CO",
        "City":"Boulder",
        "County":"Boulder",
        "ZipCode":"80310",
        "Latitude":40.015,
        "Longitude":-105.2705
    },
    {
        "State":"Colorado",
        "StateAbbr":"CO",
        "City":"Boulder",
        "County":"Boulder",
        "ZipCode":"80314",
        "Latitude":40.0878,
        "Longitude":-105.3735
    },
    {
        "State":"Colorado",
        "StateAbbr":"CO",
        "City":"Jamestown",
        "County":"Boulder",
        "ZipCode":"80455",
        "Latitude":40.1155,
        "Longitude":-105.3886
    },
    {
        "State":"Colorado",
        "StateAbbr":"CO",
        "City":"Nederland",
        "County":"Boulder",
        "ZipCode":"80466",
        "Latitude":39.9703,
        "Longitude":-105.4813
    },
    {
        "State":"Colorado",
        "StateAbbr":"CO",
        "City":"Pinecliffe",
        "County":"Boulder",
        "ZipCode":"80471",
        "Latitude":39.9319,
        "Longitude":-105.4283
    },
    {
        "State":"Colorado",
        "StateAbbr":"CO",
        "City":"Ward",
        "County":"Boulder",
        "ZipCode":"80481",
        "Latitude":40.0726,
        "Longitude":-105.508
    },
    {
        "State":"Colorado",
        "StateAbbr":"CO",
        "City":"Longmont",
        "County":"Boulder",
        "ZipCode":"80501",
        "Latitude":40.1779,
        "Longitude":-105.1009
    },
    {
        "State":"Colorado",
        "StateAbbr":"CO",
        "City":"Longmont",
        "County":"Boulder",
        "ZipCode":"80502",
        "Latitude":40.1672,
        "Longitude":-105.1019
    },
    {
        "State":"Colorado",
        "StateAbbr":"CO",
        "City":"Longmont",
        "County":"Boulder",
        "ZipCode":"80503",
        "Latitude":40.1559,
        "Longitude":-105.1624
    },
    {
        "State":"Colorado",
        "StateAbbr":"CO",
        "City":"Allenspark",
        "County":"Boulder",
        "ZipCode":"80510",
        "Latitude":40.2268,
        "Longitude":-105.5201
    },
    {
        "State":"Colorado",
        "StateAbbr":"CO",
        "City":"Hygiene",
        "County":"Boulder",
        "ZipCode":"80533",
        "Latitude":40.1815,
        "Longitude":-105.2327
    },
    {
        "State":"Colorado",
        "StateAbbr":"CO",
        "City":"Lyons",
        "County":"Boulder",
        "ZipCode":"80540",
        "Latitude":40.2357,
        "Longitude":-105.3231
    },
    {
        "State":"Colorado",
        "StateAbbr":"CO",
        "City":"Niwot",
        "County":"Boulder",
        "ZipCode":"80544",
        "Latitude":40.1039,
        "Longitude":-105.1708
    },
    {
        "State":"Colorado",
        "StateAbbr":"CO",
        "City":"Broomfield",
        "County":"Broomfield",
        "ZipCode":"80023",
        "Latitude":39.9619,
        "Longitude":-105.0148
    },
    {
        "State":"Colorado",
        "StateAbbr":"CO",
        "City":"Salida",
        "County":"Chaffee",
        "ZipCode":"81201",
        "Latitude":38.5259,
        "Longitude":-105.9978
    },
    {
        "State":"Colorado",
        "StateAbbr":"CO",
        "City":"Buena Vista",
        "County":"Chaffee",
        "ZipCode":"81211",
        "Latitude":38.838,
        "Longitude":-106.1471
    },
    {
        "State":"Colorado",
        "StateAbbr":"CO",
        "City":"Monarch",
        "County":"Chaffee",
        "ZipCode":"81227",
        "Latitude":38.553,
        "Longitude":-106.2946
    },
    {
        "State":"Colorado",
        "StateAbbr":"CO",
        "City":"Granite",
        "County":"Chaffee",
        "ZipCode":"81228",
        "Latitude":39.0307,
        "Longitude":-106.2566
    },
    {
        "State":"Colorado",
        "StateAbbr":"CO",
        "City":"Nathrop",
        "County":"Chaffee",
        "ZipCode":"81236",
        "Latitude":38.7103,
        "Longitude":-106.1166
    },
    {
        "State":"Colorado",
        "StateAbbr":"CO",
        "City":"Poncha Springs",
        "County":"Chaffee",
        "ZipCode":"81242",
        "Latitude":38.5128,
        "Longitude":-106.0772
    },
    {
        "State":"Colorado",
        "StateAbbr":"CO",
        "City":"Arapahoe",
        "County":"Cheyenne",
        "ZipCode":"80802",
        "Latitude":38.8417,
        "Longitude":-102.194
    },
    {
        "State":"Colorado",
        "StateAbbr":"CO",
        "City":"Cheyenne Wells",
        "County":"Cheyenne",
        "ZipCode":"80810",
        "Latitude":38.8198,
        "Longitude":-102.3582
    },
    {
        "State":"Colorado",
        "StateAbbr":"CO",
        "City":"Kit Carson",
        "County":"Cheyenne",
        "ZipCode":"80825",
        "Latitude":38.804,
        "Longitude":-102.8198
    },
    {
        "State":"Colorado",
        "StateAbbr":"CO",
        "City":"Wild Horse",
        "County":"Cheyenne",
        "ZipCode":"80862",
        "Latitude":38.8041,
        "Longitude":-103.0798
    },
    {
        "State":"Colorado",
        "StateAbbr":"CO",
        "City":"Dumont",
        "County":"Clear Creek",
        "ZipCode":"80436",
        "Latitude":39.7647,
        "Longitude":-105.6003
    },
    {
        "State":"Colorado",
        "StateAbbr":"CO",
        "City":"Empire",
        "County":"Clear Creek",
        "ZipCode":"80438",
        "Latitude":39.7614,
        "Longitude":-105.6844
    },
    {
        "State":"Colorado",
        "StateAbbr":"CO",
        "City":"Georgetown",
        "County":"Clear Creek",
        "ZipCode":"80444",
        "Latitude":39.7061,
        "Longitude":-105.6975
    },
    {
        "State":"Colorado",
        "StateAbbr":"CO",
        "City":"Idaho Springs",
        "County":"Clear Creek",
        "ZipCode":"80452",
        "Latitude":39.7402,
        "Longitude":-105.5983
    },
    {
        "State":"Colorado",
        "StateAbbr":"CO",
        "City":"Silver Plume",
        "County":"Clear Creek",
        "ZipCode":"80476",
        "Latitude":39.6996,
        "Longitude":-105.7507
    },
    {
        "State":"Colorado",
        "StateAbbr":"CO",
        "City":"Antonito",
        "County":"Conejos",
        "ZipCode":"81120",
        "Latitude":37.0855,
        "Longitude":-106.0379
    },
    {
        "State":"Colorado",
        "StateAbbr":"CO",
        "City":"Capulin",
        "County":"Conejos",
        "ZipCode":"81124",
        "Latitude":37.2839,
        "Longitude":-106.1114
    },
    {
        "State":"Colorado",
        "StateAbbr":"CO",
        "City":"Conejos",
        "County":"Conejos",
        "ZipCode":"81129",
        "Latitude":37.1011,
        "Longitude":-106.0265
    },
    {
        "State":"Colorado",
        "StateAbbr":"CO",
        "City":"La Jara",
        "County":"Conejos",
        "ZipCode":"81140",
        "Latitude":37.2907,
        "Longitude":-106.0054
    },
    {
        "State":"Colorado",
        "StateAbbr":"CO",
        "City":"Manassa",
        "County":"Conejos",
        "ZipCode":"81141",
        "Latitude":37.1755,
        "Longitude":-105.9278
    },
    {
        "State":"Colorado",
        "StateAbbr":"CO",
        "City":"Romeo",
        "County":"Conejos",
        "ZipCode":"81148",
        "Latitude":37.1721,
        "Longitude":-105.9858
    },
    {
        "State":"Colorado",
        "StateAbbr":"CO",
        "City":"Sanford",
        "County":"Conejos",
        "ZipCode":"81151",
        "Latitude":37.2583,
        "Longitude":-105.9047
    },
    {
        "State":"Colorado",
        "StateAbbr":"CO",
        "City":"Blanca",
        "County":"Costilla",
        "ZipCode":"81123",
        "Latitude":37.4317,
        "Longitude":-105.5178
    },
    {
        "State":"Colorado",
        "StateAbbr":"CO",
        "City":"Chama",
        "County":"Costilla",
        "ZipCode":"81126",
        "Latitude":37.162,
        "Longitude":-105.3783
    },
    {
        "State":"Colorado",
        "StateAbbr":"CO",
        "City":"Fort Garland",
        "County":"Costilla",
        "ZipCode":"81133",
        "Latitude":37.427,
        "Longitude":-105.4049
    },
    {
        "State":"Colorado",
        "StateAbbr":"CO",
        "City":"Jaroso",
        "County":"Costilla",
        "ZipCode":"81138",
        "Latitude":37.0028,
        "Longitude":-105.6242
    },
    {
        "State":"Colorado",
        "StateAbbr":"CO",
        "City":"San Luis",
        "County":"Costilla",
        "ZipCode":"81152",
        "Latitude":37.1066,
        "Longitude":-105.4781
    },
    {
        "State":"Colorado",
        "StateAbbr":"CO",
        "City":"Crowley",
        "County":"Crowley",
        "ZipCode":"81033",
        "Latitude":38.1931,
        "Longitude":-103.8561
    },
    {
        "State":"Colorado",
        "StateAbbr":"CO",
        "City":"Crowley",
        "County":"Crowley",
        "ZipCode":"81034",
        "Latitude":38.1931,
        "Longitude":-103.8561
    },
    {
        "State":"Colorado",
        "StateAbbr":"CO",
        "City":"Olney Springs",
        "County":"Crowley",
        "ZipCode":"81062",
        "Latitude":38.2019,
        "Longitude":-103.941
    },
    {
        "State":"Colorado",
        "StateAbbr":"CO",
        "City":"Ordway",
        "County":"Crowley",
        "ZipCode":"81063",
        "Latitude":38.2095,
        "Longitude":-103.8003
    },
    {
        "State":"Colorado",
        "StateAbbr":"CO",
        "City":"Sugar City",
        "County":"Crowley",
        "ZipCode":"81076",
        "Latitude":38.2444,
        "Longitude":-103.6556
    },
    {
        "State":"Colorado",
        "StateAbbr":"CO",
        "City":"Westcliffe",
        "County":"Custer",
        "ZipCode":"81252",
        "Latitude":38.123,
        "Longitude":-105.4332
    },
    {
        "State":"Colorado",
        "StateAbbr":"CO",
        "City":"Wetmore",
        "County":"Custer",
        "ZipCode":"81253",
        "Latitude":38.1217,
        "Longitude":-105.1477
    },
    {
        "State":"Colorado",
        "StateAbbr":"CO",
        "City":"Austin",
        "County":"Delta",
        "ZipCode":"81410",
        "Latitude":38.7975,
        "Longitude":-107.9738
    },
    {
        "State":"Colorado",
        "StateAbbr":"CO",
        "City":"Cedaredge",
        "County":"Delta",
        "ZipCode":"81413",
        "Latitude":38.9119,
        "Longitude":-107.9268
    },
    {
        "State":"Colorado",
        "StateAbbr":"CO",
        "City":"Cory",
        "County":"Delta",
        "ZipCode":"81414",
        "Latitude":38.7887,
        "Longitude":-107.9862
    },
    {
        "State":"Colorado",
        "StateAbbr":"CO",
        "City":"Crawford",
        "County":"Delta",
        "ZipCode":"81415",
        "Latitude":38.6941,
        "Longitude":-107.6149
    },
    {
        "State":"Colorado",
        "StateAbbr":"CO",
        "City":"Delta",
        "County":"Delta",
        "ZipCode":"81416",
        "Latitude":38.7349,
        "Longitude":-108.0604
    },
    {
        "State":"Colorado",
        "StateAbbr":"CO",
        "City":"Eckert",
        "County":"Delta",
        "ZipCode":"81418",
        "Latitude":38.845,
        "Longitude":-107.9625
    },
    {
        "State":"Colorado",
        "StateAbbr":"CO",
        "City":"Hotchkiss",
        "County":"Delta",
        "ZipCode":"81419",
        "Latitude":38.8124,
        "Longitude":-107.7472
    },
    {
        "State":"Colorado",
        "StateAbbr":"CO",
        "City":"Lazear",
        "County":"Delta",
        "ZipCode":"81420",
        "Latitude":38.7817,
        "Longitude":-107.7808
    },
    {
        "State":"Colorado",
        "StateAbbr":"CO",
        "City":"Paonia",
        "County":"Delta",
        "ZipCode":"81428",
        "Latitude":38.865,
        "Longitude":-107.5985
    },
    {
        "State":"Colorado",
        "StateAbbr":"CO",
        "City":"Denver",
        "County":"Denver",
        "ZipCode":"80201",
        "Latitude":39.7263,
        "Longitude":-104.8568
    },
    {
        "State":"Colorado",
        "StateAbbr":"CO",
        "City":"Denver",
        "County":"Denver",
        "ZipCode":"80202",
        "Latitude":39.7491,
        "Longitude":-104.9946
    },
    {
        "State":"Colorado",
        "StateAbbr":"CO",
        "City":"Denver",
        "County":"Denver",
        "ZipCode":"80203",
        "Latitude":39.7313,
        "Longitude":-104.9811
    },
    {
        "State":"Colorado",
        "StateAbbr":"CO",
        "City":"Denver",
        "County":"Denver",
        "ZipCode":"80204",
        "Latitude":39.734,
        "Longitude":-105.0259
    },
    {
        "State":"Colorado",
        "StateAbbr":"CO",
        "City":"Denver",
        "County":"Denver",
        "ZipCode":"80205",
        "Latitude":39.759,
        "Longitude":-104.9661
    },
    {
        "State":"Colorado",
        "StateAbbr":"CO",
        "City":"Denver",
        "County":"Denver",
        "ZipCode":"80206",
        "Latitude":39.7331,
        "Longitude":-104.9524
    },
    {
        "State":"Colorado",
        "StateAbbr":"CO",
        "City":"Denver",
        "County":"Denver",
        "ZipCode":"80207",
        "Latitude":39.7584,
        "Longitude":-104.9177
    },
    {
        "State":"Colorado",
        "StateAbbr":"CO",
        "City":"Denver",
        "County":"Denver",
        "ZipCode":"80208",
        "Latitude":39.7392,
        "Longitude":-104.9847
    },
    {
        "State":"Colorado",
        "StateAbbr":"CO",
        "City":"Denver",
        "County":"Denver",
        "ZipCode":"80209",
        "Latitude":39.7074,
        "Longitude":-104.9686
    },
    {
        "State":"Colorado",
        "StateAbbr":"CO",
        "City":"Denver",
        "County":"Denver",
        "ZipCode":"80210",
        "Latitude":39.679,
        "Longitude":-104.9631
    },
    {
        "State":"Colorado",
        "StateAbbr":"CO",
        "City":"Denver",
        "County":"Denver",
        "ZipCode":"80211",
        "Latitude":39.7665,
        "Longitude":-105.0204
    },
    {
        "State":"Colorado",
        "StateAbbr":"CO",
        "City":"Denver",
        "County":"Denver",
        "ZipCode":"80212",
        "Latitude":39.7683,
        "Longitude":-105.0493
    },
    {
        "State":"Colorado",
        "StateAbbr":"CO",
        "City":"Denver",
        "County":"Denver",
        "ZipCode":"80216",
        "Latitude":39.7835,
        "Longitude":-104.9669
    },
    {
        "State":"Colorado",
        "StateAbbr":"CO",
        "City":"Denver",
        "County":"Denver",
        "ZipCode":"80217",
        "Latitude":39.7392,
        "Longitude":-104.9847
    },
    {
        "State":"Colorado",
        "StateAbbr":"CO",
        "City":"Denver",
        "County":"Denver",
        "ZipCode":"80218",
        "Latitude":39.7327,
        "Longitude":-104.9717
    },
    {
        "State":"Colorado",
        "StateAbbr":"CO",
        "City":"Denver",
        "County":"Denver",
        "ZipCode":"80219",
        "Latitude":39.6956,
        "Longitude":-105.0341
    },
    {
        "State":"Colorado",
        "StateAbbr":"CO",
        "City":"Denver",
        "County":"Denver",
        "ZipCode":"80220",
        "Latitude":39.7312,
        "Longitude":-104.9129
    },
    {
        "State":"Colorado",
        "StateAbbr":"CO",
        "City":"Denver",
        "County":"Denver",
        "ZipCode":"80222",
        "Latitude":39.671,
        "Longitude":-104.9279
    },
    {
        "State":"Colorado",
        "StateAbbr":"CO",
        "City":"Denver",
        "County":"Denver",
        "ZipCode":"80223",
        "Latitude":39.7002,
        "Longitude":-105.0028
    },
    {
        "State":"Colorado",
        "StateAbbr":"CO",
        "City":"Denver",
        "County":"Denver",
        "ZipCode":"80224",
        "Latitude":39.688,
        "Longitude":-104.9108
    },
    {
        "State":"Colorado",
        "StateAbbr":"CO",
        "City":"Denver",
        "County":"Denver",
        "ZipCode":"80227",
        "Latitude":39.6667,
        "Longitude":-105.0854
    },
    {
        "State":"Colorado",
        "StateAbbr":"CO",
        "City":"Denver",
        "County":"Denver",
        "ZipCode":"80230",
        "Latitude":39.7218,
        "Longitude":-104.8951
    },
    {
        "State":"Colorado",
        "StateAbbr":"CO",
        "City":"Denver",
        "County":"Denver",
        "ZipCode":"80231",
        "Latitude":39.6793,
        "Longitude":-104.8843
    },
    {
        "State":"Colorado",
        "StateAbbr":"CO",
        "City":"Denver",
        "County":"Denver",
        "ZipCode":"80235",
        "Latitude":39.6472,
        "Longitude":-105.0795
    },
    {
        "State":"Colorado",
        "StateAbbr":"CO",
        "City":"Denver",
        "County":"Denver",
        "ZipCode":"80236",
        "Latitude":39.6535,
        "Longitude":-105.0376
    },
    {
        "State":"Colorado",
        "StateAbbr":"CO",
        "City":"Denver",
        "County":"Denver",
        "ZipCode":"80237",
        "Latitude":39.6431,
        "Longitude":-104.8987
    },
    {
        "State":"Colorado",
        "StateAbbr":"CO",
        "City":"Denver",
        "County":"Denver",
        "ZipCode":"80238",
        "Latitude":39.7392,
        "Longitude":-104.9847
    },
    {
        "State":"Colorado",
        "StateAbbr":"CO",
        "City":"Denver",
        "County":"Denver",
        "ZipCode":"80239",
        "Latitude":39.7878,
        "Longitude":-104.8288
    },
    {
        "State":"Colorado",
        "StateAbbr":"CO",
        "City":"Denver",
        "County":"Denver",
        "ZipCode":"80243",
        "Latitude":39.7392,
        "Longitude":-104.9847
    },
    {
        "State":"Colorado",
        "StateAbbr":"CO",
        "City":"Denver",
        "County":"Denver",
        "ZipCode":"80244",
        "Latitude":39.7392,
        "Longitude":-104.9847
    },
    {
        "State":"Colorado",
        "StateAbbr":"CO",
        "City":"Denver",
        "County":"Denver",
        "ZipCode":"80246",
        "Latitude":39.7086,
        "Longitude":-104.9312
    },
    {
        "State":"Colorado",
        "StateAbbr":"CO",
        "City":"Denver",
        "County":"Denver",
        "ZipCode":"80247",
        "Latitude":39.6971,
        "Longitude":-104.8819
    },
    {
        "State":"Colorado",
        "StateAbbr":"CO",
        "City":"Denver",
        "County":"Denver",
        "ZipCode":"80248",
        "Latitude":39.7392,
        "Longitude":-104.9847
    },
    {
        "State":"Colorado",
        "StateAbbr":"CO",
        "City":"Denver",
        "County":"Denver",
        "ZipCode":"80249",
        "Latitude":39.7783,
        "Longitude":-104.7557
    },
    {
        "State":"Colorado",
        "StateAbbr":"CO",
        "City":"Denver",
        "County":"Denver",
        "ZipCode":"80250",
        "Latitude":39.7392,
        "Longitude":-104.9847
    },
    {
        "State":"Colorado",
        "StateAbbr":"CO",
        "City":"Denver",
        "County":"Denver",
        "ZipCode":"80251",
        "Latitude":39.7392,
        "Longitude":-104.9847
    },
    {
        "State":"Colorado",
        "StateAbbr":"CO",
        "City":"Denver",
        "County":"Denver",
        "ZipCode":"80252",
        "Latitude":39.7392,
        "Longitude":-104.9847
    },
    {
        "State":"Colorado",
        "StateAbbr":"CO",
        "City":"Denver",
        "County":"Denver",
        "ZipCode":"80256",
        "Latitude":39.7474,
        "Longitude":-104.9928
    },
    {
        "State":"Colorado",
        "StateAbbr":"CO",
        "City":"Denver",
        "County":"Denver",
        "ZipCode":"80257",
        "Latitude":39.7392,
        "Longitude":-104.9847
    },
    {
        "State":"Colorado",
        "StateAbbr":"CO",
        "City":"Denver",
        "County":"Denver",
        "ZipCode":"80259",
        "Latitude":39.7462,
        "Longitude":-104.9913
    },
    {
        "State":"Colorado",
        "StateAbbr":"CO",
        "City":"Denver",
        "County":"Denver",
        "ZipCode":"80261",
        "Latitude":39.7379,
        "Longitude":-104.985
    },
    {
        "State":"Colorado",
        "StateAbbr":"CO",
        "City":"Denver",
        "County":"Denver",
        "ZipCode":"80262",
        "Latitude":39.731,
        "Longitude":-104.9384
    },
    {
        "State":"Colorado",
        "StateAbbr":"CO",
        "City":"Denver",
        "County":"Denver",
        "ZipCode":"80263",
        "Latitude":39.7392,
        "Longitude":-104.9847
    },
    {
        "State":"Colorado",
        "StateAbbr":"CO",
        "City":"Denver",
        "County":"Denver",
        "ZipCode":"80264",
        "Latitude":39.7426,
        "Longitude":-104.9863
    },
    {
        "State":"Colorado",
        "StateAbbr":"CO",
        "City":"Denver",
        "County":"Denver",
        "ZipCode":"80265",
        "Latitude":39.7392,
        "Longitude":-104.9847
    },
    {
        "State":"Colorado",
        "StateAbbr":"CO",
        "City":"Denver",
        "County":"Denver",
        "ZipCode":"80266",
        "Latitude":39.7472,
        "Longitude":-104.9915
    },
    {
        "State":"Colorado",
        "StateAbbr":"CO",
        "City":"Denver",
        "County":"Denver",
        "ZipCode":"80271",
        "Latitude":39.7392,
        "Longitude":-104.9847
    },
    {
        "State":"Colorado",
        "StateAbbr":"CO",
        "City":"Denver",
        "County":"Denver",
        "ZipCode":"80273",
        "Latitude":39.7273,
        "Longitude":-104.9875
    },
    {
        "State":"Colorado",
        "StateAbbr":"CO",
        "City":"Denver",
        "County":"Denver",
        "ZipCode":"80274",
        "Latitude":39.7439,
        "Longitude":-104.9876
    },
    {
        "State":"Colorado",
        "StateAbbr":"CO",
        "City":"Denver",
        "County":"Denver",
        "ZipCode":"80281",
        "Latitude":39.7439,
        "Longitude":-104.9876
    },
    {
        "State":"Colorado",
        "StateAbbr":"CO",
        "City":"Denver",
        "County":"Denver",
        "ZipCode":"80290",
        "Latitude":39.7436,
        "Longitude":-104.9876
    },
    {
        "State":"Colorado",
        "StateAbbr":"CO",
        "City":"Denver",
        "County":"Denver",
        "ZipCode":"80291",
        "Latitude":39.7439,
        "Longitude":-104.9876
    },
    {
        "State":"Colorado",
        "StateAbbr":"CO",
        "City":"Denver",
        "County":"Denver",
        "ZipCode":"80293",
        "Latitude":39.7458,
        "Longitude":-104.9907
    },
    {
        "State":"Colorado",
        "StateAbbr":"CO",
        "City":"Denver",
        "County":"Denver",
        "ZipCode":"80294",
        "Latitude":39.7491,
        "Longitude":-104.989
    },
    {
        "State":"Colorado",
        "StateAbbr":"CO",
        "City":"Denver",
        "County":"Denver",
        "ZipCode":"80299",
        "Latitude":39.7392,
        "Longitude":-104.9847
    },
    {
        "State":"Colorado",
        "StateAbbr":"CO",
        "City":"Cahone",
        "County":"Dolores",
        "ZipCode":"81320",
        "Latitude":37.7182,
        "Longitude":-108.7917
    },
    {
        "State":"Colorado",
        "StateAbbr":"CO",
        "City":"Dove Creek",
        "County":"Dolores",
        "ZipCode":"81324",
        "Latitude":37.7632,
        "Longitude":-108.9181
    },
    {
        "State":"Colorado",
        "StateAbbr":"CO",
        "City":"Rico",
        "County":"Dolores",
        "ZipCode":"81332",
        "Latitude":37.6905,
        "Longitude":-108.0324
    },
    {
        "State":"Colorado",
        "StateAbbr":"CO",
        "City":"Castle Rock",
        "County":"Douglas",
        "ZipCode":"80104",
        "Latitude":39.3722,
        "Longitude":-104.8561
    },
    {
        "State":"Colorado",
        "StateAbbr":"CO",
        "City":"Castle Rock",
        "County":"Douglas",
        "ZipCode":"80108",
        "Latitude":39.4455,
        "Longitude":-104.853
    },
    {
        "State":"Colorado",
        "StateAbbr":"CO",
        "City":"Castle Rock",
        "County":"Douglas",
        "ZipCode":"80109",
        "Latitude":39.3643,
        "Longitude":-104.9014
    },
    {
        "State":"Colorado",
        "StateAbbr":"CO",
        "City":"Franktown",
        "County":"Douglas",
        "ZipCode":"80116",
        "Latitude":39.3728,
        "Longitude":-104.7256
    },
    {
        "State":"Colorado",
        "StateAbbr":"CO",
        "City":"Larkspur",
        "County":"Douglas",
        "ZipCode":"80118",
        "Latitude":39.2011,
        "Longitude":-104.8546
    },
    {
        "State":"Colorado",
        "StateAbbr":"CO",
        "City":"Lone Tree",
        "County":"Douglas",
        "ZipCode":"80124",
        "Latitude":39.5517,
        "Longitude":-104.8863
    },
    {
        "State":"Colorado",
        "StateAbbr":"CO",
        "City":"Littleton",
        "County":"Douglas",
        "ZipCode":"80125",
        "Latitude":39.4845,
        "Longitude":-105.0561
    },
    {
        "State":"Colorado",
        "StateAbbr":"CO",
        "City":"Littleton",
        "County":"Douglas",
        "ZipCode":"80126",
        "Latitude":39.5437,
        "Longitude":-104.9691
    },
    {
        "State":"Colorado",
        "StateAbbr":"CO",
        "City":"Littleton",
        "County":"Douglas",
        "ZipCode":"80129",
        "Latitude":39.5397,
        "Longitude":-105.0109
    },
    {
        "State":"Colorado",
        "StateAbbr":"CO",
        "City":"Littleton",
        "County":"Douglas",
        "ZipCode":"80130",
        "Latitude":39.5414,
        "Longitude":-104.9218
    },
    {
        "State":"Colorado",
        "StateAbbr":"CO",
        "City":"Louviers",
        "County":"Douglas",
        "ZipCode":"80131",
        "Latitude":39.4764,
        "Longitude":-105.0075
    },
    {
        "State":"Colorado",
        "StateAbbr":"CO",
        "City":"Parker",
        "County":"Douglas",
        "ZipCode":"80134",
        "Latitude":39.4895,
        "Longitude":-104.8447
    },
    {
        "State":"Colorado",
        "StateAbbr":"CO",
        "City":"Sedalia",
        "County":"Douglas",
        "ZipCode":"80135",
        "Latitude":39.3113,
        "Longitude":-105.0676
    },
    {
        "State":"Colorado",
        "StateAbbr":"CO",
        "City":"Parker",
        "County":"Douglas",
        "ZipCode":"80138",
        "Latitude":39.5102,
        "Longitude":-104.7216
    },
    {
        "State":"Colorado",
        "StateAbbr":"CO",
        "City":"Littleton",
        "County":"Douglas",
        "ZipCode":"80163",
        "Latitude":39.3479,
        "Longitude":-104.9947
    },
    {
        "State":"Colorado",
        "StateAbbr":"CO",
        "City":"Bond",
        "County":"Eagle",
        "ZipCode":"80423",
        "Latitude":39.8691,
        "Longitude":-106.6763
    },
    {
        "State":"Colorado",
        "StateAbbr":"CO",
        "City":"Burns",
        "County":"Eagle",
        "ZipCode":"80426",
        "Latitude":39.8739,
        "Longitude":-106.8856
    },
    {
        "State":"Colorado",
        "StateAbbr":"CO",
        "City":"Mc Coy",
        "County":"Eagle",
        "ZipCode":"80463",
        "Latitude":39.9134,
        "Longitude":-106.7309
    },
    {
        "State":"Colorado",
        "StateAbbr":"CO",
        "City":"Avon",
        "County":"Eagle",
        "ZipCode":"81620",
        "Latitude":39.6313,
        "Longitude":-106.5108
    },
    {
        "State":"Colorado",
        "StateAbbr":"CO",
        "City":"Basalt",
        "County":"Eagle",
        "ZipCode":"81621",
        "Latitude":39.3535,
        "Longitude":-106.9988
    },
    {
        "State":"Colorado",
        "StateAbbr":"CO",
        "City":"Eagle",
        "County":"Eagle",
        "ZipCode":"81631",
        "Latitude":39.6341,
        "Longitude":-106.7588
    },
    {
        "State":"Colorado",
        "StateAbbr":"CO",
        "City":"Edwards",
        "County":"Eagle",
        "ZipCode":"81632",
        "Latitude":39.6382,
        "Longitude":-106.6206
    },
    {
        "State":"Colorado",
        "StateAbbr":"CO",
        "City":"Gypsum",
        "County":"Eagle",
        "ZipCode":"81637",
        "Latitude":39.6618,
        "Longitude":-106.9671
    },
    {
        "State":"Colorado",
        "StateAbbr":"CO",
        "City":"Minturn",
        "County":"Eagle",
        "ZipCode":"81645",
        "Latitude":39.5805,
        "Longitude":-106.4176
    },
    {
        "State":"Colorado",
        "StateAbbr":"CO",
        "City":"Red Cliff",
        "County":"Eagle",
        "ZipCode":"81649",
        "Latitude":39.5122,
        "Longitude":-106.3681
    },
    {
        "State":"Colorado",
        "StateAbbr":"CO",
        "City":"Wolcott",
        "County":"Eagle",
        "ZipCode":"81655",
        "Latitude":39.7028,
        "Longitude":-106.6786
    },
    {
        "State":"Colorado",
        "StateAbbr":"CO",
        "City":"Vail",
        "County":"Eagle",
        "ZipCode":"81657",
        "Latitude":39.6512,
        "Longitude":-106.3234
    },
    {
        "State":"Colorado",
        "StateAbbr":"CO",
        "City":"Vail",
        "County":"Eagle",
        "ZipCode":"81658",
        "Latitude":39.6242,
        "Longitude":-106.4973
    },
    {
        "State":"Colorado",
        "StateAbbr":"CO",
        "City":"Agate",
        "County":"Elbert",
        "ZipCode":"80101",
        "Latitude":39.4203,
        "Longitude":-103.9846
    },
    {
        "State":"Colorado",
        "StateAbbr":"CO",
        "City":"Elbert",
        "County":"Elbert",
        "ZipCode":"80106",
        "Latitude":39.0969,
        "Longitude":-104.5746
    },
    {
        "State":"Colorado",
        "StateAbbr":"CO",
        "City":"Elizabeth",
        "County":"Elbert",
        "ZipCode":"80107",
        "Latitude":39.3836,
        "Longitude":-104.592
    },
    {
        "State":"Colorado",
        "StateAbbr":"CO",
        "City":"Kiowa",
        "County":"Elbert",
        "ZipCode":"80117",
        "Latitude":39.324,
        "Longitude":-104.4523
    },
    {
        "State":"Colorado",
        "StateAbbr":"CO",
        "City":"Matheson",
        "County":"Elbert",
        "ZipCode":"80830",
        "Latitude":39.132,
        "Longitude":-103.9132
    },
    {
        "State":"Colorado",
        "StateAbbr":"CO",
        "City":"Simla",
        "County":"Elbert",
        "ZipCode":"80835",
        "Latitude":39.2087,
        "Longitude":-104.0702
    },
    {
        "State":"Colorado",
        "StateAbbr":"CO",
        "City":"Monument",
        "County":"El Paso",
        "ZipCode":"80132",
        "Latitude":39.1007,
        "Longitude":-104.8542
    },
    {
        "State":"Colorado",
        "StateAbbr":"CO",
        "City":"Palmer Lake",
        "County":"El Paso",
        "ZipCode":"80133",
        "Latitude":39.1205,
        "Longitude":-104.9148
    },
    {
        "State":"Colorado",
        "StateAbbr":"CO",
        "City":"Calhan",
        "County":"El Paso",
        "ZipCode":"80808",
        "Latitude":38.9648,
        "Longitude":-104.3553
    },
    {
        "State":"Colorado",
        "StateAbbr":"CO",
        "City":"Cascade",
        "County":"El Paso",
        "ZipCode":"80809",
        "Latitude":38.8967,
        "Longitude":-104.9722
    },
    {
        "State":"Colorado",
        "StateAbbr":"CO",
        "City":"Fountain",
        "County":"El Paso",
        "ZipCode":"80817",
        "Latitude":38.6996,
        "Longitude":-104.7005
    },
    {
        "State":"Colorado",
        "StateAbbr":"CO",
        "City":"Green Mountain Falls",
        "County":"El Paso",
        "ZipCode":"80819",
        "Latitude":38.9389,
        "Longitude":-105.0094
    },
    {
        "State":"Colorado",
        "StateAbbr":"CO",
        "City":"Manitou Springs",
        "County":"El Paso",
        "ZipCode":"80829",
        "Latitude":38.855,
        "Longitude":-104.9058
    },
    {
        "State":"Colorado",
        "StateAbbr":"CO",
        "City":"Peyton",
        "County":"El Paso",
        "ZipCode":"80831",
        "Latitude":38.9541,
        "Longitude":-104.5472
    },
    {
        "State":"Colorado",
        "StateAbbr":"CO",
        "City":"Ramah",
        "County":"El Paso",
        "ZipCode":"80832",
        "Latitude":39.0736,
        "Longitude":-104.1247
    },
    {
        "State":"Colorado",
        "StateAbbr":"CO",
        "City":"Rush",
        "County":"El Paso",
        "ZipCode":"80833",
        "Latitude":38.7642,
        "Longitude":-104.0241
    },
    {
        "State":"Colorado",
        "StateAbbr":"CO",
        "City":"Usaf Academy",
        "County":"El Paso",
        "ZipCode":"80840",
        "Latitude":39.0896,
        "Longitude":-103.8188
    },
    {
        "State":"Colorado",
        "StateAbbr":"CO",
        "City":"Usaf Academy",
        "County":"El Paso",
        "ZipCode":"80841",
        "Latitude":39.0896,
        "Longitude":-103.8188
    },
    {
        "State":"Colorado",
        "StateAbbr":"CO",
        "City":"Yoder",
        "County":"El Paso",
        "ZipCode":"80864",
        "Latitude":38.7753,
        "Longitude":-104.2184
    },
    {
        "State":"Colorado",
        "StateAbbr":"CO",
        "City":"Colorado Springs",
        "County":"El Paso",
        "ZipCode":"80901",
        "Latitude":38.8339,
        "Longitude":-104.8214
    },
    {
        "State":"Colorado",
        "StateAbbr":"CO",
        "City":"Colorado Springs",
        "County":"El Paso",
        "ZipCode":"80902",
        "Latitude":38.7536,
        "Longitude":-104.8063
    },
    {
        "State":"Colorado",
        "StateAbbr":"CO",
        "City":"Colorado Springs",
        "County":"El Paso",
        "ZipCode":"80903",
        "Latitude":38.8388,
        "Longitude":-104.8145
    },
    {
        "State":"Colorado",
        "StateAbbr":"CO",
        "City":"Colorado Springs",
        "County":"El Paso",
        "ZipCode":"80904",
        "Latitude":38.8533,
        "Longitude":-104.8595
    },
    {
        "State":"Colorado",
        "StateAbbr":"CO",
        "City":"Colorado Springs",
        "County":"El Paso",
        "ZipCode":"80905",
        "Latitude":38.8377,
        "Longitude":-104.837
    },
    {
        "State":"Colorado",
        "StateAbbr":"CO",
        "City":"Colorado Springs",
        "County":"El Paso",
        "ZipCode":"80906",
        "Latitude":38.7902,
        "Longitude":-104.8199
    },
    {
        "State":"Colorado",
        "StateAbbr":"CO",
        "City":"Colorado Springs",
        "County":"El Paso",
        "ZipCode":"80907",
        "Latitude":38.876,
        "Longitude":-104.817
    },
    {
        "State":"Colorado",
        "StateAbbr":"CO",
        "City":"Colorado Springs",
        "County":"El Paso",
        "ZipCode":"80908",
        "Latitude":39.0237,
        "Longitude":-104.6933
    },
    {
        "State":"Colorado",
        "StateAbbr":"CO",
        "City":"Colorado Springs",
        "County":"El Paso",
        "ZipCode":"80909",
        "Latitude":38.852,
        "Longitude":-104.7735
    },
    {
        "State":"Colorado",
        "StateAbbr":"CO",
        "City":"Colorado Springs",
        "County":"El Paso",
        "ZipCode":"80910",
        "Latitude":38.8152,
        "Longitude":-104.7703
    },
    {
        "State":"Colorado",
        "StateAbbr":"CO",
        "City":"Colorado Springs",
        "County":"El Paso",
        "ZipCode":"80911",
        "Latitude":38.7457,
        "Longitude":-104.7223
    },
    {
        "State":"Colorado",
        "StateAbbr":"CO",
        "City":"Colorado Springs",
        "County":"El Paso",
        "ZipCode":"80912",
        "Latitude":38.8339,
        "Longitude":-104.8214
    },
    {
        "State":"Colorado",
        "StateAbbr":"CO",
        "City":"Colorado Springs",
        "County":"El Paso",
        "ZipCode":"80913",
        "Latitude":38.73,
        "Longitude":-104.7536
    },
    {
        "State":"Colorado",
        "StateAbbr":"CO",
        "City":"Colorado Springs",
        "County":"El Paso",
        "ZipCode":"80914",
        "Latitude":38.8192,
        "Longitude":-104.7012
    },
    {
        "State":"Colorado",
        "StateAbbr":"CO",
        "City":"Colorado Springs",
        "County":"El Paso",
        "ZipCode":"80915",
        "Latitude":38.8558,
        "Longitude":-104.7134
    },
    {
        "State":"Colorado",
        "StateAbbr":"CO",
        "City":"Colorado Springs",
        "County":"El Paso",
        "ZipCode":"80916",
        "Latitude":38.8076,
        "Longitude":-104.7403
    },
    {
        "State":"Colorado",
        "StateAbbr":"CO",
        "City":"Colorado Springs",
        "County":"El Paso",
        "ZipCode":"80917",
        "Latitude":38.886,
        "Longitude":-104.7399
    },
    {
        "State":"Colorado",
        "StateAbbr":"CO",
        "City":"Colorado Springs",
        "County":"El Paso",
        "ZipCode":"80918",
        "Latitude":38.9129,
        "Longitude":-104.7734
    },
    {
        "State":"Colorado",
        "StateAbbr":"CO",
        "City":"Colorado Springs",
        "County":"El Paso",
        "ZipCode":"80919",
        "Latitude":38.9268,
        "Longitude":-104.8464
    },
    {
        "State":"Colorado",
        "StateAbbr":"CO",
        "City":"Colorado Springs",
        "County":"El Paso",
        "ZipCode":"80920",
        "Latitude":38.9497,
        "Longitude":-104.767
    },
    {
        "State":"Colorado",
        "StateAbbr":"CO",
        "City":"Colorado Springs",
        "County":"El Paso",
        "ZipCode":"80921",
        "Latitude":39.0487,
        "Longitude":-104.814
    },
    {
        "State":"Colorado",
        "StateAbbr":"CO",
        "City":"Colorado Springs",
        "County":"El Paso",
        "ZipCode":"80922",
        "Latitude":38.905,
        "Longitude":-104.6982
    },
    {
        "State":"Colorado",
        "StateAbbr":"CO",
        "City":"Colorado Springs",
        "County":"El Paso",
        "ZipCode":"80923",
        "Latitude":38.9189,
        "Longitude":-104.7045
    },
    {
        "State":"Colorado",
        "StateAbbr":"CO",
        "City":"Colorado Springs",
        "County":"El Paso",
        "ZipCode":"80924",
        "Latitude":38.9676,
        "Longitude":-104.7211
    },
    {
        "State":"Colorado",
        "StateAbbr":"CO",
        "City":"Colorado Springs",
        "County":"El Paso",
        "ZipCode":"80925",
        "Latitude":38.7378,
        "Longitude":-104.6459
    },
    {
        "State":"Colorado",
        "StateAbbr":"CO",
        "City":"Colorado Springs",
        "County":"El Paso",
        "ZipCode":"80926",
        "Latitude":38.6981,
        "Longitude":-104.8505
    },
    {
        "State":"Colorado",
        "StateAbbr":"CO",
        "City":"Colorado Springs",
        "County":"El Paso",
        "ZipCode":"80927",
        "Latitude":38.9286,
        "Longitude":-104.6583
    },
    {
        "State":"Colorado",
        "StateAbbr":"CO",
        "City":"Colorado Springs",
        "County":"El Paso",
        "ZipCode":"80928",
        "Latitude":38.6233,
        "Longitude":-104.457
    },
    {
        "State":"Colorado",
        "StateAbbr":"CO",
        "City":"Colorado Springs",
        "County":"El Paso",
        "ZipCode":"80929",
        "Latitude":38.7968,
        "Longitude":-104.6079
    },
    {
        "State":"Colorado",
        "StateAbbr":"CO",
        "City":"Colorado Springs",
        "County":"El Paso",
        "ZipCode":"80930",
        "Latitude":38.8289,
        "Longitude":-104.5269
    },
    {
        "State":"Colorado",
        "StateAbbr":"CO",
        "City":"Colorado Springs",
        "County":"El Paso",
        "ZipCode":"80931",
        "Latitude":38.8339,
        "Longitude":-104.8214
    },
    {
        "State":"Colorado",
        "StateAbbr":"CO",
        "City":"Colorado Springs",
        "County":"El Paso",
        "ZipCode":"80932",
        "Latitude":38.8339,
        "Longitude":-104.8214
    },
    {
        "State":"Colorado",
        "StateAbbr":"CO",
        "City":"Colorado Springs",
        "County":"El Paso",
        "ZipCode":"80933",
        "Latitude":38.8339,
        "Longitude":-104.8214
    },
    {
        "State":"Colorado",
        "StateAbbr":"CO",
        "City":"Colorado Springs",
        "County":"El Paso",
        "ZipCode":"80934",
        "Latitude":38.8339,
        "Longitude":-104.8214
    },
    {
        "State":"Colorado",
        "StateAbbr":"CO",
        "City":"Colorado Springs",
        "County":"El Paso",
        "ZipCode":"80935",
        "Latitude":38.8339,
        "Longitude":-104.8214
    },
    {
        "State":"Colorado",
        "StateAbbr":"CO",
        "City":"Colorado Springs",
        "County":"El Paso",
        "ZipCode":"80936",
        "Latitude":38.8339,
        "Longitude":-104.8214
    },
    {
        "State":"Colorado",
        "StateAbbr":"CO",
        "City":"Colorado Springs",
        "County":"El Paso",
        "ZipCode":"80937",
        "Latitude":38.8339,
        "Longitude":-104.8214
    },
    {
        "State":"Colorado",
        "StateAbbr":"CO",
        "City":"Colorado Springs",
        "County":"El Paso",
        "ZipCode":"80938",
        "Latitude":38.9047,
        "Longitude":-104.6634
    },
    {
        "State":"Colorado",
        "StateAbbr":"CO",
        "City":"Colorado Springs",
        "County":"El Paso",
        "ZipCode":"80939",
        "Latitude":38.8776,
        "Longitude":-104.6774
    },
    {
        "State":"Colorado",
        "StateAbbr":"CO",
        "City":"Colorado Springs",
        "County":"El Paso",
        "ZipCode":"80941",
        "Latitude":38.8339,
        "Longitude":-104.8214
    },
    {
        "State":"Colorado",
        "StateAbbr":"CO",
        "City":"Colorado Springs",
        "County":"El Paso",
        "ZipCode":"80942",
        "Latitude":38.8339,
        "Longitude":-104.8214
    },
    {
        "State":"Colorado",
        "StateAbbr":"CO",
        "City":"Colorado Springs",
        "County":"El Paso",
        "ZipCode":"80944",
        "Latitude":38.8339,
        "Longitude":-104.8214
    },
    {
        "State":"Colorado",
        "StateAbbr":"CO",
        "City":"Colorado Springs",
        "County":"El Paso",
        "ZipCode":"80946",
        "Latitude":38.8339,
        "Longitude":-104.8214
    },
    {
        "State":"Colorado",
        "StateAbbr":"CO",
        "City":"Colorado Springs",
        "County":"El Paso",
        "ZipCode":"80947",
        "Latitude":38.8339,
        "Longitude":-104.8214
    },
    {
        "State":"Colorado",
        "StateAbbr":"CO",
        "City":"Colorado Springs",
        "County":"El Paso",
        "ZipCode":"80949",
        "Latitude":38.8339,
        "Longitude":-104.8214
    },
    {
        "State":"Colorado",
        "StateAbbr":"CO",
        "City":"Colorado Springs",
        "County":"El Paso",
        "ZipCode":"80950",
        "Latitude":38.8339,
        "Longitude":-104.8214
    },
    {
        "State":"Colorado",
        "StateAbbr":"CO",
        "City":"Colorado Springs",
        "County":"El Paso",
        "ZipCode":"80951",
        "Latitude":38.8881,
        "Longitude":-104.6556
    },
    {
        "State":"Colorado",
        "StateAbbr":"CO",
        "City":"Colorado Springs",
        "County":"El Paso",
        "ZipCode":"80960",
        "Latitude":38.8339,
        "Longitude":-104.8214
    },
    {
        "State":"Colorado",
        "StateAbbr":"CO",
        "City":"Colorado Springs",
        "County":"El Paso",
        "ZipCode":"80962",
        "Latitude":38.8339,
        "Longitude":-104.8214
    },
    {
        "State":"Colorado",
        "StateAbbr":"CO",
        "City":"Colorado Springs",
        "County":"El Paso",
        "ZipCode":"80970",
        "Latitude":38.8339,
        "Longitude":-104.8214
    },
    {
        "State":"Colorado",
        "StateAbbr":"CO",
        "City":"Colorado Springs",
        "County":"El Paso",
        "ZipCode":"80977",
        "Latitude":38.8339,
        "Longitude":-104.8214
    },
    {
        "State":"Colorado",
        "StateAbbr":"CO",
        "City":"Colorado Springs",
        "County":"El Paso",
        "ZipCode":"80995",
        "Latitude":38.8339,
        "Longitude":-104.8214
    },
    {
        "State":"Colorado",
        "StateAbbr":"CO",
        "City":"Colorado Springs",
        "County":"El Paso",
        "ZipCode":"80997",
        "Latitude":38.8339,
        "Longitude":-104.8214
    },
    {
        "State":"Colorado",
        "StateAbbr":"CO",
        "City":"Canon City",
        "County":"Fremont",
        "ZipCode":"81212",
        "Latitude":38.4451,
        "Longitude":-105.2178
    },
    {
        "State":"Colorado",
        "StateAbbr":"CO",
        "City":"Canon City",
        "County":"Fremont",
        "ZipCode":"81215",
        "Latitude":38.4776,
        "Longitude":-105.4766
    },
    {
        "State":"Colorado",
        "StateAbbr":"CO",
        "City":"Coal Creek",
        "County":"Fremont",
        "ZipCode":"81221",
        "Latitude":38.3611,
        "Longitude":-105.1483
    },
    {
        "State":"Colorado",
        "StateAbbr":"CO",
        "City":"Coaldale",
        "County":"Fremont",
        "ZipCode":"81222",
        "Latitude":38.3824,
        "Longitude":-105.7843
    },
    {
        "State":"Colorado",
        "StateAbbr":"CO",
        "City":"Cotopaxi",
        "County":"Fremont",
        "ZipCode":"81223",
        "Latitude":38.3703,
        "Longitude":-105.6881
    },
    {
        "State":"Colorado",
        "StateAbbr":"CO",
        "City":"Florence",
        "County":"Fremont",
        "ZipCode":"81226",
        "Latitude":38.385,
        "Longitude":-105.1232
    },
    {
        "State":"Colorado",
        "StateAbbr":"CO",
        "City":"Hillside",
        "County":"Fremont",
        "ZipCode":"81232",
        "Latitude":38.2653,
        "Longitude":-105.6117
    },
    {
        "State":"Colorado",
        "StateAbbr":"CO",
        "City":"Howard",
        "County":"Fremont",
        "ZipCode":"81233",
        "Latitude":38.41,
        "Longitude":-105.7698
    },
    {
        "State":"Colorado",
        "StateAbbr":"CO",
        "City":"Penrose",
        "County":"Fremont",
        "ZipCode":"81240",
        "Latitude":38.4336,
        "Longitude":-105.0113
    },
    {
        "State":"Colorado",
        "StateAbbr":"CO",
        "City":"Rockvale",
        "County":"Fremont",
        "ZipCode":"81244",
        "Latitude":38.3697,
        "Longitude":-105.1639
    },
    {
        "State":"Colorado",
        "StateAbbr":"CO",
        "City":"Florence",
        "County":"Fremont",
        "ZipCode":"81290",
        "Latitude":38.3903,
        "Longitude":-105.1186
    },
    {
        "State":"Colorado",
        "StateAbbr":"CO",
        "City":"Glenwood Springs",
        "County":"Garfield",
        "ZipCode":"81601",
        "Latitude":39.5296,
        "Longitude":-107.3252
    },
    {
        "State":"Colorado",
        "StateAbbr":"CO",
        "City":"Glenwood Springs",
        "County":"Garfield",
        "ZipCode":"81602",
        "Latitude":39.5505,
        "Longitude":-107.3248
    },
    {
        "State":"Colorado",
        "StateAbbr":"CO",
        "City":"Carbondale",
        "County":"Garfield",
        "ZipCode":"81623",
        "Latitude":39.2511,
        "Longitude":-107.2044
    },
    {
        "State":"Colorado",
        "StateAbbr":"CO",
        "City":"Parachute",
        "County":"Garfield",
        "ZipCode":"81635",
        "Latitude":39.4519,
        "Longitude":-108.0529
    },
    {
        "State":"Colorado",
        "StateAbbr":"CO",
        "City":"Battlement Mesa",
        "County":"Garfield",
        "ZipCode":"81636",
        "Latitude":39.4305,
        "Longitude":-108.0239
    },
    {
        "State":"Colorado",
        "StateAbbr":"CO",
        "City":"New Castle",
        "County":"Garfield",
        "ZipCode":"81647",
        "Latitude":39.5709,
        "Longitude":-107.5428
    },
    {
        "State":"Colorado",
        "StateAbbr":"CO",
        "City":"Rifle",
        "County":"Garfield",
        "ZipCode":"81650",
        "Latitude":39.5491,
        "Longitude":-107.7898
    },
    {
        "State":"Colorado",
        "StateAbbr":"CO",
        "City":"Silt",
        "County":"Garfield",
        "ZipCode":"81652",
        "Latitude":39.5028,
        "Longitude":-107.6657
    },
    {
        "State":"Colorado",
        "StateAbbr":"CO",
        "City":"Black Hawk",
        "County":"Gilpin",
        "ZipCode":"80422",
        "Latitude":39.816,
        "Longitude":-105.4753
    },
    {
        "State":"Colorado",
        "StateAbbr":"CO",
        "City":"Central City",
        "County":"Gilpin",
        "ZipCode":"80427",
        "Latitude":39.8019,
        "Longitude":-105.5142
    },
    {
        "State":"Colorado",
        "StateAbbr":"CO",
        "City":"Rollinsville",
        "County":"Gilpin",
        "ZipCode":"80474",
        "Latitude":39.9172,
        "Longitude":-105.5011
    },
    {
        "State":"Colorado",
        "StateAbbr":"CO",
        "City":"Fraser",
        "County":"Grand",
        "ZipCode":"80442",
        "Latitude":39.945,
        "Longitude":-105.8172
    },
    {
        "State":"Colorado",
        "StateAbbr":"CO",
        "City":"Granby",
        "County":"Grand",
        "ZipCode":"80446",
        "Latitude":40.0739,
        "Longitude":-105.9285
    },
    {
        "State":"Colorado",
        "StateAbbr":"CO",
        "City":"Grand Lake",
        "County":"Grand",
        "ZipCode":"80447",
        "Latitude":40.2289,
        "Longitude":-105.8605
    },
    {
        "State":"Colorado",
        "StateAbbr":"CO",
        "City":"Hot Sulphur Springs",
        "County":"Grand",
        "ZipCode":"80451",
        "Latitude":40.0712,
        "Longitude":-106.0693
    },
    {
        "State":"Colorado",
        "StateAbbr":"CO",
        "City":"Kremmling",
        "County":"Grand",
        "ZipCode":"80459",
        "Latitude":40.0632,
        "Longitude":-106.3955
    },
    {
        "State":"Colorado",
        "StateAbbr":"CO",
        "City":"Parshall",
        "County":"Grand",
        "ZipCode":"80468",
        "Latitude":39.9539,
        "Longitude":-106.093
    },
    {
        "State":"Colorado",
        "StateAbbr":"CO",
        "City":"Tabernash",
        "County":"Grand",
        "ZipCode":"80478",
        "Latitude":39.9797,
        "Longitude":-105.8615
    },
    {
        "State":"Colorado",
        "StateAbbr":"CO",
        "City":"Winter Park",
        "County":"Grand",
        "ZipCode":"80482",
        "Latitude":39.8939,
        "Longitude":-105.7845
    },
    {
        "State":"Colorado",
        "StateAbbr":"CO",
        "City":"Almont",
        "County":"Gunnison",
        "ZipCode":"81210",
        "Latitude":38.82,
        "Longitude":-106.6603
    },
    {
        "State":"Colorado",
        "StateAbbr":"CO",
        "City":"Crested Butte",
        "County":"Gunnison",
        "ZipCode":"81224",
        "Latitude":38.8691,
        "Longitude":-106.9619
    },
    {
        "State":"Colorado",
        "StateAbbr":"CO",
        "City":"Crested Butte",
        "County":"Gunnison",
        "ZipCode":"81225",
        "Latitude":38.9006,
        "Longitude":-106.9631
    },
    {
        "State":"Colorado",
        "StateAbbr":"CO",
        "City":"Gunnison",
        "County":"Gunnison",
        "ZipCode":"81230",
        "Latitude":38.5511,
        "Longitude":-106.931
    },
    {
        "State":"Colorado",
        "StateAbbr":"CO",
        "City":"Gunnison",
        "County":"Gunnison",
        "ZipCode":"81231",
        "Latitude":38.5458,
        "Longitude":-106.9253
    },
    {
        "State":"Colorado",
        "StateAbbr":"CO",
        "City":"Ohio City",
        "County":"Gunnison",
        "ZipCode":"81237",
        "Latitude":38.5908,
        "Longitude":-106.6028
    },
    {
        "State":"Colorado",
        "StateAbbr":"CO",
        "City":"Parlin",
        "County":"Gunnison",
        "ZipCode":"81239",
        "Latitude":38.5371,
        "Longitude":-106.6352
    },
    {
        "State":"Colorado",
        "StateAbbr":"CO",
        "City":"Pitkin",
        "County":"Gunnison",
        "ZipCode":"81241",
        "Latitude":38.6179,
        "Longitude":-106.5146
    },
    {
        "State":"Colorado",
        "StateAbbr":"CO",
        "City":"Powderhorn",
        "County":"Gunnison",
        "ZipCode":"81243",
        "Latitude":38.2822,
        "Longitude":-107.1084
    },
    {
        "State":"Colorado",
        "StateAbbr":"CO",
        "City":"Somerset",
        "County":"Gunnison",
        "ZipCode":"81434",
        "Latitude":38.9468,
        "Longitude":-107.3781
    },
    {
        "State":"Colorado",
        "StateAbbr":"CO",
        "City":"Lake City",
        "County":"Hinsdale",
        "ZipCode":"81235",
        "Latitude":37.9868,
        "Longitude":-107.302
    },
    {
        "State":"Colorado",
        "StateAbbr":"CO",
        "City":"Gardner",
        "County":"Huerfano",
        "ZipCode":"81040",
        "Latitude":37.7878,
        "Longitude":-105.1849
    },
    {
        "State":"Colorado",
        "StateAbbr":"CO",
        "City":"La Veta",
        "County":"Huerfano",
        "ZipCode":"81055",
        "Latitude":37.5117,
        "Longitude":-105.0575
    },
    {
        "State":"Colorado",
        "StateAbbr":"CO",
        "City":"Walsenburg",
        "County":"Huerfano",
        "ZipCode":"81089",
        "Latitude":37.6465,
        "Longitude":-104.7798
    },
    {
        "State":"Colorado",
        "StateAbbr":"CO",
        "City":"Coalmont",
        "County":"Jackson",
        "ZipCode":"80430",
        "Latitude":40.5383,
        "Longitude":-106.5321
    },
    {
        "State":"Colorado",
        "StateAbbr":"CO",
        "City":"Cowdrey",
        "County":"Jackson",
        "ZipCode":"80434",
        "Latitude":40.8597,
        "Longitude":-106.3131
    },
    {
        "State":"Colorado",
        "StateAbbr":"CO",
        "City":"Rand",
        "County":"Jackson",
        "ZipCode":"80473",
        "Latitude":40.4667,
        "Longitude":-106.1857
    },
    {
        "State":"Colorado",
        "StateAbbr":"CO",
        "City":"Walden",
        "County":"Jackson",
        "ZipCode":"80480",
        "Latitude":40.71,
        "Longitude":-106.2767
    },
    {
        "State":"Colorado",
        "StateAbbr":"CO",
        "City":"Arvada",
        "County":"Jefferson",
        "ZipCode":"80001",
        "Latitude":39.8028,
        "Longitude":-105.0875
    },
    {
        "State":"Colorado",
        "StateAbbr":"CO",
        "City":"Arvada",
        "County":"Jefferson",
        "ZipCode":"80002",
        "Latitude":39.7945,
        "Longitude":-105.0984
    },
    {
        "State":"Colorado",
        "StateAbbr":"CO",
        "City":"Arvada",
        "County":"Jefferson",
        "ZipCode":"80003",
        "Latitude":39.8286,
        "Longitude":-105.0655
    },
    {
        "State":"Colorado",
        "StateAbbr":"CO",
        "City":"Arvada",
        "County":"Jefferson",
        "ZipCode":"80004",
        "Latitude":39.8141,
        "Longitude":-105.1177
    },
    {
        "State":"Colorado",
        "StateAbbr":"CO",
        "City":"Arvada",
        "County":"Jefferson",
        "ZipCode":"80005",
        "Latitude":39.8422,
        "Longitude":-105.1097
    },
    {
        "State":"Colorado",
        "StateAbbr":"CO",
        "City":"Arvada",
        "County":"Jefferson",
        "ZipCode":"80006",
        "Latitude":39.8028,
        "Longitude":-105.0875
    },
    {
        "State":"Colorado",
        "StateAbbr":"CO",
        "City":"Arvada",
        "County":"Jefferson",
        "ZipCode":"80007",
        "Latitude":39.8634,
        "Longitude":-105.1724
    },
    {
        "State":"Colorado",
        "StateAbbr":"CO",
        "City":"Broomfield",
        "County":"Jefferson",
        "ZipCode":"80021",
        "Latitude":39.8854,
        "Longitude":-105.1139
    },
    {
        "State":"Colorado",
        "StateAbbr":"CO",
        "City":"Wheat Ridge",
        "County":"Jefferson",
        "ZipCode":"80033",
        "Latitude":39.774,
        "Longitude":-105.0962
    },
    {
        "State":"Colorado",
        "StateAbbr":"CO",
        "City":"Wheat Ridge",
        "County":"Jefferson",
        "ZipCode":"80034",
        "Latitude":39.7661,
        "Longitude":-105.0772
    },
    {
        "State":"Colorado",
        "StateAbbr":"CO",
        "City":"Littleton",
        "County":"Jefferson",
        "ZipCode":"80123",
        "Latitude":39.6206,
        "Longitude":-105.0901
    },
    {
        "State":"Colorado",
        "StateAbbr":"CO",
        "City":"Littleton",
        "County":"Jefferson",
        "ZipCode":"80127",
        "Latitude":39.592,
        "Longitude":-105.1328
    },
    {
        "State":"Colorado",
        "StateAbbr":"CO",
        "City":"Littleton",
        "County":"Jefferson",
        "ZipCode":"80128",
        "Latitude":39.5918,
        "Longitude":-105.0832
    },
    {
        "State":"Colorado",
        "StateAbbr":"CO",
        "City":"Littleton",
        "County":"Jefferson",
        "ZipCode":"80162",
        "Latitude":39.522,
        "Longitude":-105.2239
    },
    {
        "State":"Colorado",
        "StateAbbr":"CO",
        "City":"Denver",
        "County":"Jefferson",
        "ZipCode":"80214",
        "Latitude":39.7436,
        "Longitude":-105.0643
    },
    {
        "State":"Colorado",
        "StateAbbr":"CO",
        "City":"Denver",
        "County":"Jefferson",
        "ZipCode":"80215",
        "Latitude":39.7435,
        "Longitude":-105.1009
    },
    {
        "State":"Colorado",
        "StateAbbr":"CO",
        "City":"Denver",
        "County":"Jefferson",
        "ZipCode":"80225",
        "Latitude":39.6971,
        "Longitude":-105.1204
    },
    {
        "State":"Colorado",
        "StateAbbr":"CO",
        "City":"Denver",
        "County":"Jefferson",
        "ZipCode":"80226",
        "Latitude":39.7123,
        "Longitude":-105.0918
    },
    {
        "State":"Colorado",
        "StateAbbr":"CO",
        "City":"Denver",
        "County":"Jefferson",
        "ZipCode":"80228",
        "Latitude":39.6888,
        "Longitude":-105.156
    },
    {
        "State":"Colorado",
        "StateAbbr":"CO",
        "City":"Denver",
        "County":"Jefferson",
        "ZipCode":"80232",
        "Latitude":39.6895,
        "Longitude":-105.0908
    },
    {
        "State":"Colorado",
        "StateAbbr":"CO",
        "City":"Golden",
        "County":"Jefferson",
        "ZipCode":"80401",
        "Latitude":39.7305,
        "Longitude":-105.1915
    },
    {
        "State":"Colorado",
        "StateAbbr":"CO",
        "City":"Golden",
        "County":"Jefferson",
        "ZipCode":"80402",
        "Latitude":39.7555,
        "Longitude":-105.2211
    },
    {
        "State":"Colorado",
        "StateAbbr":"CO",
        "City":"Golden",
        "County":"Jefferson",
        "ZipCode":"80403",
        "Latitude":39.8232,
        "Longitude":-105.2825
    },
    {
        "State":"Colorado",
        "StateAbbr":"CO",
        "City":"Golden",
        "County":"Jefferson",
        "ZipCode":"80419",
        "Latitude":39.522,
        "Longitude":-105.2239
    },
    {
        "State":"Colorado",
        "StateAbbr":"CO",
        "City":"Buffalo Creek",
        "County":"Jefferson",
        "ZipCode":"80425",
        "Latitude":39.3867,
        "Longitude":-105.2703
    },
    {
        "State":"Colorado",
        "StateAbbr":"CO",
        "City":"Conifer",
        "County":"Jefferson",
        "ZipCode":"80433",
        "Latitude":39.5197,
        "Longitude":-105.3169
    },
    {
        "State":"Colorado",
        "StateAbbr":"CO",
        "City":"Evergreen",
        "County":"Jefferson",
        "ZipCode":"80437",
        "Latitude":39.522,
        "Longitude":-105.2239
    },
    {
        "State":"Colorado",
        "StateAbbr":"CO",
        "City":"Evergreen",
        "County":"Jefferson",
        "ZipCode":"80439",
        "Latitude":39.6374,
        "Longitude":-105.3402
    },
    {
        "State":"Colorado",
        "StateAbbr":"CO",
        "City":"Idledale",
        "County":"Jefferson",
        "ZipCode":"80453",
        "Latitude":39.6684,
        "Longitude":-105.2442
    },
    {
        "State":"Colorado",
        "StateAbbr":"CO",
        "City":"Indian Hills",
        "County":"Jefferson",
        "ZipCode":"80454",
        "Latitude":39.6296,
        "Longitude":-105.2514
    },
    {
        "State":"Colorado",
        "StateAbbr":"CO",
        "City":"Kittredge",
        "County":"Jefferson",
        "ZipCode":"80457",
        "Latitude":39.6481,
        "Longitude":-105.2782
    },
    {
        "State":"Colorado",
        "StateAbbr":"CO",
        "City":"Morrison",
        "County":"Jefferson",
        "ZipCode":"80465",
        "Latitude":39.6125,
        "Longitude":-105.1746
    },
    {
        "State":"Colorado",
        "StateAbbr":"CO",
        "City":"Pine",
        "County":"Jefferson",
        "ZipCode":"80470",
        "Latitude":39.4667,
        "Longitude":-105.3741
    },
    {
        "State":"Colorado",
        "StateAbbr":"CO",
        "City":"Arlington",
        "County":"Kiowa",
        "ZipCode":"81021",
        "Latitude":38.4068,
        "Longitude":-103.3697
    },
    {
        "State":"Colorado",
        "StateAbbr":"CO",
        "City":"Eads",
        "County":"Kiowa",
        "ZipCode":"81036",
        "Latitude":38.4408,
        "Longitude":-102.5549
    },
    {
        "State":"Colorado",
        "StateAbbr":"CO",
        "City":"Haswell",
        "County":"Kiowa",
        "ZipCode":"81045",
        "Latitude":38.4474,
        "Longitude":-103.1505
    },
    {
        "State":"Colorado",
        "StateAbbr":"CO",
        "City":"Sheridan Lake",
        "County":"Kiowa",
        "ZipCode":"81071",
        "Latitude":38.4667,
        "Longitude":-102.2921
    },
    {
        "State":"Colorado",
        "StateAbbr":"CO",
        "City":"Bethune",
        "County":"Kit Carson",
        "ZipCode":"80805",
        "Latitude":39.3448,
        "Longitude":-102.4281
    },
    {
        "State":"Colorado",
        "StateAbbr":"CO",
        "City":"Burlington",
        "County":"Kit Carson",
        "ZipCode":"80807",
        "Latitude":39.3106,
        "Longitude":-102.2583
    },
    {
        "State":"Colorado",
        "StateAbbr":"CO",
        "City":"Flagler",
        "County":"Kit Carson",
        "ZipCode":"80815",
        "Latitude":39.3127,
        "Longitude":-103.0624
    },
    {
        "State":"Colorado",
        "StateAbbr":"CO",
        "City":"Seibert",
        "County":"Kit Carson",
        "ZipCode":"80834",
        "Latitude":39.3183,
        "Longitude":-102.8822
    },
    {
        "State":"Colorado",
        "StateAbbr":"CO",
        "City":"Stratton",
        "County":"Kit Carson",
        "ZipCode":"80836",
        "Latitude":39.3087,
        "Longitude":-102.5979
    },
    {
        "State":"Colorado",
        "StateAbbr":"CO",
        "City":"Vona",
        "County":"Kit Carson",
        "ZipCode":"80861",
        "Latitude":39.3236,
        "Longitude":-102.7393
    },
    {
        "State":"Colorado",
        "StateAbbr":"CO",
        "City":"Climax",
        "County":"Lake",
        "ZipCode":"80429",
        "Latitude":39.2258,
        "Longitude":-106.3117
    },
    {
        "State":"Colorado",
        "StateAbbr":"CO",
        "City":"Leadville",
        "County":"Lake",
        "ZipCode":"80461",
        "Latitude":39.2497,
        "Longitude":-106.3015
    },
    {
        "State":"Colorado",
        "StateAbbr":"CO",
        "City":"Twin Lakes",
        "County":"Lake",
        "ZipCode":"81251",
        "Latitude":39.1011,
        "Longitude":-106.4416
    },
    {
        "State":"Colorado",
        "StateAbbr":"CO",
        "City":"Bayfield",
        "County":"La Plata",
        "ZipCode":"81122",
        "Latitude":37.2603,
        "Longitude":-107.6137
    },
    {
        "State":"Colorado",
        "StateAbbr":"CO",
        "City":"Ignacio",
        "County":"La Plata",
        "ZipCode":"81137",
        "Latitude":37.1264,
        "Longitude":-107.6395
    },
    {
        "State":"Colorado",
        "StateAbbr":"CO",
        "City":"Durango",
        "County":"La Plata",
        "ZipCode":"81301",
        "Latitude":37.2874,
        "Longitude":-107.8617
    },
    {
        "State":"Colorado",
        "StateAbbr":"CO",
        "City":"Durango",
        "County":"La Plata",
        "ZipCode":"81302",
        "Latitude":37.2753,
        "Longitude":-107.8801
    },
    {
        "State":"Colorado",
        "StateAbbr":"CO",
        "City":"Durango",
        "County":"La Plata",
        "ZipCode":"81303",
        "Latitude":37.1156,
        "Longitude":-107.8909
    },
    {
        "State":"Colorado",
        "StateAbbr":"CO",
        "City":"Hesperus",
        "County":"La Plata",
        "ZipCode":"81326",
        "Latitude":37.1654,
        "Longitude":-108.1219
    },
    {
        "State":"Colorado",
        "StateAbbr":"CO",
        "City":"Marvel",
        "County":"La Plata",
        "ZipCode":"81329",
        "Latitude":37.0926,
        "Longitude":-108.1252
    },
    {
        "State":"Colorado",
        "StateAbbr":"CO",
        "City":"Estes Park",
        "County":"Larimer",
        "ZipCode":"80511",
        "Latitude":40.6281,
        "Longitude":-105.5692
    },
    {
        "State":"Colorado",
        "StateAbbr":"CO",
        "City":"Bellvue",
        "County":"Larimer",
        "ZipCode":"80512",
        "Latitude":40.6265,
        "Longitude":-105.261
    },
    {
        "State":"Colorado",
        "StateAbbr":"CO",
        "City":"Berthoud",
        "County":"Larimer",
        "ZipCode":"80513",
        "Latitude":40.2993,
        "Longitude":-105.1055
    },
    {
        "State":"Colorado",
        "StateAbbr":"CO",
        "City":"Drake",
        "County":"Larimer",
        "ZipCode":"80515",
        "Latitude":40.4275,
        "Longitude":-105.3831
    },
    {
        "State":"Colorado",
        "StateAbbr":"CO",
        "City":"Estes Park",
        "County":"Larimer",
        "ZipCode":"80517",
        "Latitude":40.3658,
        "Longitude":-105.5142
    },
    {
        "State":"Colorado",
        "StateAbbr":"CO",
        "City":"Fort Collins",
        "County":"Larimer",
        "ZipCode":"80521",
        "Latitude":40.5813,
        "Longitude":-105.1039
    },
    {
        "State":"Colorado",
        "StateAbbr":"CO",
        "City":"Fort Collins",
        "County":"Larimer",
        "ZipCode":"80522",
        "Latitude":40.6429,
        "Longitude":-105.057
    },
    {
        "State":"Colorado",
        "StateAbbr":"CO",
        "City":"Fort Collins",
        "County":"Larimer",
        "ZipCode":"80523",
        "Latitude":40.5853,
        "Longitude":-105.0844
    },
    {
        "State":"Colorado",
        "StateAbbr":"CO",
        "City":"Fort Collins",
        "County":"Larimer",
        "ZipCode":"80524",
        "Latitude":40.5986,
        "Longitude":-105.0581
    },
    {
        "State":"Colorado",
        "StateAbbr":"CO",
        "City":"Fort Collins",
        "County":"Larimer",
        "ZipCode":"80525",
        "Latitude":40.5384,
        "Longitude":-105.0547
    },
    {
        "State":"Colorado",
        "StateAbbr":"CO",
        "City":"Fort Collins",
        "County":"Larimer",
        "ZipCode":"80526",
        "Latitude":40.5473,
        "Longitude":-105.1076
    },
    {
        "State":"Colorado",
        "StateAbbr":"CO",
        "City":"Fort Collins",
        "County":"Larimer",
        "ZipCode":"80527",
        "Latitude":40.5853,
        "Longitude":-105.0844
    },
    {
        "State":"Colorado",
        "StateAbbr":"CO",
        "City":"Fort Collins",
        "County":"Larimer",
        "ZipCode":"80528",
        "Latitude":40.4961,
        "Longitude":-105.0002
    },
    {
        "State":"Colorado",
        "StateAbbr":"CO",
        "City":"Glen Haven",
        "County":"Larimer",
        "ZipCode":"80532",
        "Latitude":40.4578,
        "Longitude":-105.447
    },
    {
        "State":"Colorado",
        "StateAbbr":"CO",
        "City":"Laporte",
        "County":"Larimer",
        "ZipCode":"80535",
        "Latitude":40.6347,
        "Longitude":-105.1488
    },
    {
        "State":"Colorado",
        "StateAbbr":"CO",
        "City":"Livermore",
        "County":"Larimer",
        "ZipCode":"80536",
        "Latitude":40.8701,
        "Longitude":-105.3766
    },
    {
        "State":"Colorado",
        "StateAbbr":"CO",
        "City":"Loveland",
        "County":"Larimer",
        "ZipCode":"80537",
        "Latitude":40.3849,
        "Longitude":-105.0916
    },
    {
        "State":"Colorado",
        "StateAbbr":"CO",
        "City":"Loveland",
        "County":"Larimer",
        "ZipCode":"80538",
        "Latitude":40.4262,
        "Longitude":-105.09
    },
    {
        "State":"Colorado",
        "StateAbbr":"CO",
        "City":"Loveland",
        "County":"Larimer",
        "ZipCode":"80539",
        "Latitude":40.3978,
        "Longitude":-105.075
    },
    {
        "State":"Colorado",
        "StateAbbr":"CO",
        "City":"Masonville",
        "County":"Larimer",
        "ZipCode":"80541",
        "Latitude":40.4875,
        "Longitude":-105.2108
    },
    {
        "State":"Colorado",
        "StateAbbr":"CO",
        "City":"Red Feather Lakes",
        "County":"Larimer",
        "ZipCode":"80545",
        "Latitude":40.8659,
        "Longitude":-105.6893
    },
    {
        "State":"Colorado",
        "StateAbbr":"CO",
        "City":"Timnath",
        "County":"Larimer",
        "ZipCode":"80547",
        "Latitude":40.5291,
        "Longitude":-104.9853
    },
    {
        "State":"Colorado",
        "StateAbbr":"CO",
        "City":"Wellington",
        "County":"Larimer",
        "ZipCode":"80549",
        "Latitude":40.7255,
        "Longitude":-105.0318
    },
    {
        "State":"Colorado",
        "StateAbbr":"CO",
        "City":"Fort Collins",
        "County":"Larimer",
        "ZipCode":"80553",
        "Latitude":40.5853,
        "Longitude":-105.0844
    },
    {
        "State":"Colorado",
        "StateAbbr":"CO",
        "City":"Aguilar",
        "County":"Las Animas",
        "ZipCode":"81020",
        "Latitude":37.3933,
        "Longitude":-104.6769
    },
    {
        "State":"Colorado",
        "StateAbbr":"CO",
        "City":"Boncarbo",
        "County":"Las Animas",
        "ZipCode":"81024",
        "Latitude":37.2081,
        "Longitude":-104.7198
    },
    {
        "State":"Colorado",
        "StateAbbr":"CO",
        "City":"Branson",
        "County":"Las Animas",
        "ZipCode":"81027",
        "Latitude":37.0518,
        "Longitude":-103.8741
    },
    {
        "State":"Colorado",
        "StateAbbr":"CO",
        "City":"Hoehne",
        "County":"Las Animas",
        "ZipCode":"81046",
        "Latitude":37.2796,
        "Longitude":-104.3584
    },
    {
        "State":"Colorado",
        "StateAbbr":"CO",
        "City":"Kim",
        "County":"Las Animas",
        "ZipCode":"81049",
        "Latitude":37.3328,
        "Longitude":-103.3736
    },
    {
        "State":"Colorado",
        "StateAbbr":"CO",
        "City":"Model",
        "County":"Las Animas",
        "ZipCode":"81059",
        "Latitude":37.5192,
        "Longitude":-104.223
    },
    {
        "State":"Colorado",
        "StateAbbr":"CO",
        "City":"Trinchera",
        "County":"Las Animas",
        "ZipCode":"81081",
        "Latitude":37.0757,
        "Longitude":-104.1184
    },
    {
        "State":"Colorado",
        "StateAbbr":"CO",
        "City":"Trinidad",
        "County":"Las Animas",
        "ZipCode":"81082",
        "Latitude":37.2691,
        "Longitude":-104.5038
    },
    {
        "State":"Colorado",
        "StateAbbr":"CO",
        "City":"Weston",
        "County":"Las Animas",
        "ZipCode":"81091",
        "Latitude":37.1702,
        "Longitude":-104.8247
    },
    {
        "State":"Colorado",
        "StateAbbr":"CO",
        "City":"Arriba",
        "County":"Lincoln",
        "ZipCode":"80804",
        "Latitude":39.3025,
        "Longitude":-103.271
    },
    {
        "State":"Colorado",
        "StateAbbr":"CO",
        "City":"Genoa",
        "County":"Lincoln",
        "ZipCode":"80818",
        "Latitude":39.3383,
        "Longitude":-103.4607
    },
    {
        "State":"Colorado",
        "StateAbbr":"CO",
        "City":"Hugo",
        "County":"Lincoln",
        "ZipCode":"80821",
        "Latitude":39.0843,
        "Longitude":-103.499
    },
    {
        "State":"Colorado",
        "StateAbbr":"CO",
        "City":"Karval",
        "County":"Lincoln",
        "ZipCode":"80823",
        "Latitude":38.7119,
        "Longitude":-103.5006
    },
    {
        "State":"Colorado",
        "StateAbbr":"CO",
        "City":"Limon",
        "County":"Lincoln",
        "ZipCode":"80826",
        "Latitude":39.2639,
        "Longitude":-103.6922
    },
    {
        "State":"Colorado",
        "StateAbbr":"CO",
        "City":"Limon",
        "County":"Lincoln",
        "ZipCode":"80828",
        "Latitude":39.2713,
        "Longitude":-103.6856
    },
    {
        "State":"Colorado",
        "StateAbbr":"CO",
        "City":"Atwood",
        "County":"Logan",
        "ZipCode":"80722",
        "Latitude":40.5082,
        "Longitude":-103.2749
    },
    {
        "State":"Colorado",
        "StateAbbr":"CO",
        "City":"Crook",
        "County":"Logan",
        "ZipCode":"80726",
        "Latitude":40.8747,
        "Longitude":-102.8472
    },
    {
        "State":"Colorado",
        "StateAbbr":"CO",
        "City":"Fleming",
        "County":"Logan",
        "ZipCode":"80728",
        "Latitude":40.637,
        "Longitude":-102.8688
    },
    {
        "State":"Colorado",
        "StateAbbr":"CO",
        "City":"Iliff",
        "County":"Logan",
        "ZipCode":"80736",
        "Latitude":40.7692,
        "Longitude":-103.0968
    },
    {
        "State":"Colorado",
        "StateAbbr":"CO",
        "City":"Merino",
        "County":"Logan",
        "ZipCode":"80741",
        "Latitude":40.5708,
        "Longitude":-103.4719
    },
    {
        "State":"Colorado",
        "StateAbbr":"CO",
        "City":"Padroni",
        "County":"Logan",
        "ZipCode":"80745",
        "Latitude":40.8842,
        "Longitude":-103.3728
    },
    {
        "State":"Colorado",
        "StateAbbr":"CO",
        "City":"Peetz",
        "County":"Logan",
        "ZipCode":"80747",
        "Latitude":40.9519,
        "Longitude":-103.1166
    },
    {
        "State":"Colorado",
        "StateAbbr":"CO",
        "City":"Sterling",
        "County":"Logan",
        "ZipCode":"80751",
        "Latitude":40.6306,
        "Longitude":-103.2212
    },
    {
        "State":"Colorado",
        "StateAbbr":"CO",
        "City":"Grand Junction",
        "County":"Mesa",
        "ZipCode":"81501",
        "Latitude":39.0783,
        "Longitude":-108.5457
    },
    {
        "State":"Colorado",
        "StateAbbr":"CO",
        "City":"Grand Junction",
        "County":"Mesa",
        "ZipCode":"81502",
        "Latitude":39.0179,
        "Longitude":-108.4814
    },
    {
        "State":"Colorado",
        "StateAbbr":"CO",
        "City":"Grand Junction",
        "County":"Mesa",
        "ZipCode":"81503",
        "Latitude":39.0307,
        "Longitude":-108.4361
    },
    {
        "State":"Colorado",
        "StateAbbr":"CO",
        "City":"Grand Junction",
        "County":"Mesa",
        "ZipCode":"81504",
        "Latitude":39.0791,
        "Longitude":-108.4916
    },
    {
        "State":"Colorado",
        "StateAbbr":"CO",
        "City":"Grand Junction",
        "County":"Mesa",
        "ZipCode":"81505",
        "Latitude":39.1071,
        "Longitude":-108.5968
    },
    {
        "State":"Colorado",
        "StateAbbr":"CO",
        "City":"Grand Junction",
        "County":"Mesa",
        "ZipCode":"81506",
        "Latitude":39.1032,
        "Longitude":-108.5491
    },
    {
        "State":"Colorado",
        "StateAbbr":"CO",
        "City":"Grand Junction",
        "County":"Mesa",
        "ZipCode":"81507",
        "Latitude":39.0157,
        "Longitude":-108.6129
    },
    {
        "State":"Colorado",
        "StateAbbr":"CO",
        "City":"Clifton",
        "County":"Mesa",
        "ZipCode":"81520",
        "Latitude":39.0805,
        "Longitude":-108.4496
    },
    {
        "State":"Colorado",
        "StateAbbr":"CO",
        "City":"Fruita",
        "County":"Mesa",
        "ZipCode":"81521",
        "Latitude":39.1637,
        "Longitude":-108.7218
    },
    {
        "State":"Colorado",
        "StateAbbr":"CO",
        "City":"Gateway",
        "County":"Mesa",
        "ZipCode":"81522",
        "Latitude":38.6784,
        "Longitude":-108.9719
    },
    {
        "State":"Colorado",
        "StateAbbr":"CO",
        "City":"Glade Park",
        "County":"Mesa",
        "ZipCode":"81523",
        "Latitude":38.9894,
        "Longitude":-108.781
    },
    {
        "State":"Colorado",
        "StateAbbr":"CO",
        "City":"Loma",
        "County":"Mesa",
        "ZipCode":"81524",
        "Latitude":39.2279,
        "Longitude":-108.8149
    },
    {
        "State":"Colorado",
        "StateAbbr":"CO",
        "City":"Mack",
        "County":"Mesa",
        "ZipCode":"81525",
        "Latitude":39.2554,
        "Longitude":-108.9296
    },
    {
        "State":"Colorado",
        "StateAbbr":"CO",
        "City":"Palisade",
        "County":"Mesa",
        "ZipCode":"81526",
        "Latitude":39.1032,
        "Longitude":-108.368
    },
    {
        "State":"Colorado",
        "StateAbbr":"CO",
        "City":"Whitewater",
        "County":"Mesa",
        "ZipCode":"81527",
        "Latitude":38.9744,
        "Longitude":-108.399
    },
    {
        "State":"Colorado",
        "StateAbbr":"CO",
        "City":"Collbran",
        "County":"Mesa",
        "ZipCode":"81624",
        "Latitude":39.2453,
        "Longitude":-107.9249
    },
    {
        "State":"Colorado",
        "StateAbbr":"CO",
        "City":"De Beque",
        "County":"Mesa",
        "ZipCode":"81630",
        "Latitude":39.3118,
        "Longitude":-108.2304
    },
    {
        "State":"Colorado",
        "StateAbbr":"CO",
        "City":"Mesa",
        "County":"Mesa",
        "ZipCode":"81643",
        "Latitude":39.1612,
        "Longitude":-108.1044
    },
    {
        "State":"Colorado",
        "StateAbbr":"CO",
        "City":"Molina",
        "County":"Mesa",
        "ZipCode":"81646",
        "Latitude":39.1891,
        "Longitude":-108.0604
    },
    {
        "State":"Colorado",
        "StateAbbr":"CO",
        "City":"Creede",
        "County":"Mineral",
        "ZipCode":"81130",
        "Latitude":37.8164,
        "Longitude":-106.9277
    },
    {
        "State":"Colorado",
        "StateAbbr":"CO",
        "City":"Dinosaur",
        "County":"Moffat",
        "ZipCode":"81610",
        "Latitude":40.2566,
        "Longitude":-108.9652
    },
    {
        "State":"Colorado",
        "StateAbbr":"CO",
        "City":"Craig",
        "County":"Moffat",
        "ZipCode":"81625",
        "Latitude":40.5224,
        "Longitude":-107.5615
    },
    {
        "State":"Colorado",
        "StateAbbr":"CO",
        "City":"Craig",
        "County":"Moffat",
        "ZipCode":"81626",
        "Latitude":40.5152,
        "Longitude":-107.5465
    },
    {
        "State":"Colorado",
        "StateAbbr":"CO",
        "City":"Dinosaur",
        "County":"Moffat",
        "ZipCode":"81633",
        "Latitude":40.377,
        "Longitude":-108.399
    },
    {
        "State":"Colorado",
        "StateAbbr":"CO",
        "City":"Hamilton",
        "County":"Moffat",
        "ZipCode":"81638",
        "Latitude":40.325,
        "Longitude":-107.5841
    },
    {
        "State":"Colorado",
        "StateAbbr":"CO",
        "City":"Maybell",
        "County":"Moffat",
        "ZipCode":"81640",
        "Latitude":40.6738,
        "Longitude":-108.3699
    },
    {
        "State":"Colorado",
        "StateAbbr":"CO",
        "City":"Slater",
        "County":"Moffat",
        "ZipCode":"81653",
        "Latitude":40.9979,
        "Longitude":-107.3388
    },
    {
        "State":"Colorado",
        "StateAbbr":"CO",
        "City":"Cortez",
        "County":"Montezuma",
        "ZipCode":"81321",
        "Latitude":37.3549,
        "Longitude":-108.5837
    },
    {
        "State":"Colorado",
        "StateAbbr":"CO",
        "City":"Dolores",
        "County":"Montezuma",
        "ZipCode":"81323",
        "Latitude":37.4666,
        "Longitude":-108.4717
    },
    {
        "State":"Colorado",
        "StateAbbr":"CO",
        "City":"Lewis",
        "County":"Montezuma",
        "ZipCode":"81327",
        "Latitude":37.5177,
        "Longitude":-108.6546
    },
    {
        "State":"Colorado",
        "StateAbbr":"CO",
        "City":"Mancos",
        "County":"Montezuma",
        "ZipCode":"81328",
        "Latitude":37.3471,
        "Longitude":-108.2982
    },
    {
        "State":"Colorado",
        "StateAbbr":"CO",
        "City":"Mesa Verde National Park",
        "County":"Montezuma",
        "ZipCode":"81330",
        "Latitude":37.2313,
        "Longitude":-108.4825
    },
    {
        "State":"Colorado",
        "StateAbbr":"CO",
        "City":"Pleasant View",
        "County":"Montezuma",
        "ZipCode":"81331",
        "Latitude":37.5888,
        "Longitude":-108.8095
    },