[
    {
        "State":"Indiana",
        "StateAbbr":"IN",
        "City":"Berne",
        "County":"Adams",
        "ZipCode":"46711",
        "Latitude":40.6716,
        "Longitude":-84.9343
    },
    {
        "State":"Indiana",
        "StateAbbr":"IN",
        "City":"Decatur",
        "County":"Adams",
        "ZipCode":"46733",
        "Latitude":40.8273,
        "Longitude":-84.9314
    },
    {
        "State":"Indiana",
        "StateAbbr":"IN",
        "City":"Geneva",
        "County":"Adams",
        "ZipCode":"46740",
        "Latitude":40.6071,
        "Longitude":-84.9621
    },
    {
        "State":"Indiana",
        "StateAbbr":"IN",
        "City":"Linn Grove",
        "County":"Adams",
        "ZipCode":"46769",
        "Latitude":40.645,
        "Longitude":-85.033
    },
    {
        "State":"Indiana",
        "StateAbbr":"IN",
        "City":"Monroe",
        "County":"Adams",
        "ZipCode":"46772",
        "Latitude":40.7005,
        "Longitude":-84.8441
    },
    {
        "State":"Indiana",
        "StateAbbr":"IN",
        "City":"Pleasant Mills",
        "County":"Adams",
        "ZipCode":"46780",
        "Latitude":40.7778,
        "Longitude":-84.8422
    },
    {
        "State":"Indiana",
        "StateAbbr":"IN",
        "City":"Preble",
        "County":"Adams",
        "ZipCode":"46782",
        "Latitude":40.832,
        "Longitude":-85.0054
    },
    {
        "State":"Indiana",
        "StateAbbr":"IN",
        "City":"Arcola",
        "County":"Allen",
        "ZipCode":"46704",
        "Latitude":41.1038,
        "Longitude":-85.2925
    },
    {
        "State":"Indiana",
        "StateAbbr":"IN",
        "City":"Grabill",
        "County":"Allen",
        "ZipCode":"46741",
        "Latitude":41.2108,
        "Longitude":-84.9406
    },
    {
        "State":"Indiana",
        "StateAbbr":"IN",
        "City":"Harlan",
        "County":"Allen",
        "ZipCode":"46743",
        "Latitude":41.2285,
        "Longitude":-84.8386
    },
    {
        "State":"Indiana",
        "StateAbbr":"IN",
        "City":"Hoagland",
        "County":"Allen",
        "ZipCode":"46745",
        "Latitude":40.9524,
        "Longitude":-85.0075
    },
    {
        "State":"Indiana",
        "StateAbbr":"IN",
        "City":"Huntertown",
        "County":"Allen",
        "ZipCode":"46748",
        "Latitude":41.2391,
        "Longitude":-85.1677
    },
    {
        "State":"Indiana",
        "StateAbbr":"IN",
        "City":"Leo",
        "County":"Allen",
        "ZipCode":"46765",
        "Latitude":41.2249,
        "Longitude":-85.0301
    },
    {
        "State":"Indiana",
        "StateAbbr":"IN",
        "City":"Monroeville",
        "County":"Allen",
        "ZipCode":"46773",
        "Latitude":40.987,
        "Longitude":-84.8937
    },
    {
        "State":"Indiana",
        "StateAbbr":"IN",
        "City":"New Haven",
        "County":"Allen",
        "ZipCode":"46774",
        "Latitude":41.0699,
        "Longitude":-85.0117
    },
    {
        "State":"Indiana",
        "StateAbbr":"IN",
        "City":"Woodburn",
        "County":"Allen",
        "ZipCode":"46797",
        "Latitude":41.1253,
        "Longitude":-84.8533
    },
    {
        "State":"Indiana",
        "StateAbbr":"IN",
        "City":"Yoder",
        "County":"Allen",
        "ZipCode":"46798",
        "Latitude":40.9371,
        "Longitude":-85.1958
    },
    {
        "State":"Indiana",
        "StateAbbr":"IN",
        "City":"Zanesville",
        "County":"Allen",
        "ZipCode":"46799",
        "Latitude":40.9188,
        "Longitude":-85.2824
    },
    {
        "State":"Indiana",
        "StateAbbr":"IN",
        "City":"Fort Wayne",
        "County":"Allen",
        "ZipCode":"46801",
        "Latitude":41.0938,
        "Longitude":-85.0707
    },
    {
        "State":"Indiana",
        "StateAbbr":"IN",
        "City":"Fort Wayne",
        "County":"Allen",
        "ZipCode":"46802",
        "Latitude":41.0707,
        "Longitude":-85.1543
    },
    {
        "State":"Indiana",
        "StateAbbr":"IN",
        "City":"Fort Wayne",
        "County":"Allen",
        "ZipCode":"46803",
        "Latitude":41.0695,
        "Longitude":-85.1074
    },
    {
        "State":"Indiana",
        "StateAbbr":"IN",
        "City":"Fort Wayne",
        "County":"Allen",
        "ZipCode":"46804",
        "Latitude":41.0508,
        "Longitude":-85.256
    },
    {
        "State":"Indiana",
        "StateAbbr":"IN",
        "City":"Fort Wayne",
        "County":"Allen",
        "ZipCode":"46805",
        "Latitude":41.0977,
        "Longitude":-85.1189
    },
    {
        "State":"Indiana",
        "StateAbbr":"IN",
        "City":"Fort Wayne",
        "County":"Allen",
        "ZipCode":"46806",
        "Latitude":41.048,
        "Longitude":-85.1135
    },
    {
        "State":"Indiana",
        "StateAbbr":"IN",
        "City":"Fort Wayne",
        "County":"Allen",
        "ZipCode":"46807",
        "Latitude":41.0491,
        "Longitude":-85.1462
    },
    {
        "State":"Indiana",
        "StateAbbr":"IN",
        "City":"Fort Wayne",
        "County":"Allen",
        "ZipCode":"46808",
        "Latitude":41.0939,
        "Longitude":-85.1621
    },
    {
        "State":"Indiana",
        "StateAbbr":"IN",
        "City":"Fort Wayne",
        "County":"Allen",
        "ZipCode":"46809",
        "Latitude":41.0254,
        "Longitude":-85.1834
    },
    {
        "State":"Indiana",
        "StateAbbr":"IN",
        "City":"Fort Wayne",
        "County":"Allen",
        "ZipCode":"46814",
        "Latitude":41.0456,
        "Longitude":-85.3058
    },
    {
        "State":"Indiana",
        "StateAbbr":"IN",
        "City":"Fort Wayne",
        "County":"Allen",
        "ZipCode":"46815",
        "Latitude":41.1053,
        "Longitude":-85.0624
    },
    {
        "State":"Indiana",
        "StateAbbr":"IN",
        "City":"Fort Wayne",
        "County":"Allen",
        "ZipCode":"46816",
        "Latitude":41.0165,
        "Longitude":-85.0976
    },
    {
        "State":"Indiana",
        "StateAbbr":"IN",
        "City":"Fort Wayne",
        "County":"Allen",
        "ZipCode":"46818",
        "Latitude":41.1468,
        "Longitude":-85.2067
    },
    {
        "State":"Indiana",
        "StateAbbr":"IN",
        "City":"Fort Wayne",
        "County":"Allen",
        "ZipCode":"46819",
        "Latitude":41.0052,
        "Longitude":-85.1527
    },
    {
        "State":"Indiana",
        "StateAbbr":"IN",
        "City":"Fort Wayne",
        "County":"Allen",
        "ZipCode":"46825",
        "Latitude":41.1465,
        "Longitude":-85.1232
    },
    {
        "State":"Indiana",
        "StateAbbr":"IN",
        "City":"Fort Wayne",
        "County":"Allen",
        "ZipCode":"46835",
        "Latitude":41.1371,
        "Longitude":-85.0685
    },
    {
        "State":"Indiana",
        "StateAbbr":"IN",
        "City":"Fort Wayne",
        "County":"Allen",
        "ZipCode":"46845",
        "Latitude":41.1958,
        "Longitude":-85.1191
    },
    {
        "State":"Indiana",
        "StateAbbr":"IN",
        "City":"Fort Wayne",
        "County":"Allen",
        "ZipCode":"46850",
        "Latitude":41.0938,
        "Longitude":-85.0707
    },
    {
        "State":"Indiana",
        "StateAbbr":"IN",
        "City":"Fort Wayne",
        "County":"Allen",
        "ZipCode":"46851",
        "Latitude":41.0938,
        "Longitude":-85.0707
    },
    {
        "State":"Indiana",
        "StateAbbr":"IN",
        "City":"Fort Wayne",
        "County":"Allen",
        "ZipCode":"46852",
        "Latitude":41.0938,
        "Longitude":-85.0707
    },
    {
        "State":"Indiana",
        "StateAbbr":"IN",
        "City":"Fort Wayne",
        "County":"Allen",
        "ZipCode":"46853",
        "Latitude":41.0938,
        "Longitude":-85.0707
    },
    {
        "State":"Indiana",
        "StateAbbr":"IN",
        "City":"Fort Wayne",
        "County":"Allen",
        "ZipCode":"46854",
        "Latitude":41.0938,
        "Longitude":-85.0707
    },
    {
        "State":"Indiana",
        "StateAbbr":"IN",
        "City":"Fort Wayne",
        "County":"Allen",
        "ZipCode":"46855",
        "Latitude":41.0938,
        "Longitude":-85.0707
    },
    {
        "State":"Indiana",
        "StateAbbr":"IN",
        "City":"Fort Wayne",
        "County":"Allen",
        "ZipCode":"46856",
        "Latitude":41.0938,
        "Longitude":-85.0707
    },
    {
        "State":"Indiana",
        "StateAbbr":"IN",
        "City":"Fort Wayne",
        "County":"Allen",
        "ZipCode":"46857",
        "Latitude":41.0938,
        "Longitude":-85.0707
    },
    {
        "State":"Indiana",
        "StateAbbr":"IN",
        "City":"Fort Wayne",
        "County":"Allen",
        "ZipCode":"46858",
        "Latitude":41.0938,
        "Longitude":-85.0707
    },
    {
        "State":"Indiana",
        "StateAbbr":"IN",
        "City":"Fort Wayne",
        "County":"Allen",
        "ZipCode":"46859",
        "Latitude":41.0938,
        "Longitude":-85.0707
    },
    {
        "State":"Indiana",
        "StateAbbr":"IN",
        "City":"Fort Wayne",
        "County":"Allen",
        "ZipCode":"46860",
        "Latitude":41.0938,
        "Longitude":-85.0707
    },
    {
        "State":"Indiana",
        "StateAbbr":"IN",
        "City":"Fort Wayne",
        "County":"Allen",
        "ZipCode":"46861",
        "Latitude":41.0938,
        "Longitude":-85.0707
    },
    {
        "State":"Indiana",
        "StateAbbr":"IN",
        "City":"Fort Wayne",
        "County":"Allen",
        "ZipCode":"46862",
        "Latitude":41.0938,
        "Longitude":-85.0707
    },
    {
        "State":"Indiana",
        "StateAbbr":"IN",
        "City":"Fort Wayne",
        "County":"Allen",
        "ZipCode":"46863",
        "Latitude":41.0938,
        "Longitude":-85.0707
    },
    {
        "State":"Indiana",
        "StateAbbr":"IN",
        "City":"Fort Wayne",
        "County":"Allen",
        "ZipCode":"46864",
        "Latitude":41.0938,
        "Longitude":-85.0707
    },
    {
        "State":"Indiana",
        "StateAbbr":"IN",
        "City":"Fort Wayne",
        "County":"Allen",
        "ZipCode":"46865",
        "Latitude":41.1263,
        "Longitude":-85.0907
    },
    {
        "State":"Indiana",
        "StateAbbr":"IN",
        "City":"Fort Wayne",
        "County":"Allen",
        "ZipCode":"46866",
        "Latitude":41.0938,
        "Longitude":-85.0707
    },
    {
        "State":"Indiana",
        "StateAbbr":"IN",
        "City":"Fort Wayne",
        "County":"Allen",
        "ZipCode":"46867",
        "Latitude":41.0938,
        "Longitude":-85.0707
    },
    {
        "State":"Indiana",
        "StateAbbr":"IN",
        "City":"Fort Wayne",
        "County":"Allen",
        "ZipCode":"46868",
        "Latitude":41.0938,
        "Longitude":-85.0707
    },
    {
        "State":"Indiana",
        "StateAbbr":"IN",
        "City":"Fort Wayne",
        "County":"Allen",
        "ZipCode":"46869",
        "Latitude":41.0938,
        "Longitude":-85.0707
    },
    {
        "State":"Indiana",
        "StateAbbr":"IN",
        "City":"Fort Wayne",
        "County":"Allen",
        "ZipCode":"46885",
        "Latitude":41.0938,
        "Longitude":-85.0707
    },
    {
        "State":"Indiana",
        "StateAbbr":"IN",
        "City":"Fort Wayne",
        "County":"Allen",
        "ZipCode":"46895",
        "Latitude":41.0938,
        "Longitude":-85.0707
    },
    {
        "State":"Indiana",
        "StateAbbr":"IN",
        "City":"Fort Wayne",
        "County":"Allen",
        "ZipCode":"46896",
        "Latitude":41.0938,
        "Longitude":-85.0707
    },
    {
        "State":"Indiana",
        "StateAbbr":"IN",
        "City":"Fort Wayne",
        "County":"Allen",
        "ZipCode":"46897",
        "Latitude":41.0938,
        "Longitude":-85.0707
    },
    {
        "State":"Indiana",
        "StateAbbr":"IN",
        "City":"Fort Wayne",
        "County":"Allen",
        "ZipCode":"46898",
        "Latitude":41.0938,
        "Longitude":-85.0707
    },
    {
        "State":"Indiana",
        "StateAbbr":"IN",
        "City":"Fort Wayne",
        "County":"Allen",
        "ZipCode":"46899",
        "Latitude":41.0938,
        "Longitude":-85.0707
    },
    {
        "State":"Indiana",
        "StateAbbr":"IN",
        "City":"Columbus",
        "County":"Bartholomew",
        "ZipCode":"47201",
        "Latitude":39.2055,
        "Longitude":-85.9317
    },
    {
        "State":"Indiana",
        "StateAbbr":"IN",
        "City":"Columbus",
        "County":"Bartholomew",
        "ZipCode":"47202",
        "Latitude":39.2014,
        "Longitude":-85.9214
    },
    {
        "State":"Indiana",
        "StateAbbr":"IN",
        "City":"Columbus",
        "County":"Bartholomew",
        "ZipCode":"47203",
        "Latitude":39.2301,
        "Longitude":-85.8855
    },
    {
        "State":"Indiana",
        "StateAbbr":"IN",
        "City":"Clifford",
        "County":"Bartholomew",
        "ZipCode":"47226",
        "Latitude":39.2826,
        "Longitude":-85.8685
    },
    {
        "State":"Indiana",
        "StateAbbr":"IN",
        "City":"Elizabethtown",
        "County":"Bartholomew",
        "ZipCode":"47232",
        "Latitude":39.1243,
        "Longitude":-85.8153
    },
    {
        "State":"Indiana",
        "StateAbbr":"IN",
        "City":"Grammer",
        "County":"Bartholomew",
        "ZipCode":"47236",
        "Latitude":39.1522,
        "Longitude":-85.7261
    },
    {
        "State":"Indiana",
        "StateAbbr":"IN",
        "City":"Hartsville",
        "County":"Bartholomew",
        "ZipCode":"47244",
        "Latitude":39.2676,
        "Longitude":-85.698
    },
    {
        "State":"Indiana",
        "StateAbbr":"IN",
        "City":"Hope",
        "County":"Bartholomew",
        "ZipCode":"47246",
        "Latitude":39.3039,
        "Longitude":-85.7714
    },
    {
        "State":"Indiana",
        "StateAbbr":"IN",
        "City":"Jonesville",
        "County":"Bartholomew",
        "ZipCode":"47247",
        "Latitude":39.0593,
        "Longitude":-85.8886
    },
    {
        "State":"Indiana",
        "StateAbbr":"IN",
        "City":"Taylorsville",
        "County":"Bartholomew",
        "ZipCode":"47280",
        "Latitude":39.2953,
        "Longitude":-85.9498
    },
    {
        "State":"Indiana",
        "StateAbbr":"IN",
        "City":"Ambia",
        "County":"Benton",
        "ZipCode":"47917",
        "Latitude":40.4793,
        "Longitude":-87.4796
    },
    {
        "State":"Indiana",
        "StateAbbr":"IN",
        "City":"Boswell",
        "County":"Benton",
        "ZipCode":"47921",
        "Latitude":40.518,
        "Longitude":-87.3789
    },
    {
        "State":"Indiana",
        "StateAbbr":"IN",
        "City":"Earl Park",
        "County":"Benton",
        "ZipCode":"47942",
        "Latitude":40.6945,
        "Longitude":-87.4232
    },
    {
        "State":"Indiana",
        "StateAbbr":"IN",
        "City":"Fowler",
        "County":"Benton",
        "ZipCode":"47944",
        "Latitude":40.6255,
        "Longitude":-87.309
    },
    {
        "State":"Indiana",
        "StateAbbr":"IN",
        "City":"Otterbein",
        "County":"Benton",
        "ZipCode":"47970",
        "Latitude":40.517,
        "Longitude":-87.1225
    },
    {
        "State":"Indiana",
        "StateAbbr":"IN",
        "City":"Oxford",
        "County":"Benton",
        "ZipCode":"47971",
        "Latitude":40.5217,
        "Longitude":-87.2526
    },
    {
        "State":"Indiana",
        "StateAbbr":"IN",
        "City":"Talbot",
        "County":"Benton",
        "ZipCode":"47984",
        "Latitude":40.5053,
        "Longitude":-87.4542
    },
    {
        "State":"Indiana",
        "StateAbbr":"IN",
        "City":"Templeton",
        "County":"Benton",
        "ZipCode":"47986",
        "Latitude":40.5055,
        "Longitude":-87.207
    },
    {
        "State":"Indiana",
        "StateAbbr":"IN",
        "City":"Hartford City",
        "County":"Blackford",
        "ZipCode":"47348",
        "Latitude":40.4541,
        "Longitude":-85.3758
    },
    {
        "State":"Indiana",
        "StateAbbr":"IN",
        "City":"Montpelier",
        "County":"Blackford",
        "ZipCode":"47359",
        "Latitude":40.5577,
        "Longitude":-85.2513
    },
    {
        "State":"Indiana",
        "StateAbbr":"IN",
        "City":"Lebanon",
        "County":"Boone",
        "ZipCode":"46052",
        "Latitude":40.0449,
        "Longitude":-86.4641
    },
    {
        "State":"Indiana",
        "StateAbbr":"IN",
        "City":"Thorntown",
        "County":"Boone",
        "ZipCode":"46071",
        "Latitude":40.1133,
        "Longitude":-86.5898
    },
    {
        "State":"Indiana",
        "StateAbbr":"IN",
        "City":"Whitestown",
        "County":"Boone",
        "ZipCode":"46075",
        "Latitude":40.0,
        "Longitude":-86.3507
    },
    {
        "State":"Indiana",
        "StateAbbr":"IN",
        "City":"Zionsville",
        "County":"Boone",
        "ZipCode":"46077",
        "Latitude":39.9561,
        "Longitude":-86.2767
    },
    {
        "State":"Indiana",
        "StateAbbr":"IN",
        "City":"Advance",
        "County":"Boone",
        "ZipCode":"46102",
        "Latitude":39.9956,
        "Longitude":-86.6198
    },
    {
        "State":"Indiana",
        "StateAbbr":"IN",
        "City":"Jamestown",
        "County":"Boone",
        "ZipCode":"46147",
        "Latitude":39.9579,
        "Longitude":-86.6236
    },
    {
        "State":"Indiana",
        "StateAbbr":"IN",
        "City":"Morgantown",
        "County":"Brown",
        "ZipCode":"46160",
        "Latitude":39.3628,
        "Longitude":-86.2803
    },
    {
        "State":"Indiana",
        "StateAbbr":"IN",
        "City":"Helmsburg",
        "County":"Brown",
        "ZipCode":"47435",
        "Latitude":39.1963,
        "Longitude":-86.2302
    },
    {
        "State":"Indiana",
        "StateAbbr":"IN",
        "City":"Nashville",
        "County":"Brown",
        "ZipCode":"47448",
        "Latitude":39.2367,
        "Longitude":-86.222
    },
    {
        "State":"Indiana",
        "StateAbbr":"IN",
        "City":"Bringhurst",
        "County":"Carroll",
        "ZipCode":"46913",
        "Latitude":40.5163,
        "Longitude":-86.5204
    },
    {
        "State":"Indiana",
        "StateAbbr":"IN",
        "City":"Burlington",
        "County":"Carroll",
        "ZipCode":"46915",
        "Latitude":40.4777,
        "Longitude":-86.3866
    },
    {
        "State":"Indiana",
        "StateAbbr":"IN",
        "City":"Burrows",
        "County":"Carroll",
        "ZipCode":"46916",
        "Latitude":40.6767,
        "Longitude":-86.5075
    },
    {
        "State":"Indiana",
        "StateAbbr":"IN",
        "City":"Camden",
        "County":"Carroll",
        "ZipCode":"46917",
        "Latitude":40.5996,
        "Longitude":-86.5152
    },
    {
        "State":"Indiana",
        "StateAbbr":"IN",
        "City":"Cutler",
        "County":"Carroll",
        "ZipCode":"46920",
        "Latitude":40.4785,
        "Longitude":-86.4462
    },
    {
        "State":"Indiana",
        "StateAbbr":"IN",
        "City":"Delphi",
        "County":"Carroll",
        "ZipCode":"46923",
        "Latitude":40.5734,
        "Longitude":-86.6788
    },
    {
        "State":"Indiana",
        "StateAbbr":"IN",
        "City":"Flora",
        "County":"Carroll",
        "ZipCode":"46929",
        "Latitude":40.5445,
        "Longitude":-86.5016
    },
    {
        "State":"Indiana",
        "StateAbbr":"IN",
        "City":"Rockfield",
        "County":"Carroll",
        "ZipCode":"46977",
        "Latitude":40.6411,
        "Longitude":-86.5739
    },
    {
        "State":"Indiana",
        "StateAbbr":"IN",
        "City":"Yeoman",
        "County":"Carroll",
        "ZipCode":"47997",
        "Latitude":40.6677,
        "Longitude":-86.7236
    },
    {
        "State":"Indiana",
        "StateAbbr":"IN",
        "City":"Galveston",
        "County":"Cass",
        "ZipCode":"46932",
        "Latitude":40.5862,
        "Longitude":-86.1972
    },
    {
        "State":"Indiana",
        "StateAbbr":"IN",
        "City":"Lake Cicott",
        "County":"Cass",
        "ZipCode":"46942",
        "Latitude":40.7361,
        "Longitude":-86.3734
    },
    {
        "State":"Indiana",
        "StateAbbr":"IN",
        "City":"Logansport",
        "County":"Cass",
        "ZipCode":"46947",
        "Latitude":40.7604,
        "Longitude":-86.3599
    },
    {
        "State":"Indiana",
        "StateAbbr":"IN",
        "City":"Lucerne",
        "County":"Cass",
        "ZipCode":"46950",
        "Latitude":40.8614,
        "Longitude":-86.4077
    },
    {
        "State":"Indiana",
        "StateAbbr":"IN",
        "City":"New Waverly",
        "County":"Cass",
        "ZipCode":"46961",
        "Latitude":40.7621,
        "Longitude":-86.1936
    },
    {
        "State":"Indiana",
        "StateAbbr":"IN",
        "City":"Onward",
        "County":"Cass",
        "ZipCode":"46967",
        "Latitude":40.6947,
        "Longitude":-86.1951
    },
    {
        "State":"Indiana",
        "StateAbbr":"IN",
        "City":"Royal Center",
        "County":"Cass",
        "ZipCode":"46978",
        "Latitude":40.8645,
        "Longitude":-86.5078
    },
    {
        "State":"Indiana",
        "StateAbbr":"IN",
        "City":"Twelve Mile",
        "County":"Cass",
        "ZipCode":"46988",
        "Latitude":40.8547,
        "Longitude":-86.2126
    },
    {
        "State":"Indiana",
        "StateAbbr":"IN",
        "City":"Walton",
        "County":"Cass",
        "ZipCode":"46994",
        "Latitude":40.6772,
        "Longitude":-86.2805
    },
    {
        "State":"Indiana",
        "StateAbbr":"IN",
        "City":"Young America",
        "County":"Cass",
        "ZipCode":"46998",
        "Latitude":40.5686,
        "Longitude":-86.3467
    },
    {
        "State":"Indiana",
        "StateAbbr":"IN",
        "City":"Bethlehem",
        "County":"Clark",
        "ZipCode":"47104",
        "Latitude":38.5399,
        "Longitude":-85.4218
    },
    {
        "State":"Indiana",
        "StateAbbr":"IN",
        "City":"Borden",
        "County":"Clark",
        "ZipCode":"47106",
        "Latitude":38.4362,
        "Longitude":-85.9215
    },
    {
        "State":"Indiana",
        "StateAbbr":"IN",
        "City":"Charlestown",
        "County":"Clark",
        "ZipCode":"47111",
        "Latitude":38.4568,
        "Longitude":-85.6606
    },
    {
        "State":"Indiana",
        "StateAbbr":"IN",
        "City":"Henryville",
        "County":"Clark",
        "ZipCode":"47126",
        "Latitude":38.5398,
        "Longitude":-85.7734
    },
    {
        "State":"Indiana",
        "StateAbbr":"IN",
        "City":"Clarksville",
        "County":"Clark",
        "ZipCode":"47129",
        "Latitude":38.311,
        "Longitude":-85.7645
    },
    {
        "State":"Indiana",
        "StateAbbr":"IN",
        "City":"Jeffersonville",
        "County":"Clark",
        "ZipCode":"47130",
        "Latitude":38.3078,
        "Longitude":-85.7359
    },
    {
        "State":"Indiana",
        "StateAbbr":"IN",
        "City":"Jeffersonville",
        "County":"Clark",
        "ZipCode":"47131",
        "Latitude":38.437,
        "Longitude":-85.705
    },
    {
        "State":"Indiana",
        "StateAbbr":"IN",
        "City":"Jeffersonville",
        "County":"Clark",
        "ZipCode":"47132",
        "Latitude":38.2868,
        "Longitude":-85.7321
    },
    {
        "State":"Indiana",
        "StateAbbr":"IN",
        "City":"Jeffersonville",
        "County":"Clark",
        "ZipCode":"47133",
        "Latitude":38.2868,
        "Longitude":-85.7321
    },
    {
        "State":"Indiana",
        "StateAbbr":"IN",
        "City":"Jeffersonville",
        "County":"Clark",
        "ZipCode":"47134",
        "Latitude":38.2868,
        "Longitude":-85.7321
    },
    {
        "State":"Indiana",
        "StateAbbr":"IN",
        "City":"Marysville",
        "County":"Clark",
        "ZipCode":"47141",
        "Latitude":38.5856,
        "Longitude":-85.6436
    },
    {
        "State":"Indiana",
        "StateAbbr":"IN",
        "City":"Memphis",
        "County":"Clark",
        "ZipCode":"47143",
        "Latitude":38.4642,
        "Longitude":-85.7775
    },
    {
        "State":"Indiana",
        "StateAbbr":"IN",
        "City":"Jeffersonville",
        "County":"Clark",
        "ZipCode":"47144",
        "Latitude":38.2868,
        "Longitude":-85.7321
    },
    {
        "State":"Indiana",
        "StateAbbr":"IN",
        "City":"Nabb",
        "County":"Clark",
        "ZipCode":"47147",
        "Latitude":38.6128,
        "Longitude":-85.5217
    },
    {
        "State":"Indiana",
        "StateAbbr":"IN",
        "City":"New Washington",
        "County":"Clark",
        "ZipCode":"47162",
        "Latitude":38.5575,
        "Longitude":-85.4599
    },
    {
        "State":"Indiana",
        "StateAbbr":"IN",
        "City":"Otisco",
        "County":"Clark",
        "ZipCode":"47163",
        "Latitude":38.5423,
        "Longitude":-85.6647
    },
    {
        "State":"Indiana",
        "StateAbbr":"IN",
        "City":"Sellersburg",
        "County":"Clark",
        "ZipCode":"47172",
        "Latitude":38.4046,
        "Longitude":-85.788
    },
    {
        "State":"Indiana",
        "StateAbbr":"IN",
        "City":"Underwood",
        "County":"Clark",
        "ZipCode":"47177",
        "Latitude":38.6037,
        "Longitude":-85.7744
    },
    {
        "State":"Indiana",
        "StateAbbr":"IN",
        "City":"Jeffersonville",
        "County":"Clark",
        "ZipCode":"47190",
        "Latitude":38.437,
        "Longitude":-85.705
    },
    {
        "State":"Indiana",
        "StateAbbr":"IN",
        "City":"Jeffersonville",
        "County":"Clark",
        "ZipCode":"47199",
        "Latitude":38.2868,
        "Longitude":-85.7321
    },
    {
        "State":"Indiana",
        "StateAbbr":"IN",
        "City":"Bowling Green",
        "County":"Clay",
        "ZipCode":"47833",
        "Latitude":39.3812,
        "Longitude":-87.0052
    },
    {
        "State":"Indiana",
        "StateAbbr":"IN",
        "City":"Brazil",
        "County":"Clay",
        "ZipCode":"47834",
        "Latitude":39.521,
        "Longitude":-87.1278
    },
    {
        "State":"Indiana",
        "StateAbbr":"IN",
        "City":"Carbon",
        "County":"Clay",
        "ZipCode":"47837",
        "Latitude":39.5913,
        "Longitude":-87.1132
    },
    {
        "State":"Indiana",
        "StateAbbr":"IN",
        "City":"Centerpoint",
        "County":"Clay",
        "ZipCode":"47840",
        "Latitude":39.391,
        "Longitude":-87.0935
    },
    {
        "State":"Indiana",
        "StateAbbr":"IN",
        "City":"Clay City",
        "County":"Clay",
        "ZipCode":"47841",
        "Latitude":39.2727,
        "Longitude":-87.1082
    },
    {
        "State":"Indiana",
        "StateAbbr":"IN",
        "City":"Coalmont",
        "County":"Clay",
        "ZipCode":"47845",
        "Latitude":39.1934,
        "Longitude":-87.2311
    },
    {
        "State":"Indiana",
        "StateAbbr":"IN",
        "City":"Cory",
        "County":"Clay",
        "ZipCode":"47846",
        "Latitude":39.3435,
        "Longitude":-87.1956
    },
    {
        "State":"Indiana",
        "StateAbbr":"IN",
        "City":"Harmony",
        "County":"Clay",
        "ZipCode":"47853",
        "Latitude":39.5372,
        "Longitude":-87.0729
    },
    {
        "State":"Indiana",
        "StateAbbr":"IN",
        "City":"Knightsville",
        "County":"Clay",
        "ZipCode":"47857",
        "Latitude":39.5269,
        "Longitude":-87.0869
    },
    {
        "State":"Indiana",
        "StateAbbr":"IN",
        "City":"Poland",
        "County":"Clay",
        "ZipCode":"47868",
        "Latitude":39.4462,
        "Longitude":-86.9631
    },
    {
        "State":"Indiana",
        "StateAbbr":"IN",
        "City":"Staunton",
        "County":"Clay",
        "ZipCode":"47881",
        "Latitude":39.4875,
        "Longitude":-87.1889
    },
    {
        "State":"Indiana",
        "StateAbbr":"IN",
        "City":"Colfax",
        "County":"Clinton",
        "ZipCode":"46035",
        "Latitude":40.1956,
        "Longitude":-86.6593
    },
    {
        "State":"Indiana",
        "StateAbbr":"IN",
        "City":"Forest",
        "County":"Clinton",
        "ZipCode":"46039",
        "Latitude":40.3757,
        "Longitude":-86.3201
    },
    {
        "State":"Indiana",
        "StateAbbr":"IN",
        "City":"Frankfort",
        "County":"Clinton",
        "ZipCode":"46041",
        "Latitude":40.3044,
        "Longitude":-86.4689
    },
    {
        "State":"Indiana",
        "StateAbbr":"IN",
        "City":"Kirklin",
        "County":"Clinton",
        "ZipCode":"46050",
        "Latitude":40.2031,
        "Longitude":-86.3324
    },
    {
        "State":"Indiana",
        "StateAbbr":"IN",
        "City":"Michigantown",
        "County":"Clinton",
        "ZipCode":"46057",
        "Latitude":40.3108,
        "Longitude":-86.3753
    },
    {
        "State":"Indiana",
        "StateAbbr":"IN",
        "City":"Mulberry",
        "County":"Clinton",
        "ZipCode":"46058",
        "Latitude":40.3433,
        "Longitude":-86.6613
    },
    {
        "State":"Indiana",
        "StateAbbr":"IN",
        "City":"Rossville",
        "County":"Clinton",
        "ZipCode":"46065",
        "Latitude":40.4109,
        "Longitude":-86.608
    },
    {
        "State":"Indiana",
        "StateAbbr":"IN",
        "City":"Sedalia",
        "County":"Clinton",
        "ZipCode":"46067",
        "Latitude":40.4156,
        "Longitude":-86.5147
    },
    {
        "State":"Indiana",
        "StateAbbr":"IN",
        "City":"Eckerty",
        "County":"Crawford",
        "ZipCode":"47116",
        "Latitude":38.3185,
        "Longitude":-86.6059
    },
    {
        "State":"Indiana",
        "StateAbbr":"IN",
        "City":"English",
        "County":"Crawford",
        "ZipCode":"47118",
        "Latitude":38.3258,
        "Longitude":-86.4429
    },
    {
        "State":"Indiana",
        "StateAbbr":"IN",
        "City":"Grantsburg",
        "County":"Crawford",
        "ZipCode":"47123",
        "Latitude":38.282,
        "Longitude":-86.4843
    },
    {
        "State":"Indiana",
        "StateAbbr":"IN",
        "City":"Leavenworth",
        "County":"Crawford",
        "ZipCode":"47137",
        "Latitude":38.1865,
        "Longitude":-86.3838
    },
    {
        "State":"Indiana",
        "StateAbbr":"IN",
        "City":"Marengo",
        "County":"Crawford",
        "ZipCode":"47140",
        "Latitude":38.3736,
        "Longitude":-86.3578
    },
    {
        "State":"Indiana",
        "StateAbbr":"IN",
        "City":"Milltown",
        "County":"Crawford",
        "ZipCode":"47145",
        "Latitude":38.3445,
        "Longitude":-86.3003
    },
    {
        "State":"Indiana",
        "StateAbbr":"IN",
        "City":"Sulphur",
        "County":"Crawford",
        "ZipCode":"47174",
        "Latitude":38.2259,
        "Longitude":-86.4908
    },
    {
        "State":"Indiana",
        "StateAbbr":"IN",
        "City":"Taswell",
        "County":"Crawford",
        "ZipCode":"47175",
        "Latitude":38.3463,
        "Longitude":-86.5387
    },
    {
        "State":"Indiana",
        "StateAbbr":"IN",
        "City":"Washington",
        "County":"Daviess",
        "ZipCode":"47501",
        "Latitude":38.6536,
        "Longitude":-87.1707
    },
    {
        "State":"Indiana",
        "StateAbbr":"IN",
        "City":"Cannelburg",
        "County":"Daviess",
        "ZipCode":"47519",
        "Latitude":38.6698,
        "Longitude":-86.9983
    },
    {
        "State":"Indiana",
        "StateAbbr":"IN",
        "City":"Elnora",
        "County":"Daviess",
        "ZipCode":"47529",
        "Latitude":38.8772,
        "Longitude":-87.085
    },
    {
        "State":"Indiana",
        "StateAbbr":"IN",
        "City":"Montgomery",
        "County":"Daviess",
        "ZipCode":"47558",
        "Latitude":38.6521,
        "Longitude":-87.0476
    },
    {
        "State":"Indiana",
        "StateAbbr":"IN",
        "City":"Odon",
        "County":"Daviess",
        "ZipCode":"47562",
        "Latitude":38.8187,
        "Longitude":-86.9752
    },
    {
        "State":"Indiana",
        "StateAbbr":"IN",
        "City":"Plainville",
        "County":"Daviess",
        "ZipCode":"47568",
        "Latitude":38.8062,
        "Longitude":-87.1522
    },
    {
        "State":"Indiana",
        "StateAbbr":"IN",
        "City":"Aurora",
        "County":"Dearborn",
        "ZipCode":"47001",
        "Latitude":39.0719,
        "Longitude":-84.9452
    },
    {
        "State":"Indiana",
        "StateAbbr":"IN",
        "City":"Dillsboro",
        "County":"Dearborn",
        "ZipCode":"47018",
        "Latitude":38.9962,
        "Longitude":-85.055
    },
    {
        "State":"Indiana",
        "StateAbbr":"IN",
        "City":"Guilford",
        "County":"Dearborn",
        "ZipCode":"47022",
        "Latitude":39.2059,
        "Longitude":-84.9616
    },
    {
        "State":"Indiana",
        "StateAbbr":"IN",
        "City":"Lawrenceburg",
        "County":"Dearborn",
        "ZipCode":"47025",
        "Latitude":39.1401,
        "Longitude":-84.8658
    },
    {
        "State":"Indiana",
        "StateAbbr":"IN",
        "City":"Moores Hill",
        "County":"Dearborn",
        "ZipCode":"47032",
        "Latitude":39.0945,
        "Longitude":-85.0638
    },
    {
        "State":"Indiana",
        "StateAbbr":"IN",
        "City":"West Harrison",
        "County":"Dearborn",
        "ZipCode":"47060",
        "Latitude":39.3008,
        "Longitude":-84.881
    },
    {
        "State":"Indiana",
        "StateAbbr":"IN",
        "City":"Clarksburg",
        "County":"Decatur",
        "ZipCode":"47225",
        "Latitude":39.4241,
        "Longitude":-85.3477
    },
    {
        "State":"Indiana",
        "StateAbbr":"IN",
        "City":"Greensburg",
        "County":"Decatur",
        "ZipCode":"47240",
        "Latitude":39.2998,
        "Longitude":-85.4918
    },
    {
        "State":"Indiana",
        "StateAbbr":"IN",
        "City":"Millhousen",
        "County":"Decatur",
        "ZipCode":"47261",
        "Latitude":39.292,
        "Longitude":-85.4918
    },
    {
        "State":"Indiana",
        "StateAbbr":"IN",
        "City":"New Point",
        "County":"Decatur",
        "ZipCode":"47263",
        "Latitude":39.3083,
        "Longitude":-85.3297
    },
    {
        "State":"Indiana",
        "StateAbbr":"IN",
        "City":"Saint Paul",
        "County":"Decatur",
        "ZipCode":"47272",
        "Latitude":39.4277,
        "Longitude":-85.5994
    },
    {
        "State":"Indiana",
        "StateAbbr":"IN",
        "City":"Westport",
        "County":"Decatur",
        "ZipCode":"47283",
        "Latitude":39.1749,
        "Longitude":-85.5856
    },
    {
        "State":"Indiana",
        "StateAbbr":"IN",
        "City":"Ashley",
        "County":"DeKalb",
        "ZipCode":"46705",
        "Latitude":41.5347,
        "Longitude":-85.0504
    },
    {
        "State":"Indiana",
        "StateAbbr":"IN",
        "City":"Auburn",
        "County":"DeKalb",
        "ZipCode":"46706",
        "Latitude":41.359,
        "Longitude":-85.0468
    },
    {
        "State":"Indiana",
        "StateAbbr":"IN",
        "City":"Butler",
        "County":"DeKalb",
        "ZipCode":"46721",
        "Latitude":41.4287,
        "Longitude":-84.8787
    },
    {
        "State":"Indiana",
        "StateAbbr":"IN",
        "City":"Corunna",
        "County":"DeKalb",
        "ZipCode":"46730",
        "Latitude":41.4504,
        "Longitude":-85.137
    },
    {
        "State":"Indiana",
        "StateAbbr":"IN",
        "City":"Garrett",
        "County":"DeKalb",
        "ZipCode":"46738",
        "Latitude":41.3482,
        "Longitude":-85.1347
    },
    {
        "State":"Indiana",
        "StateAbbr":"IN",
        "City":"Saint Joe",
        "County":"DeKalb",
        "ZipCode":"46785",
        "Latitude":41.324,
        "Longitude":-84.9043
    },
    {
        "State":"Indiana",
        "StateAbbr":"IN",
        "City":"Spencerville",
        "County":"DeKalb",
        "ZipCode":"46788",
        "Latitude":41.2696,
        "Longitude":-84.9398
    },
    {
        "State":"Indiana",
        "StateAbbr":"IN",
        "City":"Waterloo",
        "County":"DeKalb",
        "ZipCode":"46793",
        "Latitude":41.4402,
        "Longitude":-85.0221
    },
    {
        "State":"Indiana",
        "StateAbbr":"IN",
        "City":"Muncie",
        "County":"Delaware",
        "ZipCode":"47302",
        "Latitude":40.1684,
        "Longitude":-85.3807
    },
    {
        "State":"Indiana",
        "StateAbbr":"IN",
        "City":"Muncie",
        "County":"Delaware",
        "ZipCode":"47303",
        "Latitude":40.218,
        "Longitude":-85.379
    },
    {
        "State":"Indiana",
        "StateAbbr":"IN",
        "City":"Muncie",
        "County":"Delaware",
        "ZipCode":"47304",
        "Latitude":40.2111,
        "Longitude":-85.4291
    },
    {
        "State":"Indiana",
        "StateAbbr":"IN",
        "City":"Muncie",
        "County":"Delaware",
        "ZipCode":"47305",
        "Latitude":40.1933,
        "Longitude":-85.3862
    },
    {
        "State":"Indiana",
        "StateAbbr":"IN",
        "City":"Muncie",
        "County":"Delaware",
        "ZipCode":"47306",
        "Latitude":40.2023,
        "Longitude":-85.4082
    },
    {
        "State":"Indiana",
        "StateAbbr":"IN",
        "City":"Muncie",
        "County":"Delaware",
        "ZipCode":"47307",
        "Latitude":40.1621,
        "Longitude":-85.4428
    },
    {
        "State":"Indiana",
        "StateAbbr":"IN",
        "City":"Muncie",
        "County":"Delaware",
        "ZipCode":"47308",
        "Latitude":40.2279,
        "Longitude":-85.3967
    },
    {
        "State":"Indiana",
        "StateAbbr":"IN",
        "City":"Albany",
        "County":"Delaware",
        "ZipCode":"47320",
        "Latitude":40.292,
        "Longitude":-85.258
    },
    {
        "State":"Indiana",
        "StateAbbr":"IN",
        "City":"Daleville",
        "County":"Delaware",
        "ZipCode":"47334",
        "Latitude":40.1257,
        "Longitude":-85.511
    },
    {
        "State":"Indiana",
        "StateAbbr":"IN",
        "City":"Eaton",
        "County":"Delaware",
        "ZipCode":"47338",
        "Latitude":40.3377,
        "Longitude":-85.3544
    },
    {
        "State":"Indiana",
        "StateAbbr":"IN",
        "City":"Gaston",
        "County":"Delaware",
        "ZipCode":"47342",
        "Latitude":40.2948,
        "Longitude":-85.4898
    },
    {
        "State":"Indiana",
        "StateAbbr":"IN",
        "City":"Oakville",
        "County":"Delaware",
        "ZipCode":"47367",
        "Latitude":40.0792,
        "Longitude":-85.39
    },
    {
        "State":"Indiana",
        "StateAbbr":"IN",
        "City":"Selma",
        "County":"Delaware",
        "ZipCode":"47383",
        "Latitude":40.1693,
        "Longitude":-85.2738
    },
    {
        "State":"Indiana",
        "StateAbbr":"IN",
        "City":"Yorktown",
        "County":"Delaware",
        "ZipCode":"47396",
        "Latitude":40.1836,
        "Longitude":-85.496
    },
    {
        "State":"Indiana",
        "StateAbbr":"IN",
        "City":"Birdseye",
        "County":"Dubois",
        "ZipCode":"47513",
        "Latitude":38.3006,
        "Longitude":-86.7102
    },
    {
        "State":"Indiana",
        "StateAbbr":"IN",
        "City":"Celestine",
        "County":"Dubois",
        "ZipCode":"47521",
        "Latitude":38.3878,
        "Longitude":-86.7568
    },
    {
        "State":"Indiana",
        "StateAbbr":"IN",
        "City":"Dubois",
        "County":"Dubois",
        "ZipCode":"47527",
        "Latitude":38.4728,
        "Longitude":-86.7832
    },
    {
        "State":"Indiana",
        "StateAbbr":"IN",
        "City":"Ferdinand",
        "County":"Dubois",
        "ZipCode":"47532",
        "Latitude":38.2336,
        "Longitude":-86.8607
    },
    {
        "State":"Indiana",
        "StateAbbr":"IN",
        "City":"Holland",
        "County":"Dubois",
        "ZipCode":"47541",
        "Latitude":38.2456,
        "Longitude":-87.0361
    },
    {
        "State":"Indiana",
        "StateAbbr":"IN",
        "City":"Huntingburg",
        "County":"Dubois",
        "ZipCode":"47542",
        "Latitude":38.2979,
        "Longitude":-86.9533
    },
    {
        "State":"Indiana",
        "StateAbbr":"IN",
        "City":"Ireland",
        "County":"Dubois",
        "ZipCode":"47545",
        "Latitude":38.4137,
        "Longitude":-87.0009
    },
    {
        "State":"Indiana",
        "StateAbbr":"IN",
        "City":"Jasper",
        "County":"Dubois",
        "ZipCode":"47546",
        "Latitude":38.3604,
        "Longitude":-86.9295
    },
    {
        "State":"Indiana",
        "StateAbbr":"IN",
        "City":"Jasper",
        "County":"Dubois",
        "ZipCode":"47547",
        "Latitude":38.3647,
        "Longitude":-86.8762
    },
    {
        "State":"Indiana",
        "StateAbbr":"IN",
        "City":"Jasper",
        "County":"Dubois",
        "ZipCode":"47549",
        "Latitude":38.3647,
        "Longitude":-86.8762
    },
    {
        "State":"Indiana",
        "StateAbbr":"IN",
        "City":"Saint Anthony",
        "County":"Dubois",
        "ZipCode":"47575",
        "Latitude":38.3211,
        "Longitude":-86.8234
    },
    {
        "State":"Indiana",
        "StateAbbr":"IN",
        "City":"Schnellville",
        "County":"Dubois",
        "ZipCode":"47580",
        "Latitude":38.3414,
        "Longitude":-86.7565
    },
    {
        "State":"Indiana",
        "StateAbbr":"IN",
        "City":"Bristol",
        "County":"Elkhart",
        "ZipCode":"46507",
        "Latitude":41.7169,
        "Longitude":-85.8262
    },
    {
        "State":"Indiana",
        "StateAbbr":"IN",
        "City":"Elkhart",
        "County":"Elkhart",
        "ZipCode":"46514",
        "Latitude":41.7101,
        "Longitude":-85.9729
    },
    {
        "State":"Indiana",
        "StateAbbr":"IN",
        "City":"Elkhart",
        "County":"Elkhart",
        "ZipCode":"46515",
        "Latitude":41.682,
        "Longitude":-85.9767
    },
    {
        "State":"Indiana",
        "StateAbbr":"IN",
        "City":"Elkhart",
        "County":"Elkhart",
        "ZipCode":"46516",
        "Latitude":41.6763,
        "Longitude":-85.9621
    },
    {
        "State":"Indiana",
        "StateAbbr":"IN",
        "City":"Elkhart",
        "County":"Elkhart",
        "ZipCode":"46517",
        "Latitude":41.6469,
        "Longitude":-85.9728
    },
    {
        "State":"Indiana",
        "StateAbbr":"IN",
        "City":"Goshen",
        "County":"Elkhart",
        "ZipCode":"46526",
        "Latitude":41.5848,
        "Longitude":-85.8581
    },
    {
        "State":"Indiana",
        "StateAbbr":"IN",
        "City":"Goshen",
        "County":"Elkhart",
        "ZipCode":"46527",
        "Latitude":41.5977,
        "Longitude":-85.8581
    },
    {
        "State":"Indiana",
        "StateAbbr":"IN",
        "City":"Goshen",
        "County":"Elkhart",
        "ZipCode":"46528",
        "Latitude":41.6248,
        "Longitude":-85.8391
    },
    {
        "State":"Indiana",
        "StateAbbr":"IN",
        "City":"Middlebury",
        "County":"Elkhart",
        "ZipCode":"46540",
        "Latitude":41.6754,
        "Longitude":-85.7114
    },
    {
        "State":"Indiana",
        "StateAbbr":"IN",
        "City":"Millersburg",
        "County":"Elkhart",
        "ZipCode":"46543",
        "Latitude":41.5335,
        "Longitude":-85.7072
    },
    {
        "State":"Indiana",
        "StateAbbr":"IN",
        "City":"Nappanee",
        "County":"Elkhart",
        "ZipCode":"46550",
        "Latitude":41.4493,
        "Longitude":-85.9945
    },
    {
        "State":"Indiana",
        "StateAbbr":"IN",
        "City":"New Paris",
        "County":"Elkhart",
        "ZipCode":"46553",
        "Latitude":41.4917,
        "Longitude":-85.8338
    },
    {
        "State":"Indiana",
        "StateAbbr":"IN",
        "City":"Wakarusa",
        "County":"Elkhart",
        "ZipCode":"46573",
        "Latitude":41.5401,
        "Longitude":-86.0205
    },
    {
        "State":"Indiana",
        "StateAbbr":"IN",
        "City":"Glenwood",
        "County":"Fayette",
        "ZipCode":"46133",
        "Latitude":39.6124,
        "Longitude":-85.2735
    },
    {
        "State":"Indiana",
        "StateAbbr":"IN",
        "City":"Bentonville",
        "County":"Fayette",
        "ZipCode":"47322",
        "Latitude":39.657,
        "Longitude":-85.168
    },
    {
        "State":"Indiana",
        "StateAbbr":"IN",
        "City":"Connersville",
        "County":"Fayette",
        "ZipCode":"47331",
        "Latitude":39.6435,
        "Longitude":-85.1464
    },
    {
        "State":"Indiana",
        "StateAbbr":"IN",
        "City":"Floyds Knobs",
        "County":"Floyd",
        "ZipCode":"47119",
        "Latitude":38.351,
        "Longitude":-85.8996
    },
    {
        "State":"Indiana",
        "StateAbbr":"IN",
        "City":"Georgetown",
        "County":"Floyd",
        "ZipCode":"47122",
        "Latitude":38.3029,
        "Longitude":-85.9617
    },
    {
        "State":"Indiana",
        "StateAbbr":"IN",
        "City":"Greenville",
        "County":"Floyd",
        "ZipCode":"47124",
        "Latitude":38.3535,
        "Longitude":-86.0083
    },
    {
        "State":"Indiana",
        "StateAbbr":"IN",
        "City":"Mount Saint Francis",
        "County":"Floyd",
        "ZipCode":"47146",
        "Latitude":38.2985,
        "Longitude":-85.897
    },
    {
        "State":"Indiana",
        "StateAbbr":"IN",
        "City":"New Albany",
        "County":"Floyd",
        "ZipCode":"47150",
        "Latitude":38.3089,
        "Longitude":-85.8221
    },
    {
        "State":"Indiana",
        "StateAbbr":"IN",
        "City":"New Albany",
        "County":"Floyd",
        "ZipCode":"47151",
        "Latitude":38.2856,
        "Longitude":-85.8241
    },
    {
        "State":"Indiana",
        "StateAbbr":"IN",
        "City":"Attica",
        "County":"Fountain",
        "ZipCode":"47918",
        "Latitude":40.2811,
        "Longitude":-87.2241
    },
    {
        "State":"Indiana",
        "StateAbbr":"IN",
        "City":"Covington",
        "County":"Fountain",
        "ZipCode":"47932",
        "Latitude":40.1326,
        "Longitude":-87.3819
    },
    {
        "State":"Indiana",
        "StateAbbr":"IN",
        "City":"Hillsboro",
        "County":"Fountain",
        "ZipCode":"47949",
        "Latitude":40.0835,
        "Longitude":-87.1545
    },
    {
        "State":"Indiana",
        "StateAbbr":"IN",
        "City":"Kingman",
        "County":"Fountain",
        "ZipCode":"47952",
        "Latitude":40.0174,
        "Longitude":-87.2569
    },
    {
        "State":"Indiana",
        "StateAbbr":"IN",
        "City":"Mellott",
        "County":"Fountain",
        "ZipCode":"47958",
        "Latitude":40.1641,
        "Longitude":-87.1475
    },
    {
        "State":"Indiana",
        "StateAbbr":"IN",
        "City":"Newtown",
        "County":"Fountain",
        "ZipCode":"47969",
        "Latitude":40.2035,
        "Longitude":-87.147
    },
    {
        "State":"Indiana",
        "StateAbbr":"IN",
        "City":"Veedersburg",
        "County":"Fountain",
        "ZipCode":"47987",
        "Latitude":40.1186,
        "Longitude":-87.2602
    },
    {
        "State":"Indiana",
        "StateAbbr":"IN",
        "City":"Wallace",
        "County":"Fountain",
        "ZipCode":"47988",
        "Latitude":39.9865,
        "Longitude":-87.1477
    },
    {
        "State":"Indiana",
        "StateAbbr":"IN",
        "City":"West College Corner",
        "County":"Franklin",
        "ZipCode":"47003",
        "Latitude":39.5676,
        "Longitude":-84.8161
    },
    {
        "State":"Indiana",
        "StateAbbr":"IN",
        "City":"Bath",
        "County":"Franklin",
        "ZipCode":"47010",
        "Latitude":39.4992,
        "Longitude":-84.836
    },
    {
        "State":"Indiana",
        "StateAbbr":"IN",
        "City":"Brookville",
        "County":"Franklin",
        "ZipCode":"47012",
        "Latitude":39.4213,
        "Longitude":-84.9994
    },
    {
        "State":"Indiana",
        "StateAbbr":"IN",
        "City":"Cedar Grove",
        "County":"Franklin",
        "ZipCode":"47016",
        "Latitude":39.3459,
        "Longitude":-84.8924
    },
    {
        "State":"Indiana",
        "StateAbbr":"IN",
        "City":"Laurel",
        "County":"Franklin",
        "ZipCode":"47024",
        "Latitude":39.4916,
        "Longitude":-85.208
    },
    {
        "State":"Indiana",
        "StateAbbr":"IN",
        "City":"Metamora",
        "County":"Franklin",
        "ZipCode":"47030",
        "Latitude":39.4288,
        "Longitude":-85.1504
    },
    {
        "State":"Indiana",
        "StateAbbr":"IN",
        "City":"New Trenton",
        "County":"Franklin",
        "ZipCode":"47035",
        "Latitude":39.31,
        "Longitude":-84.9007
    },
    {
        "State":"Indiana",
        "StateAbbr":"IN",
        "City":"Oldenburg",
        "County":"Franklin",
        "ZipCode":"47036",
        "Latitude":39.3862,
        "Longitude":-85.2385
    },
    {
        "State":"Indiana",
        "StateAbbr":"IN",
        "City":"Akron",
        "County":"Fulton",
        "ZipCode":"46910",
        "Latitude":41.0389,
        "Longitude":-86.0395
    },
    {
        "State":"Indiana",
        "StateAbbr":"IN",
        "City":"Athens",
        "County":"Fulton",
        "ZipCode":"46912",
        "Latitude":41.0537,
        "Longitude":-86.1253
    },
    {
        "State":"Indiana",
        "StateAbbr":"IN",
        "City":"Delong",
        "County":"Fulton",
        "ZipCode":"46922",
        "Latitude":41.1384,
        "Longitude":-86.4164
    },
    {
        "State":"Indiana",
        "StateAbbr":"IN",
        "City":"Fulton",
        "County":"Fulton",
        "ZipCode":"46931",
        "Latitude":40.9473,
        "Longitude":-86.2628
    },
    {
        "State":"Indiana",
        "StateAbbr":"IN",
        "City":"Grass Creek",
        "County":"Fulton",
        "ZipCode":"46935",
        "Latitude":40.9475,
        "Longitude":-86.4044
    },
    {
        "State":"Indiana",
        "StateAbbr":"IN",
        "City":"Kewanna",
        "County":"Fulton",
        "ZipCode":"46939",
        "Latitude":41.0087,
        "Longitude":-86.4061
    },
    {
        "State":"Indiana",
        "StateAbbr":"IN",
        "City":"Leiters Ford",
        "County":"Fulton",
        "ZipCode":"46945",
        "Latitude":41.1217,
        "Longitude":-86.3858
    },
    {
        "State":"Indiana",
        "StateAbbr":"IN",
        "City":"Rochester",
        "County":"Fulton",
        "ZipCode":"46975",
        "Latitude":41.0655,
        "Longitude":-86.231
    },
    {
        "State":"Indiana",
        "StateAbbr":"IN",
        "City":"Haubstadt",
        "County":"Gibson",
        "ZipCode":"47639",
        "Latitude":38.1895,
        "Longitude":-87.5798
    },
    {
        "State":"Indiana",
        "StateAbbr":"IN",
        "City":"Hazleton",
        "County":"Gibson",
        "ZipCode":"47640",
        "Latitude":38.4623,
        "Longitude":-87.4983
    },
    {
        "State":"Indiana",
        "StateAbbr":"IN",
        "City":"Buckskin",
        "County":"Gibson",
        "ZipCode":"47647",
        "Latitude":38.2284,
        "Longitude":-87.412
    },
    {
        "State":"Indiana",
        "StateAbbr":"IN",
        "City":"Fort Branch",
        "County":"Gibson",
        "ZipCode":"47648",
        "Latitude":38.2471,
        "Longitude":-87.5682
    },
    {
        "State":"Indiana",
        "StateAbbr":"IN",
        "City":"Francisco",
        "County":"Gibson",
        "ZipCode":"47649",
        "Latitude":38.333,
        "Longitude":-87.4536
    },
    {
        "State":"Indiana",
        "StateAbbr":"IN",
        "City":"Mackey",
        "County":"Gibson",
        "ZipCode":"47654",
        "Latitude":38.2523,
        "Longitude":-87.3917
    },
    {
        "State":"Indiana",
        "StateAbbr":"IN",
        "City":"Oakland City",
        "County":"Gibson",
        "ZipCode":"47660",
        "Latitude":38.3361,
        "Longitude":-87.3519
    },
    {
        "State":"Indiana",
        "StateAbbr":"IN",
        "City":"Owensville",
        "County":"Gibson",
        "ZipCode":"47665",
        "Latitude":38.2744,
        "Longitude":-87.7091
    },
    {
        "State":"Indiana",
        "StateAbbr":"IN",
        "City":"Patoka",
        "County":"Gibson",
        "ZipCode":"47666",
        "Latitude":38.4143,
        "Longitude":-87.5958
    },
    {
        "State":"Indiana",
        "StateAbbr":"IN",
        "City":"Princeton",
        "County":"Gibson",
        "ZipCode":"47670",
        "Latitude":38.3525,
        "Longitude":-87.5691
    },
    {
        "State":"Indiana",
        "StateAbbr":"IN",
        "City":"Somerville",
        "County":"Gibson",
        "ZipCode":"47683",
        "Latitude":38.2764,
        "Longitude":-87.3778
    },
    {
        "State":"Indiana",
        "StateAbbr":"IN",
        "City":"Fairmount",
        "County":"Grant",
        "ZipCode":"46928",
        "Latitude":40.4188,
        "Longitude":-85.6713
    },
    {
        "State":"Indiana",
        "StateAbbr":"IN",
        "City":"Fowlerton",
        "County":"Grant",
        "ZipCode":"46930",
        "Latitude":40.4099,
        "Longitude":-85.571
    },
    {
        "State":"Indiana",
        "StateAbbr":"IN",
        "City":"Gas City",
        "County":"Grant",
        "ZipCode":"46933",
        "Latitude":40.4879,
        "Longitude":-85.6055
    },
    {
        "State":"Indiana",
        "StateAbbr":"IN",
        "City":"Jonesboro",
        "County":"Grant",
        "ZipCode":"46938",
        "Latitude":40.4815,
        "Longitude":-85.6365
    },
    {
        "State":"Indiana",
        "StateAbbr":"IN",
        "City":"Marion",
        "County":"Grant",
        "ZipCode":"46952",
        "Latitude":40.5743,
        "Longitude":-85.6741
    },
    {
        "State":"Indiana",
        "StateAbbr":"IN",
        "City":"Marion",
        "County":"Grant",
        "ZipCode":"46953",
        "Latitude":40.5359,
        "Longitude":-85.6616
    },
    {
        "State":"Indiana",
        "StateAbbr":"IN",
        "City":"Matthews",
        "County":"Grant",
        "ZipCode":"46957",
        "Latitude":40.3887,
        "Longitude":-85.4994
    },
    {
        "State":"Indiana",
        "StateAbbr":"IN",
        "City":"Swayzee",
        "County":"Grant",
        "ZipCode":"46986",
        "Latitude":40.5112,
        "Longitude":-85.8265
    },
    {
        "State":"Indiana",
        "StateAbbr":"IN",
        "City":"Sweetser",
        "County":"Grant",
        "ZipCode":"46987",
        "Latitude":40.5647,
        "Longitude":-85.7656
    },
    {
        "State":"Indiana",
        "StateAbbr":"IN",
        "City":"Upland",
        "County":"Grant",
        "ZipCode":"46989",
        "Latitude":40.4548,
        "Longitude":-85.499
    },
    {
        "State":"Indiana",
        "StateAbbr":"IN",
        "City":"Van Buren",
        "County":"Grant",
        "ZipCode":"46991",
        "Latitude":40.6174,
        "Longitude":-85.5148
    },
    {
        "State":"Indiana",
        "StateAbbr":"IN",
        "City":"Bloomfield",
        "County":"Greene",
        "ZipCode":"47424",
        "Latitude":39.0295,
        "Longitude":-86.8675
    },
    {
        "State":"Indiana",
        "StateAbbr":"IN",
        "City":"Jasonville",
        "County":"Greene",
        "ZipCode":"47438",
        "Latitude":39.1723,
        "Longitude":-87.2023
    },
    {
        "State":"Indiana",
        "StateAbbr":"IN",
        "City":"Koleen",
        "County":"Greene",
        "ZipCode":"47439",
        "Latitude":39.0371,
        "Longitude":-86.9616
    },
    {
        "State":"Indiana",
        "StateAbbr":"IN",
        "City":"Linton",
        "County":"Greene",
        "ZipCode":"47441",
        "Latitude":39.0461,
        "Longitude":-87.1723
    },
    {
        "State":"Indiana",
        "StateAbbr":"IN",
        "City":"Lyons",
        "County":"Greene",
        "ZipCode":"47443",
        "Latitude":38.9717,
        "Longitude":-87.1016
    },
    {
        "State":"Indiana",
        "StateAbbr":"IN",
        "City":"Midland",
        "County":"Greene",
        "ZipCode":"47445",
        "Latitude":39.122,
        "Longitude":-87.1917
    },
    {
        "State":"Indiana",
        "StateAbbr":"IN",
        "City":"Newberry",
        "County":"Greene",
        "ZipCode":"47449",
        "Latitude":38.9229,
        "Longitude":-87.0081
    },
    {
        "State":"Indiana",
        "StateAbbr":"IN",
        "City":"Owensburg",
        "County":"Greene",
        "ZipCode":"47453",
        "Latitude":38.9253,
        "Longitude":-86.7742
    },
    {
        "State":"Indiana",
        "StateAbbr":"IN",
        "City":"Scotland",
        "County":"Greene",
        "ZipCode":"47457",
        "Latitude":38.9128,
        "Longitude":-86.9039
    },
    {
        "State":"Indiana",
        "StateAbbr":"IN",
        "City":"Solsberry",
        "County":"Greene",
        "ZipCode":"47459",
        "Latitude":39.119,
        "Longitude":-86.7378
    },
    {
        "State":"Indiana",
        "StateAbbr":"IN",
        "City":"Switz City",
        "County":"Greene",
        "ZipCode":"47465",
        "Latitude":39.0369,
        "Longitude":-87.0502
    },
    {
        "State":"Indiana",
        "StateAbbr":"IN",
        "City":"Worthington",
        "County":"Greene",
        "ZipCode":"47471",
        "Latitude":39.123,
        "Longitude":-86.9991
    },
    {
        "State":"Indiana",
        "StateAbbr":"IN",
        "City":"Arcadia",
        "County":"Hamilton",
        "ZipCode":"46030",
        "Latitude":40.1776,
        "Longitude":-86.0409
    },
    {
        "State":"Indiana",
        "StateAbbr":"IN",
        "City":"Atlanta",
        "County":"Hamilton",
        "ZipCode":"46031",
        "Latitude":40.2103,
        "Longitude":-86.019
    },
    {
        "State":"Indiana",
        "StateAbbr":"IN",
        "City":"Carmel",
        "County":"Hamilton",
        "ZipCode":"46032",
        "Latitude":39.9712,
        "Longitude":-86.1245
    },
    {
        "State":"Indiana",
        "StateAbbr":"IN",
        "City":"Carmel",
        "County":"Hamilton",
        "ZipCode":"46033",
        "Latitude":39.9744,
        "Longitude":-86.0829
    },
    {
        "State":"Indiana",
        "StateAbbr":"IN",
        "City":"Cicero",
        "County":"Hamilton",
        "ZipCode":"46034",
        "Latitude":40.1298,
        "Longitude":-86.0381
    },
    {
        "State":"Indiana",
        "StateAbbr":"IN",
        "City":"Fishers",
        "County":"Hamilton",
        "ZipCode":"46037",
        "Latitude":39.9559,
        "Longitude":-85.9601
    },
    {
        "State":"Indiana",
        "StateAbbr":"IN",
        "City":"Fishers",
        "County":"Hamilton",
        "ZipCode":"46038",
        "Latitude":39.9575,
        "Longitude":-86.023
    },
    {
        "State":"Indiana",
        "StateAbbr":"IN",
        "City":"Noblesville",
        "County":"Hamilton",
        "ZipCode":"46060",
        "Latitude":40.0563,
        "Longitude":-86.0163
    },
    {
        "State":"Indiana",
        "StateAbbr":"IN",
        "City":"Noblesville",
        "County":"Hamilton",
        "ZipCode":"46061",
        "Latitude":40.0725,
        "Longitude":-86.0523
    },
    {
        "State":"Indiana",
        "StateAbbr":"IN",
        "City":"Noblesville",
        "County":"Hamilton",
        "ZipCode":"46062",
        "Latitude":40.0617,
        "Longitude":-86.0555
    },
    {
        "State":"Indiana",
        "StateAbbr":"IN",
        "City":"Sheridan",
        "County":"Hamilton",
        "ZipCode":"46069",
        "Latitude":40.135,
        "Longitude":-86.2205
    },
    {
        "State":"Indiana",
        "StateAbbr":"IN",
        "City":"Westfield",
        "County":"Hamilton",
        "ZipCode":"46074",
        "Latitude":40.0489,
        "Longitude":-86.1499
    },
    {
        "State":"Indiana",
        "StateAbbr":"IN",
        "City":"Carmel",
        "County":"Hamilton",
        "ZipCode":"46082",
        "Latitude":40.0725,
        "Longitude":-86.0523
    },
    {
        "State":"Indiana",
        "StateAbbr":"IN",
        "City":"Fishers",
        "County":"Hamilton",
        "ZipCode":"46085",
        "Latitude":39.9556,
        "Longitude":-86.0139
    },
    {
        "State":"Indiana",
        "StateAbbr":"IN",
        "City":"Indianapolis",
        "County":"Hamilton",
        "ZipCode":"46262",
        "Latitude":39.7684,
        "Longitude":-86.158
    },
    {
        "State":"Indiana",
        "StateAbbr":"IN",
        "City":"Indianapolis",
        "County":"Hamilton",
        "ZipCode":"46280",
        "Latitude":39.9416,
        "Longitude":-86.1157
    },
    {
        "State":"Indiana",
        "StateAbbr":"IN",
        "City":"Indianapolis",
        "County":"Hamilton",
        "ZipCode":"46288",
        "Latitude":39.9347,
        "Longitude":-86.1633
    },
    {
        "State":"Indiana",
        "StateAbbr":"IN",
        "City":"Indianapolis",
        "County":"Hamilton",
        "ZipCode":"46290",
        "Latitude":39.9347,
        "Longitude":-86.1633
    },
    {
        "State":"Indiana",
        "StateAbbr":"IN",
        "City":"Fortville",
        "County":"Hancock",
        "ZipCode":"46040",
        "Latitude":39.9323,
        "Longitude":-85.848
    },
    {
        "State":"Indiana",
        "StateAbbr":"IN",
        "City":"Mccordsville",
        "County":"Hancock",
        "ZipCode":"46055",
        "Latitude":39.9081,
        "Longitude":-85.9228
    },
    {
        "State":"Indiana",
        "StateAbbr":"IN",
        "City":"Charlottesville",
        "County":"Hancock",
        "ZipCode":"46117",
        "Latitude":39.8388,
        "Longitude":-85.6258
    },
    {
        "State":"Indiana",
        "StateAbbr":"IN",
        "City":"Finly",
        "County":"Hancock",
        "ZipCode":"46129",
        "Latitude":39.8215,
        "Longitude":-85.7652
    },
    {
        "State":"Indiana",
        "StateAbbr":"IN",
        "City":"Greenfield",
        "County":"Hancock",
        "ZipCode":"46140",
        "Latitude":39.7902,
        "Longitude":-85.8141
    },
    {
        "State":"Indiana",
        "StateAbbr":"IN",
        "City":"Maxwell",
        "County":"Hancock",
        "ZipCode":"46154",
        "Latitude":39.8568,
        "Longitude":-85.7684
    },
    {
        "State":"Indiana",
        "StateAbbr":"IN",
        "City":"New Palestine",
        "County":"Hancock",
        "ZipCode":"46163",
        "Latitude":39.7233,
        "Longitude":-85.9052
    },
    {
        "State":"Indiana",
        "StateAbbr":"IN",
        "City":"Wilkinson",
        "County":"Hancock",
        "ZipCode":"46186",
        "Latitude":39.8957,
        "Longitude":-85.6144
    },
    {
        "State":"Indiana",
        "StateAbbr":"IN",
        "City":"Bradford",
        "County":"Harrison",
        "ZipCode":"47107",
        "Latitude":38.3678,
        "Longitude":-86.0619
    },
    {
        "State":"Indiana",
        "StateAbbr":"IN",
        "City":"Central",
        "County":"Harrison",
        "ZipCode":"47110",
        "Latitude":38.097,
        "Longitude":-86.1723
    },
    {
        "State":"Indiana",
        "StateAbbr":"IN",
        "City":"Corydon",
        "County":"Harrison",
        "ZipCode":"47112",
        "Latitude":38.2189,
        "Longitude":-86.1145
    },
    {
        "State":"Indiana",
        "StateAbbr":"IN",
        "City":"Crandall",
        "County":"Harrison",
        "ZipCode":"47114",
        "Latitude":38.2876,
        "Longitude":-86.0664
    },
    {
        "State":"Indiana",
        "StateAbbr":"IN",
        "City":"Depauw",
        "County":"Harrison",
        "ZipCode":"47115",
        "Latitude":38.3361,
        "Longitude":-86.2109
    },
    {
        "State":"Indiana",
        "StateAbbr":"IN",
        "City":"Elizabeth",
        "County":"Harrison",
        "ZipCode":"47117",
        "Latitude":38.1244,
        "Longitude":-85.9589
    },
    {
        "State":"Indiana",
        "StateAbbr":"IN",
        "City":"Laconia",
        "County":"Harrison",
        "ZipCode":"47135",
        "Latitude":38.0527,
        "Longitude":-86.0844
    },
    {
        "State":"Indiana",
        "StateAbbr":"IN",
        "City":"Lanesville",
        "County":"Harrison",
        "ZipCode":"47136",
        "Latitude":38.2448,
        "Longitude":-85.9593
    },
    {
        "State":"Indiana",
        "StateAbbr":"IN",
        "City":"Mauckport",
        "County":"Harrison",
        "ZipCode":"47142",
        "Latitude":38.0437,
        "Longitude":-86.1846
    },
    {
        "State":"Indiana",
        "StateAbbr":"IN",
        "City":"New Middletown",
        "County":"Harrison",
        "ZipCode":"47160",
        "Latitude":38.1645,
        "Longitude":-86.051
    },
    {
        "State":"Indiana",
        "StateAbbr":"IN",
        "City":"New Salisbury",
        "County":"Harrison",
        "ZipCode":"47161",
        "Latitude":38.3399,
        "Longitude":-86.0887
    },
    {
        "State":"Indiana",
        "StateAbbr":"IN",
        "City":"Palmyra",
        "County":"Harrison",
        "ZipCode":"47164",
        "Latitude":38.4105,
        "Longitude":-86.0888
    },
    {
        "State":"Indiana",
        "StateAbbr":"IN",
        "City":"Ramsey",
        "County":"Harrison",
        "ZipCode":"47166",
        "Latitude":38.3034,
        "Longitude":-86.169
    },
    {
        "State":"Indiana",
        "StateAbbr":"IN",
        "City":"Amo",
        "County":"Hendricks",
        "ZipCode":"46103",
        "Latitude":39.6886,
        "Longitude":-86.6136
    },
    {
        "State":"Indiana",
        "StateAbbr":"IN",
        "City":"Brownsburg",
        "County":"Hendricks",
        "ZipCode":"46112",
        "Latitude":39.8466,
        "Longitude":-86.3869
    },
    {
        "State":"Indiana",
        "StateAbbr":"IN",
        "City":"Clayton",
        "County":"Hendricks",
        "ZipCode":"46118",
        "Latitude":39.6682,
        "Longitude":-86.4959
    },
    {
        "State":"Indiana",
        "StateAbbr":"IN",
        "City":"Coatesville",
        "County":"Hendricks",
        "ZipCode":"46121",
        "Latitude":39.6878,
        "Longitude":-86.6703
    },
    {
        "State":"Indiana",
        "StateAbbr":"IN",
        "City":"Danville",
        "County":"Hendricks",
        "ZipCode":"46122",
        "Latitude":39.7628,
        "Longitude":-86.5343
    },
    {
        "State":"Indiana",
        "StateAbbr":"IN",
        "City":"Avon",
        "County":"Hendricks",
        "ZipCode":"46123",
        "Latitude":39.7629,
        "Longitude":-86.3996
    },
    {
        "State":"Indiana",
        "StateAbbr":"IN",
        "City":"Lizton",
        "County":"Hendricks",
        "ZipCode":"46149",
        "Latitude":39.8843,
        "Longitude":-86.5429
    },
    {
        "State":"Indiana",
        "StateAbbr":"IN",
        "City":"North Salem",
        "County":"Hendricks",
        "ZipCode":"46165",
        "Latitude":39.8671,
        "Longitude":-86.6388
    },
    {
        "State":"Indiana",
        "StateAbbr":"IN",
        "City":"Pittsboro",
        "County":"Hendricks",
        "ZipCode":"46167",
        "Latitude":39.8615,
        "Longitude":-86.4645
    },
    {
        "State":"Indiana",
        "StateAbbr":"IN",
        "City":"Plainfield",
        "County":"Hendricks",
        "ZipCode":"46168",
        "Latitude":39.6893,
        "Longitude":-86.3919
    },
    {
        "State":"Indiana",
        "StateAbbr":"IN",
        "City":"Stilesville",
        "County":"Hendricks",
        "ZipCode":"46180",
        "Latitude":39.6391,
        "Longitude":-86.6182
    },
    {
        "State":"Indiana",
        "StateAbbr":"IN",
        "City":"Knightstown",
        "County":"Henry",
        "ZipCode":"46148",
        "Latitude":39.806,
        "Longitude":-85.5261
    },
    {
        "State":"Indiana",
        "StateAbbr":"IN",
        "City":"Dunreith",
        "County":"Henry",
        "ZipCode":"47337",
        "Latitude":39.8031,
        "Longitude":-85.4371
    },
    {
        "State":"Indiana",
        "StateAbbr":"IN",
        "City":"Greensboro",
        "County":"Henry",
        "ZipCode":"47344",
        "Latitude":39.8789,
        "Longitude":-85.464
    },
    {
        "State":"Indiana",
        "StateAbbr":"IN",
        "City":"Kennard",
        "County":"Henry",
        "ZipCode":"47351",
        "Latitude":39.904,
        "Longitude":-85.5205
    },
    {
        "State":"Indiana",
        "StateAbbr":"IN",
        "City":"Lewisville",
        "County":"Henry",
        "ZipCode":"47352",
        "Latitude":39.8283,
        "Longitude":-85.3621
    },
    {
        "State":"Indiana",
        "StateAbbr":"IN",
        "City":"Middletown",
        "County":"Henry",
        "ZipCode":"47356",
        "Latitude":40.0475,
        "Longitude":-85.5368
    },
    {
        "State":"Indiana",
        "StateAbbr":"IN",
        "City":"Mooreland",
        "County":"Henry",
        "ZipCode":"47360",
        "Latitude":39.9941,
        "Longitude":-85.2581
    },
    {
        "State":"Indiana",
        "StateAbbr":"IN",
        "City":"Mount Summit",
        "County":"Henry",
        "ZipCode":"47361",
        "Latitude":40.0042,
        "Longitude":-85.3851
    },
    {
        "State":"Indiana",
        "StateAbbr":"IN",
        "City":"New Castle",
        "County":"Henry",
        "ZipCode":"47362",
        "Latitude":39.9208,
        "Longitude":-85.3663
    },
    {
        "State":"Indiana",
        "StateAbbr":"IN",
        "City":"New Lisbon",
        "County":"Henry",
        "ZipCode":"47366",
        "Latitude":39.8634,
        "Longitude":-85.263
    },
    {
        "State":"Indiana",
        "StateAbbr":"IN",
        "City":"Shirley",
        "County":"Henry",
        "ZipCode":"47384",
        "Latitude":39.9158,
        "Longitude":-85.5182
    },
    {
        "State":"Indiana",
        "StateAbbr":"IN",
        "City":"Spiceland",
        "County":"Henry",
        "ZipCode":"47385",
        "Latitude":39.8271,
        "Longitude":-85.445
    },
    {
        "State":"Indiana",
        "StateAbbr":"IN",
        "City":"Springport",
        "County":"Henry",
        "ZipCode":"47386",
        "Latitude":40.0527,
        "Longitude":-85.3833
    },
    {
        "State":"Indiana",
        "StateAbbr":"IN",
        "City":"Straughn",
        "County":"Henry",
        "ZipCode":"47387",
        "Latitude":39.8319,
        "Longitude":-85.2724
    },
    {
        "State":"Indiana",
        "StateAbbr":"IN",
        "City":"Sulphur Springs",
        "County":"Henry",
        "ZipCode":"47388",
        "Latitude":40.006,
        "Longitude":-85.4434
    },
    {
        "State":"Indiana",
        "StateAbbr":"IN",
        "City":"Kokomo",
        "County":"Howard",
        "ZipCode":"46901",
        "Latitude":40.4988,
        "Longitude":-86.1453
    },
    {
        "State":"Indiana",
        "StateAbbr":"IN",
        "City":"Kokomo",
        "County":"Howard",
        "ZipCode":"46902",
        "Latitude":40.4509,
        "Longitude":-86.1352
    },
    {
        "State":"Indiana",
        "StateAbbr":"IN",
        "City":"Kokomo",
        "County":"Howard",
        "ZipCode":"46903",
        "Latitude":40.4696,
        "Longitude":-86.1189
    },
    {
        "State":"Indiana",
        "StateAbbr":"IN",
        "City":"Kokomo",
        "County":"Howard",
        "ZipCode":"46904",
        "Latitude":40.4696,
        "Longitude":-86.1189
    },
    {
        "State":"Indiana",
        "StateAbbr":"IN",
        "City":"Greentown",
        "County":"Howard",
        "ZipCode":"46936",
        "Latitude":40.4791,
        "Longitude":-85.9582
    },
    {
        "State":"Indiana",
        "StateAbbr":"IN",
        "City":"Hemlock",
        "County":"Howard",
        "ZipCode":"46937",
        "Latitude":40.4187,
        "Longitude":-86.0181
    },
    {
        "State":"Indiana",
        "StateAbbr":"IN",
        "City":"Oakford",
        "County":"Howard",
        "ZipCode":"46965",
        "Latitude":40.4127,
        "Longitude":-86.1015
    },
    {
        "State":"Indiana",
        "StateAbbr":"IN",
        "City":"Russiaville",
        "County":"Howard",
        "ZipCode":"46979",
        "Latitude":40.4151,
        "Longitude":-86.2675
    },
    {
        "State":"Indiana",
        "StateAbbr":"IN",
        "City":"West Middleton",
        "County":"Howard",
        "ZipCode":"46995",
        "Latitude":40.4421,
        "Longitude":-86.2155
    },
    {
        "State":"Indiana",
        "StateAbbr":"IN",
        "City":"Andrews",
        "County":"Huntington",
        "ZipCode":"46702",
        "Latitude":40.8618,
        "Longitude":-85.6067
    },
    {
        "State":"Indiana",
        "StateAbbr":"IN",
        "City":"Bippus",
        "County":"Huntington",
        "ZipCode":"46713",
        "Latitude":40.9442,
        "Longitude":-85.6239
    },
    {
        "State":"Indiana",
        "StateAbbr":"IN",
        "City":"Huntington",
        "County":"Huntington",
        "ZipCode":"46750",
        "Latitude":40.8811,
        "Longitude":-85.5054
    },
    {
        "State":"Indiana",
        "StateAbbr":"IN",
        "City":"Markle",
        "County":"Huntington",
        "ZipCode":"46770",
        "Latitude":40.8331,
        "Longitude":-85.319
    },
    {
        "State":"Indiana",
        "StateAbbr":"IN",
        "City":"Roanoke",
        "County":"Huntington",
        "ZipCode":"46783",
        "Latitude":40.96,
        "Longitude":-85.3526
    },
    {
        "State":"Indiana",
        "StateAbbr":"IN",
        "City":"Warren",
        "County":"Huntington",
        "ZipCode":"46792",
        "Latitude":40.6886,
        "Longitude":-85.4183
    },
    {
        "State":"Indiana",
        "StateAbbr":"IN",
        "City":"Brownstown",
        "County":"Jackson",
        "ZipCode":"47220",
        "Latitude":38.8836,
        "Longitude":-86.0486
    },
    {
        "State":"Indiana",
        "StateAbbr":"IN",
        "City":"Cortland",
        "County":"Jackson",
        "ZipCode":"47228",
        "Latitude":38.9745,
        "Longitude":-85.9628
    },
    {
        "State":"Indiana",
        "StateAbbr":"IN",
        "City":"Crothersville",
        "County":"Jackson",
        "ZipCode":"47229",
        "Latitude":38.8067,
        "Longitude":-85.847
    },
    {
        "State":"Indiana",
        "StateAbbr":"IN",
        "City":"Freetown",
        "County":"Jackson",
        "ZipCode":"47235",
        "Latitude":38.9957,
        "Longitude":-86.1241
    },
    {
        "State":"Indiana",
        "StateAbbr":"IN",
        "City":"Kurtz",
        "County":"Jackson",
        "ZipCode":"47249",
        "Latitude":38.9606,
        "Longitude":-86.2033
    },
    {
        "State":"Indiana",
        "StateAbbr":"IN",
        "City":"Medora",
        "County":"Jackson",
        "ZipCode":"47260",
        "Latitude":38.8255,
        "Longitude":-86.1897
    },
    {
        "State":"Indiana",
        "StateAbbr":"IN",
        "City":"Norman",
        "County":"Jackson",
        "ZipCode":"47264",
        "Latitude":38.9526,
        "Longitude":-86.275
    },
    {
        "State":"Indiana",
        "StateAbbr":"IN",
        "City":"Seymour",
        "County":"Jackson",
        "ZipCode":"47274",
        "Latitude":38.9571,
        "Longitude":-85.8825
    },
    {
        "State":"Indiana",
        "StateAbbr":"IN",
        "City":"Vallonia",
        "County":"Jackson",
        "ZipCode":"47281",
        "Latitude":38.8174,
        "Longitude":-86.069
    },
    {
        "State":"Indiana",
        "StateAbbr":"IN",
        "City":"Demotte",
        "County":"Jasper",
        "ZipCode":"46310",
        "Latitude":41.1713,
        "Longitude":-87.2491
    },
    {
        "State":"Indiana",
        "StateAbbr":"IN",
        "City":"Tefft",
        "County":"Jasper",
        "ZipCode":"46380",
        "Latitude":41.1948,
        "Longitude":-86.9686
    },
    {
        "State":"Indiana",
        "StateAbbr":"IN",
        "City":"Wheatfield",
        "County":"Jasper",
        "ZipCode":"46392",
        "Latitude":41.1779,
        "Longitude":-87.0699
    },
    {
        "State":"Indiana",
        "StateAbbr":"IN",
        "City":"Fair Oaks",
        "County":"Jasper",
        "ZipCode":"47943",
        "Latitude":41.075,
        "Longitude":-87.2575
    },
    {
        "State":"Indiana",
        "StateAbbr":"IN",
        "City":"Remington",
        "County":"Jasper",
        "ZipCode":"47977",
        "Latitude":40.7667,
        "Longitude":-87.1599
    },
    {
        "State":"Indiana",
        "StateAbbr":"IN",
        "City":"Rensselaer",
        "County":"Jasper",
        "ZipCode":"47978",
        "Latitude":40.9948,
        "Longitude":-87.1037
    },
    {
        "State":"Indiana",
        "StateAbbr":"IN",
        "City":"Bryant",
        "County":"Jay",
        "ZipCode":"47326",
        "Latitude":40.5446,
        "Longitude":-84.9117
    },
    {
        "State":"Indiana",
        "StateAbbr":"IN",
        "City":"Dunkirk",
        "County":"Jay",
        "ZipCode":"47336",
        "Latitude":40.3883,
        "Longitude":-85.2255
    },
    {
        "State":"Indiana",
        "StateAbbr":"IN",
        "City":"Pennville",
        "County":"Jay",
        "ZipCode":"47369",
        "Latitude":40.5082,
        "Longitude":-85.1492
    },
    {
        "State":"Indiana",
        "StateAbbr":"IN",
        "City":"Portland",
        "County":"Jay",
        "ZipCode":"47371",
        "Latitude":40.4306,
        "Longitude":-84.9928
    },
    {
        "State":"Indiana",
        "StateAbbr":"IN",
        "City":"Redkey",
        "County":"Jay",
        "ZipCode":"47373",
        "Latitude":40.3265,
        "Longitude":-85.162
    },
    {
        "State":"Indiana",
        "StateAbbr":"IN",
        "City":"Salamonia",
        "County":"Jay",
        "ZipCode":"47381",
        "Latitude":40.3818,
        "Longitude":-84.8669
    },
    {
        "State":"Indiana",
        "StateAbbr":"IN",
        "City":"Canaan",
        "County":"Jefferson",
        "ZipCode":"47224",
        "Latitude":38.887,
        "Longitude":-85.2213
    },
    {
        "State":"Indiana",
        "StateAbbr":"IN",
        "City":"Deputy",
        "County":"Jefferson",
        "ZipCode":"47230",
        "Latitude":38.7759,
        "Longitude":-85.6304
    },
    {
        "State":"Indiana",
        "StateAbbr":"IN",
        "City":"Dupont",
        "County":"Jefferson",
        "ZipCode":"47231",
        "Latitude":38.8905,
        "Longitude":-85.5092
    },
    {
        "State":"Indiana",
        "StateAbbr":"IN",
        "City":"Hanover",
        "County":"Jefferson",
        "ZipCode":"47243",
        "Latitude":38.7138,
        "Longitude":-85.4763
    },
    {
        "State":"Indiana",
        "StateAbbr":"IN",
        "City":"Madison",
        "County":"Jefferson",
        "ZipCode":"47250",
        "Latitude":38.7649,
        "Longitude":-85.407
    },
    {
        "State":"Indiana",
        "StateAbbr":"IN",
        "City":"Butlerville",
        "County":"Jennings",
        "ZipCode":"47223",
        "Latitude":39.0491,
        "Longitude":-85.4789
    },
    {
        "State":"Indiana",
        "StateAbbr":"IN",
        "City":"Commiskey",
        "County":"Jennings",
        "ZipCode":"47227",
        "Latitude":38.8526,
        "Longitude":-85.6434
    },
    {
        "State":"Indiana",
        "StateAbbr":"IN",
        "City":"Hayden",
        "County":"Jennings",
        "ZipCode":"47245",
        "Latitude":38.9831,
        "Longitude":-85.7405
    },
    {
        "State":"Indiana",
        "StateAbbr":"IN",
        "City":"North Vernon",
        "County":"Jennings",
        "ZipCode":"47265",
        "Latitude":39.0018,
        "Longitude":-85.6272
    },
    {
        "State":"Indiana",
        "StateAbbr":"IN",
        "City":"Paris Crossing",
        "County":"Jennings",
        "ZipCode":"47270",
        "Latitude":38.8558,
        "Longitude":-85.7487
    },
    {
        "State":"Indiana",
        "StateAbbr":"IN",
        "City":"Scipio",
        "County":"Jennings",
        "ZipCode":"47273",
        "Latitude":39.0665,
        "Longitude":-85.7129
    },
    {
        "State":"Indiana",
        "StateAbbr":"IN",
        "City":"Vernon",
        "County":"Jennings",
        "ZipCode":"47282",
        "Latitude":38.9848,
        "Longitude":-85.6094
    },
    {
        "State":"Indiana",
        "StateAbbr":"IN",
        "City":"Bargersville",
        "County":"Johnson",
        "ZipCode":"46106",
        "Latitude":39.5,
        "Longitude":-86.1797
    },
    {
        "State":"Indiana",
        "StateAbbr":"IN",
        "City":"Edinburgh",
        "County":"Johnson",
        "ZipCode":"46124",
        "Latitude":39.3626,
        "Longitude":-85.9707
    },
    {
        "State":"Indiana",
        "StateAbbr":"IN",
        "City":"Franklin",
        "County":"Johnson",
        "ZipCode":"46131",
        "Latitude":39.4854,
        "Longitude":-86.0608
    },
    {
        "State":"Indiana",
        "StateAbbr":"IN",
        "City":"Greenwood",
        "County":"Johnson",
        "ZipCode":"46142",
        "Latitude":39.6224,
        "Longitude":-86.149
    },
    {
        "State":"Indiana",
        "StateAbbr":"IN",
        "City":"Greenwood",
        "County":"Johnson",
        "ZipCode":"46143",
        "Latitude":39.596,
        "Longitude":-86.1309
    },
    {
        "State":"Indiana",
        "StateAbbr":"IN",
        "City":"Needham",
        "County":"Johnson",
        "ZipCode":"46162",
        "Latitude":39.5605,
        "Longitude":-85.9656
    },
    {
        "State":"Indiana",
        "StateAbbr":"IN",
        "City":"Nineveh",
        "County":"Johnson",
        "ZipCode":"46164",
        "Latitude":39.3656,
        "Longitude":-86.0976
    },
    {
        "State":"Indiana",
        "StateAbbr":"IN",
        "City":"Trafalgar",
        "County":"Johnson",
        "ZipCode":"46181",
        "Latitude":39.3696,
        "Longitude":-86.1838
    },
    {
        "State":"Indiana",
        "StateAbbr":"IN",
        "City":"Whiteland",
        "County":"Johnson",
        "ZipCode":"46184",
        "Latitude":39.5611,
        "Longitude":-86.0723
    },
    {
        "State":"Indiana",
        "StateAbbr":"IN",
        "City":"Bicknell",
        "County":"Knox",
        "ZipCode":"47512",
        "Latitude":38.7727,
        "Longitude":-87.3137
    },
    {
        "State":"Indiana",
        "StateAbbr":"IN",
        "City":"Bruceville",
        "County":"Knox",
        "ZipCode":"47516",
        "Latitude":38.7563,
        "Longitude":-87.4313
    },
    {
        "State":"Indiana",
        "StateAbbr":"IN",
        "City":"Decker",
        "County":"Knox",
        "ZipCode":"47524",
        "Latitude":38.5076,
        "Longitude":-87.5537
    },
    {
        "State":"Indiana",
        "StateAbbr":"IN",
        "City":"Edwardsport",
        "County":"Knox",
        "ZipCode":"47528",
        "Latitude":38.8106,
        "Longitude":-87.2519
    },
    {
        "State":"Indiana",
        "StateAbbr":"IN",
        "City":"Freelandville",
        "County":"Knox",
        "ZipCode":"47535",
        "Latitude":38.8627,
        "Longitude":-87.3127
    },
    {
        "State":"Indiana",
        "StateAbbr":"IN",
        "City":"Monroe City",
        "County":"Knox",
        "ZipCode":"47557",
        "Latitude":38.6001,
        "Longitude":-87.3641
    },
    {
        "State":"Indiana",
        "StateAbbr":"IN",
        "City":"Oaktown",
        "County":"Knox",
        "ZipCode":"47561",
        "Latitude":38.8579,
        "Longitude":-87.3879
    },
    {
        "State":"Indiana",
        "StateAbbr":"IN",
        "City":"Ragsdale",
        "County":"Knox",
        "ZipCode":"47573",
        "Latitude":38.7441,
        "Longitude":-87.3214
    },
    {
        "State":"Indiana",
        "StateAbbr":"IN",
        "City":"Sandborn",
        "County":"Knox",
        "ZipCode":"47578",
        "Latitude":38.8817,
        "Longitude":-87.2025
    },
    {
        "State":"Indiana",
        "StateAbbr":"IN",
        "City":"Vincennes",
        "County":"Knox",
        "ZipCode":"47591",
        "Latitude":38.6734,
        "Longitude":-87.5098
    },
    {
        "State":"Indiana",
        "StateAbbr":"IN",
        "City":"Westphalia",
        "County":"Knox",
        "ZipCode":"47596",
        "Latitude":38.8628,
        "Longitude":-87.2256
    },
    {
        "State":"Indiana",
        "StateAbbr":"IN",
        "City":"Wheatland",
        "County":"Knox",
        "ZipCode":"47597",
        "Latitude":38.6671,
        "Longitude":-87.3062
    },
    {
        "State":"Indiana",
        "StateAbbr":"IN",
        "City":"Atwood",
        "County":"Kosciusko",
        "ZipCode":"46502",
        "Latitude":41.254,
        "Longitude":-85.9697
    },
    {
        "State":"Indiana",
        "StateAbbr":"IN",
        "City":"Burket",
        "County":"Kosciusko",
        "ZipCode":"46508",
        "Latitude":41.1547,
        "Longitude":-85.9693
    },
    {
        "State":"Indiana",
        "StateAbbr":"IN",
        "City":"Claypool",
        "County":"Kosciusko",
        "ZipCode":"46510",
        "Latitude":41.1165,
        "Longitude":-85.8686
    },
    {
        "State":"Indiana",
        "StateAbbr":"IN",
        "City":"Etna Green",
        "County":"Kosciusko",
        "ZipCode":"46524",
        "Latitude":41.2918,
        "Longitude":-86.035
    },
    {
        "State":"Indiana",
        "StateAbbr":"IN",
        "City":"Leesburg",
        "County":"Kosciusko",
        "ZipCode":"46538",
        "Latitude":41.3266,
        "Longitude":-85.816
    },
    {
        "State":"Indiana",
        "StateAbbr":"IN",
        "City":"Mentone",
        "County":"Kosciusko",
        "ZipCode":"46539",
        "Latitude":41.1615,
        "Longitude":-86.0299
    },
    {
        "State":"Indiana",
        "StateAbbr":"IN",
        "City":"Milford",
        "County":"Kosciusko",
        "ZipCode":"46542",
        "Latitude":41.4011,
        "Longitude":-85.8554
    },
    {
        "State":"Indiana",
        "StateAbbr":"IN",
        "City":"North Webster",
        "County":"Kosciusko",
        "ZipCode":"46555",
        "Latitude":41.3326,
        "Longitude":-85.7103
    },
    {
        "State":"Indiana",
        "StateAbbr":"IN",
        "City":"Pierceton",
        "County":"Kosciusko",
        "ZipCode":"46562",
        "Latitude":41.2124,
        "Longitude":-85.7061
    },
    {
        "State":"Indiana",
        "StateAbbr":"IN",
        "City":"Syracuse",
        "County":"Kosciusko",
        "ZipCode":"46567",
        "Latitude":41.4065,
        "Longitude":-85.7184
    },
    {
        "State":"Indiana",
        "StateAbbr":"IN",
        "City":"Warsaw",
        "County":"Kosciusko",
        "ZipCode":"46580",
        "Latitude":41.2438,
        "Longitude":-85.8508
    },
    {
        "State":"Indiana",
        "StateAbbr":"IN",
        "City":"Warsaw",
        "County":"Kosciusko",
        "ZipCode":"46581",
        "Latitude":41.2394,
        "Longitude":-85.8643
    },
    {
        "State":"Indiana",
        "StateAbbr":"IN",
        "City":"Warsaw",
        "County":"Kosciusko",
        "ZipCode":"46582",
        "Latitude":41.2842,
        "Longitude":-85.8547
    },
    {
        "State":"Indiana",
        "StateAbbr":"IN",
        "City":"Winona Lake",
        "County":"Kosciusko",
        "ZipCode":"46590",
        "Latitude":41.211,
        "Longitude":-85.8305
    },
    {
        "State":"Indiana",
        "StateAbbr":"IN",
        "City":"Silver Lake",
        "County":"Kosciusko",
        "ZipCode":"46982",
        "Latitude":41.0743,
        "Longitude":-85.8792
    },
    {
        "State":"Indiana",
        "StateAbbr":"IN",
        "City":"Shipshewana",
        "County":"LaGrange",
        "ZipCode":"46565",
        "Latitude":41.6633,
        "Longitude":-85.5932
    },
    {
        "State":"Indiana",
        "StateAbbr":"IN",
        "City":"Topeka",
        "County":"LaGrange",
        "ZipCode":"46571",
        "Latitude":41.5634,
        "Longitude":-85.5317
    },
    {
        "State":"Indiana",
        "StateAbbr":"IN",
        "City":"Howe",
        "County":"LaGrange",
        "ZipCode":"46746",
        "Latitude":41.7286,
        "Longitude":-85.4727
    },
    {
        "State":"Indiana",
        "StateAbbr":"IN",
        "City":"Lagrange",
        "County":"LaGrange",
        "ZipCode":"46761",
        "Latitude":41.652,
        "Longitude":-85.404
    },
    {
        "State":"Indiana",
        "StateAbbr":"IN",
        "City":"Mongo",
        "County":"LaGrange",
        "ZipCode":"46771",
        "Latitude":41.6848,
        "Longitude":-85.2797
    },
    {
        "State":"Indiana",
        "StateAbbr":"IN",
        "City":"South Milford",
        "County":"LaGrange",
        "ZipCode":"46786",
        "Latitude":41.5326,
        "Longitude":-85.2722
    },
    {
        "State":"Indiana",
        "StateAbbr":"IN",
        "City":"Stroh",
        "County":"LaGrange",
        "ZipCode":"46789",
        "Latitude":41.5835,
        "Longitude":-85.1992
    },
    {
        "State":"Indiana",
        "StateAbbr":"IN",
        "City":"Wolcottville",
        "County":"LaGrange",
        "ZipCode":"46795",
        "Latitude":41.557,
        "Longitude":-85.315
    },
    {
        "State":"Indiana",
        "StateAbbr":"IN",
        "City":"Cedar Lake",
        "County":"Lake",
        "ZipCode":"46303",
        "Latitude":41.3713,
        "Longitude":-87.4764
    },
    {
        "State":"Indiana",
        "StateAbbr":"IN",
        "City":"Crown Point",
        "County":"Lake",
        "ZipCode":"46307",
        "Latitude":41.4236,
        "Longitude":-87.3556
    },
    {
        "State":"Indiana",
        "StateAbbr":"IN",
        "City":"Crown Point",
        "County":"Lake",
        "ZipCode":"46308",
        "Latitude":41.417,
        "Longitude":-87.3653
    },
    {
        "State":"Indiana",
        "StateAbbr":"IN",
        "City":"Dyer",
        "County":"Lake",
        "ZipCode":"46311",
        "Latitude":41.492,
        "Longitude":-87.5108
    },
    {
        "State":"Indiana",
        "StateAbbr":"IN",
        "City":"East Chicago",
        "County":"Lake",
        "ZipCode":"46312",
        "Latitude":41.6349,
        "Longitude":-87.4627
    },
    {
        "State":"Indiana",
        "StateAbbr":"IN",
        "City":"Griffith",
        "County":"Lake",
        "ZipCode":"46319",
        "Latitude":41.5335,
        "Longitude":-87.4228
    },
    {
        "State":"Indiana",
        "StateAbbr":"IN",
        "City":"Hammond",
        "County":"Lake",
        "ZipCode":"46320",
        "Latitude":41.6099,
        "Longitude":-87.5079
    },
    {
        "State":"Indiana",
        "StateAbbr":"IN",
        "City":"Munster",
        "County":"Lake",
        "ZipCode":"46321",
        "Latitude":41.5544,
        "Longitude":-87.5011
    },
    {
        "State":"Indiana",
        "StateAbbr":"IN",
        "City":"Highland",
        "County":"Lake",
        "ZipCode":"46322",
        "Latitude":41.55,
        "Longitude":-87.4569
    },
    {
        "State":"Indiana",
        "StateAbbr":"IN",
        "City":"Hammond",
        "County":"Lake",
        "ZipCode":"46323",
        "Latitude":41.5878,
        "Longitude":-87.4532
    },
    {
        "State":"Indiana",
        "StateAbbr":"IN",
        "City":"Hammond",
        "County":"Lake",
        "ZipCode":"46324",
        "Latitude":41.584,
        "Longitude":-87.5034
    },
    {
        "State":"Indiana",
        "StateAbbr":"IN",
        "City":"Hammond",
        "County":"Lake",
        "ZipCode":"46325",
        "Latitude":41.4615,
        "Longitude":-87.3728
    },
    {
        "State":"Indiana",
        "StateAbbr":"IN",
        "City":"Hammond",
        "County":"Lake",
        "ZipCode":"46327",
        "Latitude":41.6327,
        "Longitude":-87.5113
    },
    {
        "State":"Indiana",
        "StateAbbr":"IN",
        "City":"Hobart",
        "County":"Lake",
        "ZipCode":"46342",
        "Latitude":41.5263,
        "Longitude":-87.2525
    },
    {
        "State":"Indiana",
        "StateAbbr":"IN",
        "City":"Leroy",
        "County":"Lake",
        "ZipCode":"46355",
        "Latitude":41.3594,
        "Longitude":-87.2708
    },
    {
        "State":"Indiana",
        "StateAbbr":"IN",
        "City":"Lowell",
        "County":"Lake",
        "ZipCode":"46356",
        "Latitude":41.2845,
        "Longitude":-87.4191
    },
    {
        "State":"Indiana",
        "StateAbbr":"IN",
        "City":"Saint John",
        "County":"Lake",
        "ZipCode":"46373",
        "Latitude":41.4495,
        "Longitude":-87.4764
    },
    {
        "State":"Indiana",
        "StateAbbr":"IN",
        "City":"Schererville",
        "County":"Lake",
        "ZipCode":"46375",
        "Latitude":41.4922,
        "Longitude":-87.4605
    },
    {
        "State":"Indiana",
        "StateAbbr":"IN",
        "City":"Schneider",
        "County":"Lake",
        "ZipCode":"46376",
        "Latitude":41.19,
        "Longitude":-87.4779
    },
    {
        "State":"Indiana",
        "StateAbbr":"IN",
        "City":"Shelby",
        "County":"Lake",
        "ZipCode":"46377",
        "Latitude":41.1917,
        "Longitude":-87.3398
    },
    {
        "State":"Indiana",
        "StateAbbr":"IN",
        "City":"Whiting",
        "County":"Lake",
        "ZipCode":"46394",
        "Latitude":41.6787,
        "Longitude":-87.5005
    },
    {
        "State":"Indiana",
        "StateAbbr":"IN",
        "City":"Gary",
        "County":"Lake",
        "ZipCode":"46401",
        "Latitude":41.5907,
        "Longitude":-87.3199
    },
    {
        "State":"Indiana",
        "StateAbbr":"IN",
        "City":"Gary",
        "County":"Lake",
        "ZipCode":"46402",
        "Latitude":41.5997,
        "Longitude":-87.3385
    },
    {
        "State":"Indiana",
        "StateAbbr":"IN",
        "City":"Gary",
        "County":"Lake",
        "ZipCode":"46403",
        "Latitude":41.6036,
        "Longitude":-87.259
    },
    {
        "State":"Indiana",
        "StateAbbr":"IN",
        "City":"Gary",
        "County":"Lake",
        "ZipCode":"46404",
        "Latitude":41.5899,
        "Longitude":-87.3732
    },
    {
        "State":"Indiana",
        "StateAbbr":"IN",
        "City":"Lake Station",
        "County":"Lake",
        "ZipCode":"46405",
        "Latitude":41.5686,
        "Longitude":-87.2622
    },
    {
        "State":"Indiana",
        "StateAbbr":"IN",
        "City":"Gary",
        "County":"Lake",
        "ZipCode":"46406",
        "Latitude":41.5878,
        "Longitude":-87.4062
    },
    {
        "State":"Indiana",
        "StateAbbr":"IN",
        "City":"Gary",
        "County":"Lake",
        "ZipCode":"46407",
        "Latitude":41.5804,
        "Longitude":-87.335
    },
    {
        "State":"Indiana",
        "StateAbbr":"IN",
        "City":"Gary",
        "County":"Lake",
        "ZipCode":"46408",
        "Latitude":41.5422,
        "Longitude":-87.3588
    },
    {
        "State":"Indiana",
        "StateAbbr":"IN",
        "City":"Gary",
        "County":"Lake",
        "ZipCode":"46409",
        "Latitude":41.5412,
        "Longitude":-87.3271
    },
    {
        "State":"Indiana",
        "StateAbbr":"IN",
        "City":"Merrillville",
        "County":"Lake",
        "ZipCode":"46410",
        "Latitude":41.4957,
        "Longitude":-87.3509
    },
    {
        "State":"Indiana",
        "StateAbbr":"IN",
        "City":"Merrillville",
        "County":"Lake",
        "ZipCode":"46411",
        "Latitude":41.4615,
        "Longitude":-87.3728
    },
    {
        "State":"Indiana",
        "StateAbbr":"IN",
        "City":"Hanna",
        "County":"LaPorte",
        "ZipCode":"46340",
        "Latitude":41.4088,
        "Longitude":-86.7759
    },
    {
        "State":"Indiana",
        "StateAbbr":"IN",
        "City":"Kingsbury",
        "County":"LaPorte",
        "ZipCode":"46345",
        "Latitude":41.526,
        "Longitude":-86.6997
    },
    {
        "State":"Indiana",
        "StateAbbr":"IN",
        "City":"Kingsford Heights",
        "County":"LaPorte",
        "ZipCode":"46346",
        "Latitude":41.4802,
        "Longitude":-86.6919
    },
    {
        "State":"Indiana",
        "StateAbbr":"IN",
        "City":"La Crosse",
        "County":"LaPorte",
        "ZipCode":"46348",
        "Latitude":41.3157,
        "Longitude":-86.8682
    },
    {
        "State":"Indiana",
        "StateAbbr":"IN",
        "City":"La Porte",
        "County":"LaPorte",
        "ZipCode":"46350",
        "Latitude":41.5994,
        "Longitude":-86.7077
    },
    {
        "State":"Indiana",
        "StateAbbr":"IN",
        "City":"La Porte",
        "County":"LaPorte",
        "ZipCode":"46352",
        "Latitude":41.499,
        "Longitude":-86.7099
    },
    {
        "State":"Indiana",
        "StateAbbr":"IN",
        "City":"Michigan City",
        "County":"LaPorte",
        "ZipCode":"46360",
        "Latitude":41.698,
        "Longitude":-86.8699
    },
    {
        "State":"Indiana",
        "StateAbbr":"IN",
        "City":"Michigan City",
        "County":"LaPorte",
        "ZipCode":"46361",
        "Latitude":41.7035,
        "Longitude":-86.9151
    },
    {
        "State":"Indiana",
        "StateAbbr":"IN",
        "City":"Mill Creek",
        "County":"LaPorte",
        "ZipCode":"46365",
        "Latitude":41.6091,
        "Longitude":-86.544
    },
    {
        "State":"Indiana",
        "StateAbbr":"IN",
        "City":"Rolling Prairie",
        "County":"LaPorte",
        "ZipCode":"46371",
        "Latitude":41.7229,
        "Longitude":-86.5841
    },
    {
        "State":"Indiana",
        "StateAbbr":"IN",
        "City":"Union Mills",
        "County":"LaPorte",
        "ZipCode":"46382",
        "Latitude":41.4602,
        "Longitude":-86.8355
    },