[
    {
        "State":"Iowa",
        "StateAbbr":"IA",
        "City":"Adair",
        "County":"Adair",
        "ZipCode":"50002",
        "Latitude":41.5137,
        "Longitude":-94.6444
    },
    {
        "State":"Iowa",
        "StateAbbr":"IA",
        "City":"Bridgewater",
        "County":"Adair",
        "ZipCode":"50837",
        "Latitude":41.2589,
        "Longitude":-94.6669
    },
    {
        "State":"Iowa",
        "StateAbbr":"IA",
        "City":"Fontanelle",
        "County":"Adair",
        "ZipCode":"50846",
        "Latitude":41.2896,
        "Longitude":-94.5419
    },
    {
        "State":"Iowa",
        "StateAbbr":"IA",
        "City":"Greenfield",
        "County":"Adair",
        "ZipCode":"50849",
        "Latitude":41.3133,
        "Longitude":-94.4408
    },
    {
        "State":"Iowa",
        "StateAbbr":"IA",
        "City":"Orient",
        "County":"Adair",
        "ZipCode":"50858",
        "Latitude":41.2192,
        "Longitude":-94.3705
    },
    {
        "State":"Iowa",
        "StateAbbr":"IA",
        "City":"Carbon",
        "County":"Adams",
        "ZipCode":"50839",
        "Latitude":41.0487,
        "Longitude":-94.8231
    },
    {
        "State":"Iowa",
        "StateAbbr":"IA",
        "City":"Corning",
        "County":"Adams",
        "ZipCode":"50841",
        "Latitude":40.9871,
        "Longitude":-94.7358
    },
    {
        "State":"Iowa",
        "StateAbbr":"IA",
        "City":"Nodaway",
        "County":"Adams",
        "ZipCode":"50857",
        "Latitude":40.954,
        "Longitude":-94.8731
    },
    {
        "State":"Iowa",
        "StateAbbr":"IA",
        "City":"Prescott",
        "County":"Adams",
        "ZipCode":"50859",
        "Latitude":41.0577,
        "Longitude":-94.5942
    },
    {
        "State":"Iowa",
        "StateAbbr":"IA",
        "City":"Dorchester",
        "County":"Allamakee",
        "ZipCode":"52140",
        "Latitude":43.4421,
        "Longitude":-91.5076
    },
    {
        "State":"Iowa",
        "StateAbbr":"IA",
        "City":"Harpers Ferry",
        "County":"Allamakee",
        "ZipCode":"52146",
        "Latitude":43.1698,
        "Longitude":-91.2188
    },
    {
        "State":"Iowa",
        "StateAbbr":"IA",
        "City":"Lansing",
        "County":"Allamakee",
        "ZipCode":"52151",
        "Latitude":43.3661,
        "Longitude":-91.266
    },
    {
        "State":"Iowa",
        "StateAbbr":"IA",
        "City":"New Albin",
        "County":"Allamakee",
        "ZipCode":"52160",
        "Latitude":43.4899,
        "Longitude":-91.2942
    },
    {
        "State":"Iowa",
        "StateAbbr":"IA",
        "City":"Postville",
        "County":"Allamakee",
        "ZipCode":"52162",
        "Latitude":43.0036,
        "Longitude":-91.5478
    },
    {
        "State":"Iowa",
        "StateAbbr":"IA",
        "City":"Waterville",
        "County":"Allamakee",
        "ZipCode":"52170",
        "Latitude":43.2078,
        "Longitude":-91.2976
    },
    {
        "State":"Iowa",
        "StateAbbr":"IA",
        "City":"Waukon",
        "County":"Allamakee",
        "ZipCode":"52172",
        "Latitude":43.264,
        "Longitude":-91.48
    },
    {
        "State":"Iowa",
        "StateAbbr":"IA",
        "City":"Centerville",
        "County":"Appanoose",
        "ZipCode":"52544",
        "Latitude":40.7326,
        "Longitude":-92.8728
    },
    {
        "State":"Iowa",
        "StateAbbr":"IA",
        "City":"Cincinnati",
        "County":"Appanoose",
        "ZipCode":"52549",
        "Latitude":40.6344,
        "Longitude":-92.9219
    },
    {
        "State":"Iowa",
        "StateAbbr":"IA",
        "City":"Exline",
        "County":"Appanoose",
        "ZipCode":"52555",
        "Latitude":40.6414,
        "Longitude":-92.827
    },
    {
        "State":"Iowa",
        "StateAbbr":"IA",
        "City":"Moravia",
        "County":"Appanoose",
        "ZipCode":"52571",
        "Latitude":40.8825,
        "Longitude":-92.8534
    },
    {
        "State":"Iowa",
        "StateAbbr":"IA",
        "City":"Moulton",
        "County":"Appanoose",
        "ZipCode":"52572",
        "Latitude":40.6866,
        "Longitude":-92.6833
    },
    {
        "State":"Iowa",
        "StateAbbr":"IA",
        "City":"Mystic",
        "County":"Appanoose",
        "ZipCode":"52574",
        "Latitude":40.7883,
        "Longitude":-92.9284
    },
    {
        "State":"Iowa",
        "StateAbbr":"IA",
        "City":"Plano",
        "County":"Appanoose",
        "ZipCode":"52581",
        "Latitude":40.7751,
        "Longitude":-93.0386
    },
    {
        "State":"Iowa",
        "StateAbbr":"IA",
        "City":"Udell",
        "County":"Appanoose",
        "ZipCode":"52593",
        "Latitude":40.7808,
        "Longitude":-92.7421
    },
    {
        "State":"Iowa",
        "StateAbbr":"IA",
        "City":"Unionville",
        "County":"Appanoose",
        "ZipCode":"52594",
        "Latitude":40.8416,
        "Longitude":-92.6935
    },
    {
        "State":"Iowa",
        "StateAbbr":"IA",
        "City":"Audubon",
        "County":"Audubon",
        "ZipCode":"50025",
        "Latitude":41.73,
        "Longitude":-94.9164
    },
    {
        "State":"Iowa",
        "StateAbbr":"IA",
        "City":"Brayton",
        "County":"Audubon",
        "ZipCode":"50042",
        "Latitude":41.5524,
        "Longitude":-94.974
    },
    {
        "State":"Iowa",
        "StateAbbr":"IA",
        "City":"Exira",
        "County":"Audubon",
        "ZipCode":"50076",
        "Latitude":41.5768,
        "Longitude":-94.8571
    },
    {
        "State":"Iowa",
        "StateAbbr":"IA",
        "City":"Gray",
        "County":"Audubon",
        "ZipCode":"50110",
        "Latitude":41.8401,
        "Longitude":-94.9812
    },
    {
        "State":"Iowa",
        "StateAbbr":"IA",
        "City":"Hamlin",
        "County":"Audubon",
        "ZipCode":"50117",
        "Latitude":41.6506,
        "Longitude":-94.9157
    },
    {
        "State":"Iowa",
        "StateAbbr":"IA",
        "City":"Kimballton",
        "County":"Audubon",
        "ZipCode":"51543",
        "Latitude":41.6352,
        "Longitude":-95.0553
    },
    {
        "State":"Iowa",
        "StateAbbr":"IA",
        "City":"Atkins",
        "County":"Benton",
        "ZipCode":"52206",
        "Latitude":41.9881,
        "Longitude":-91.876
    },
    {
        "State":"Iowa",
        "StateAbbr":"IA",
        "City":"Belle Plaine",
        "County":"Benton",
        "ZipCode":"52208",
        "Latitude":41.8992,
        "Longitude":-92.2574
    },
    {
        "State":"Iowa",
        "StateAbbr":"IA",
        "City":"Blairstown",
        "County":"Benton",
        "ZipCode":"52209",
        "Latitude":41.9063,
        "Longitude":-92.0829
    },
    {
        "State":"Iowa",
        "StateAbbr":"IA",
        "City":"Garrison",
        "County":"Benton",
        "ZipCode":"52229",
        "Latitude":42.1588,
        "Longitude":-92.1644
    },
    {
        "State":"Iowa",
        "StateAbbr":"IA",
        "City":"Keystone",
        "County":"Benton",
        "ZipCode":"52249",
        "Latitude":42.0156,
        "Longitude":-92.2179
    },
    {
        "State":"Iowa",
        "StateAbbr":"IA",
        "City":"Luzerne",
        "County":"Benton",
        "ZipCode":"52257",
        "Latitude":41.9061,
        "Longitude":-92.1793
    },
    {
        "State":"Iowa",
        "StateAbbr":"IA",
        "City":"Mount Auburn",
        "County":"Benton",
        "ZipCode":"52313",
        "Latitude":42.255,
        "Longitude":-92.0927
    },
    {
        "State":"Iowa",
        "StateAbbr":"IA",
        "City":"Newhall",
        "County":"Benton",
        "ZipCode":"52315",
        "Latitude":41.9927,
        "Longitude":-91.9779
    },
    {
        "State":"Iowa",
        "StateAbbr":"IA",
        "City":"Norway",
        "County":"Benton",
        "ZipCode":"52318",
        "Latitude":41.8992,
        "Longitude":-91.892
    },
    {
        "State":"Iowa",
        "StateAbbr":"IA",
        "City":"Shellsburg",
        "County":"Benton",
        "ZipCode":"52332",
        "Latitude":42.0848,
        "Longitude":-91.8746
    },
    {
        "State":"Iowa",
        "StateAbbr":"IA",
        "City":"Urbana",
        "County":"Benton",
        "ZipCode":"52345",
        "Latitude":42.2365,
        "Longitude":-91.8881
    },
    {
        "State":"Iowa",
        "StateAbbr":"IA",
        "City":"Van Horne",
        "County":"Benton",
        "ZipCode":"52346",
        "Latitude":42.0194,
        "Longitude":-92.1046
    },
    {
        "State":"Iowa",
        "StateAbbr":"IA",
        "City":"Vinton",
        "County":"Benton",
        "ZipCode":"52349",
        "Latitude":42.1743,
        "Longitude":-91.9892
    },
    {
        "State":"Iowa",
        "StateAbbr":"IA",
        "City":"Walford",
        "County":"Benton",
        "ZipCode":"52351",
        "Latitude":41.877,
        "Longitude":-91.8369
    },
    {
        "State":"Iowa",
        "StateAbbr":"IA",
        "City":"Watkins",
        "County":"Benton",
        "ZipCode":"52354",
        "Latitude":41.904,
        "Longitude":-91.9965
    },
    {
        "State":"Iowa",
        "StateAbbr":"IA",
        "City":"Cedar Falls",
        "County":"Black Hawk",
        "ZipCode":"50613",
        "Latitude":42.5241,
        "Longitude":-92.4497
    },
    {
        "State":"Iowa",
        "StateAbbr":"IA",
        "City":"Cedar Falls",
        "County":"Black Hawk",
        "ZipCode":"50614",
        "Latitude":42.4698,
        "Longitude":-92.3095
    },
    {
        "State":"Iowa",
        "StateAbbr":"IA",
        "City":"Dewar",
        "County":"Black Hawk",
        "ZipCode":"50623",
        "Latitude":42.5253,
        "Longitude":-92.2207
    },
    {
        "State":"Iowa",
        "StateAbbr":"IA",
        "City":"Dunkerton",
        "County":"Black Hawk",
        "ZipCode":"50626",
        "Latitude":42.578,
        "Longitude":-92.1588
    },
    {
        "State":"Iowa",
        "StateAbbr":"IA",
        "City":"Gilbertville",
        "County":"Black Hawk",
        "ZipCode":"50634",
        "Latitude":42.4161,
        "Longitude":-92.2149
    },
    {
        "State":"Iowa",
        "StateAbbr":"IA",
        "City":"Hudson",
        "County":"Black Hawk",
        "ZipCode":"50643",
        "Latitude":42.3905,
        "Longitude":-92.4549
    },
    {
        "State":"Iowa",
        "StateAbbr":"IA",
        "City":"La Porte City",
        "County":"Black Hawk",
        "ZipCode":"50651",
        "Latitude":42.3416,
        "Longitude":-92.1862
    },
    {
        "State":"Iowa",
        "StateAbbr":"IA",
        "City":"Raymond",
        "County":"Black Hawk",
        "ZipCode":"50667",
        "Latitude":42.4672,
        "Longitude":-92.2162
    },
    {
        "State":"Iowa",
        "StateAbbr":"IA",
        "City":"Waterloo",
        "County":"Black Hawk",
        "ZipCode":"50701",
        "Latitude":42.4778,
        "Longitude":-92.3661
    },
    {
        "State":"Iowa",
        "StateAbbr":"IA",
        "City":"Waterloo",
        "County":"Black Hawk",
        "ZipCode":"50702",
        "Latitude":42.4731,
        "Longitude":-92.3365
    },
    {
        "State":"Iowa",
        "StateAbbr":"IA",
        "City":"Waterloo",
        "County":"Black Hawk",
        "ZipCode":"50703",
        "Latitude":42.5149,
        "Longitude":-92.3269
    },
    {
        "State":"Iowa",
        "StateAbbr":"IA",
        "City":"Waterloo",
        "County":"Black Hawk",
        "ZipCode":"50704",
        "Latitude":42.4698,
        "Longitude":-92.3095
    },
    {
        "State":"Iowa",
        "StateAbbr":"IA",
        "City":"Evansdale",
        "County":"Black Hawk",
        "ZipCode":"50707",
        "Latitude":42.4755,
        "Longitude":-92.2812
    },
    {
        "State":"Iowa",
        "StateAbbr":"IA",
        "City":"Beaver",
        "County":"Boone",
        "ZipCode":"50031",
        "Latitude":42.0387,
        "Longitude":-94.1436
    },
    {
        "State":"Iowa",
        "StateAbbr":"IA",
        "City":"Boone",
        "County":"Boone",
        "ZipCode":"50036",
        "Latitude":42.0694,
        "Longitude":-93.8781
    },
    {
        "State":"Iowa",
        "StateAbbr":"IA",
        "City":"Boone",
        "County":"Boone",
        "ZipCode":"50037",
        "Latitude":42.0597,
        "Longitude":-93.8802
    },
    {
        "State":"Iowa",
        "StateAbbr":"IA",
        "City":"Boxholm",
        "County":"Boone",
        "ZipCode":"50040",
        "Latitude":42.1706,
        "Longitude":-94.1052
    },
    {
        "State":"Iowa",
        "StateAbbr":"IA",
        "City":"Boone",
        "County":"Boone",
        "ZipCode":"50099",
        "Latitude":42.0597,
        "Longitude":-93.8802
    },
    {
        "State":"Iowa",
        "StateAbbr":"IA",
        "City":"Luther",
        "County":"Boone",
        "ZipCode":"50152",
        "Latitude":41.9387,
        "Longitude":-93.8371
    },
    {
        "State":"Iowa",
        "StateAbbr":"IA",
        "City":"Madrid",
        "County":"Boone",
        "ZipCode":"50156",
        "Latitude":41.8841,
        "Longitude":-93.8448
    },
    {
        "State":"Iowa",
        "StateAbbr":"IA",
        "City":"Ogden",
        "County":"Boone",
        "ZipCode":"50212",
        "Latitude":42.0351,
        "Longitude":-94.0063
    },
    {
        "State":"Iowa",
        "StateAbbr":"IA",
        "City":"Pilot Mound",
        "County":"Boone",
        "ZipCode":"50223",
        "Latitude":42.1604,
        "Longitude":-94.0102
    },
    {
        "State":"Iowa",
        "StateAbbr":"IA",
        "City":"Denver",
        "County":"Bremer",
        "ZipCode":"50622",
        "Latitude":42.6731,
        "Longitude":-92.3417
    },
    {
        "State":"Iowa",
        "StateAbbr":"IA",
        "City":"Frederika",
        "County":"Bremer",
        "ZipCode":"50631",
        "Latitude":42.8827,
        "Longitude":-92.3063
    },
    {
        "State":"Iowa",
        "StateAbbr":"IA",
        "City":"Janesville",
        "County":"Bremer",
        "ZipCode":"50647",
        "Latitude":42.6465,
        "Longitude":-92.4791
    },
    {
        "State":"Iowa",
        "StateAbbr":"IA",
        "City":"Plainfield",
        "County":"Bremer",
        "ZipCode":"50666",
        "Latitude":42.8503,
        "Longitude":-92.5116
    },
    {
        "State":"Iowa",
        "StateAbbr":"IA",
        "City":"Readlyn",
        "County":"Bremer",
        "ZipCode":"50668",
        "Latitude":42.6929,
        "Longitude":-92.2154
    },
    {
        "State":"Iowa",
        "StateAbbr":"IA",
        "City":"Sumner",
        "County":"Bremer",
        "ZipCode":"50674",
        "Latitude":42.8419,
        "Longitude":-92.1186
    },
    {
        "State":"Iowa",
        "StateAbbr":"IA",
        "City":"Tripoli",
        "County":"Bremer",
        "ZipCode":"50676",
        "Latitude":42.8105,
        "Longitude":-92.2659
    },
    {
        "State":"Iowa",
        "StateAbbr":"IA",
        "City":"Waverly",
        "County":"Bremer",
        "ZipCode":"50677",
        "Latitude":42.7748,
        "Longitude":-92.404
    },
    {
        "State":"Iowa",
        "StateAbbr":"IA",
        "City":"Aurora",
        "County":"Buchanan",
        "ZipCode":"50607",
        "Latitude":42.6203,
        "Longitude":-91.7335
    },
    {
        "State":"Iowa",
        "StateAbbr":"IA",
        "City":"Fairbank",
        "County":"Buchanan",
        "ZipCode":"50629",
        "Latitude":42.6162,
        "Longitude":-92.0326
    },
    {
        "State":"Iowa",
        "StateAbbr":"IA",
        "City":"Hazleton",
        "County":"Buchanan",
        "ZipCode":"50641",
        "Latitude":42.6076,
        "Longitude":-91.9105
    },
    {
        "State":"Iowa",
        "StateAbbr":"IA",
        "City":"Independence",
        "County":"Buchanan",
        "ZipCode":"50644",
        "Latitude":42.4674,
        "Longitude":-91.8803
    },
    {
        "State":"Iowa",
        "StateAbbr":"IA",
        "City":"Jesup",
        "County":"Buchanan",
        "ZipCode":"50648",
        "Latitude":42.4823,
        "Longitude":-92.0456
    },
    {
        "State":"Iowa",
        "StateAbbr":"IA",
        "City":"Lamont",
        "County":"Buchanan",
        "ZipCode":"50650",
        "Latitude":42.5946,
        "Longitude":-91.6701
    },
    {
        "State":"Iowa",
        "StateAbbr":"IA",
        "City":"Stanley",
        "County":"Buchanan",
        "ZipCode":"50671",
        "Latitude":42.6356,
        "Longitude":-91.8127
    },
    {
        "State":"Iowa",
        "StateAbbr":"IA",
        "City":"Winthrop",
        "County":"Buchanan",
        "ZipCode":"50682",
        "Latitude":42.4912,
        "Longitude":-91.7315
    },
    {
        "State":"Iowa",
        "StateAbbr":"IA",
        "City":"Brandon",
        "County":"Buchanan",
        "ZipCode":"52210",
        "Latitude":42.3309,
        "Longitude":-92.0059
    },
    {
        "State":"Iowa",
        "StateAbbr":"IA",
        "City":"Quasqueton",
        "County":"Buchanan",
        "ZipCode":"52326",
        "Latitude":42.3956,
        "Longitude":-91.7679
    },
    {
        "State":"Iowa",
        "StateAbbr":"IA",
        "City":"Rowley",
        "County":"Buchanan",
        "ZipCode":"52329",
        "Latitude":42.37,
        "Longitude":-91.8441
    },
    {
        "State":"Iowa",
        "StateAbbr":"IA",
        "City":"Albert City",
        "County":"Buena Vista",
        "ZipCode":"50510",
        "Latitude":42.7784,
        "Longitude":-94.9824
    },
    {
        "State":"Iowa",
        "StateAbbr":"IA",
        "City":"Marathon",
        "County":"Buena Vista",
        "ZipCode":"50565",
        "Latitude":42.8612,
        "Longitude":-94.9836
    },
    {
        "State":"Iowa",
        "StateAbbr":"IA",
        "City":"Newell",
        "County":"Buena Vista",
        "ZipCode":"50568",
        "Latitude":42.6157,
        "Longitude":-94.9946
    },
    {
        "State":"Iowa",
        "StateAbbr":"IA",
        "City":"Rembrandt",
        "County":"Buena Vista",
        "ZipCode":"50576",
        "Latitude":42.826,
        "Longitude":-95.1652
    },
    {
        "State":"Iowa",
        "StateAbbr":"IA",
        "City":"Sioux Rapids",
        "County":"Buena Vista",
        "ZipCode":"50585",
        "Latitude":42.9065,
        "Longitude":-95.1388
    },
    {
        "State":"Iowa",
        "StateAbbr":"IA",
        "City":"Storm Lake",
        "County":"Buena Vista",
        "ZipCode":"50588",
        "Latitude":42.6474,
        "Longitude":-95.1961
    },
    {
        "State":"Iowa",
        "StateAbbr":"IA",
        "City":"Truesdale",
        "County":"Buena Vista",
        "ZipCode":"50592",
        "Latitude":42.7262,
        "Longitude":-95.1853
    },
    {
        "State":"Iowa",
        "StateAbbr":"IA",
        "City":"Alta",
        "County":"Buena Vista",
        "ZipCode":"51002",
        "Latitude":42.6771,
        "Longitude":-95.3129
    },
    {
        "State":"Iowa",
        "StateAbbr":"IA",
        "City":"Linn Grove",
        "County":"Buena Vista",
        "ZipCode":"51033",
        "Latitude":42.8742,
        "Longitude":-95.2512
    },
    {
        "State":"Iowa",
        "StateAbbr":"IA",
        "City":"Allison",
        "County":"Butler",
        "ZipCode":"50602",
        "Latitude":42.7615,
        "Longitude":-92.783
    },
    {
        "State":"Iowa",
        "StateAbbr":"IA",
        "City":"Aplington",
        "County":"Butler",
        "ZipCode":"50604",
        "Latitude":42.587,
        "Longitude":-92.8751
    },
    {
        "State":"Iowa",
        "StateAbbr":"IA",
        "City":"Aredale",
        "County":"Butler",
        "ZipCode":"50605",
        "Latitude":42.8318,
        "Longitude":-93.021
    },
    {
        "State":"Iowa",
        "StateAbbr":"IA",
        "City":"Austinville",
        "County":"Butler",
        "ZipCode":"50608",
        "Latitude":42.5824,
        "Longitude":-92.9599
    },
    {
        "State":"Iowa",
        "StateAbbr":"IA",
        "City":"Bristow",
        "County":"Butler",
        "ZipCode":"50611",
        "Latitude":42.7741,
        "Longitude":-92.8864
    },
    {
        "State":"Iowa",
        "StateAbbr":"IA",
        "City":"Clarksville",
        "County":"Butler",
        "ZipCode":"50619",
        "Latitude":42.8041,
        "Longitude":-92.6588
    },
    {
        "State":"Iowa",
        "StateAbbr":"IA",
        "City":"Dumont",
        "County":"Butler",
        "ZipCode":"50625",
        "Latitude":42.7368,
        "Longitude":-92.9673
    },
    {
        "State":"Iowa",
        "StateAbbr":"IA",
        "City":"Greene",
        "County":"Butler",
        "ZipCode":"50636",
        "Latitude":42.8958,
        "Longitude":-92.8024
    },
    {
        "State":"Iowa",
        "StateAbbr":"IA",
        "City":"Kesley",
        "County":"Butler",
        "ZipCode":"50649",
        "Latitude":42.6626,
        "Longitude":-92.9112
    },
    {
        "State":"Iowa",
        "StateAbbr":"IA",
        "City":"New Hartford",
        "County":"Butler",
        "ZipCode":"50660",
        "Latitude":42.5831,
        "Longitude":-92.6164
    },
    {
        "State":"Iowa",
        "StateAbbr":"IA",
        "City":"Parkersburg",
        "County":"Butler",
        "ZipCode":"50665",
        "Latitude":42.5714,
        "Longitude":-92.7688
    },
    {
        "State":"Iowa",
        "StateAbbr":"IA",
        "City":"Shell Rock",
        "County":"Butler",
        "ZipCode":"50670",
        "Latitude":42.7061,
        "Longitude":-92.5888
    },
    {
        "State":"Iowa",
        "StateAbbr":"IA",
        "City":"Farnhamville",
        "County":"Calhoun",
        "ZipCode":"50538",
        "Latitude":42.2692,
        "Longitude":-94.4226
    },
    {
        "State":"Iowa",
        "StateAbbr":"IA",
        "City":"Jolley",
        "County":"Calhoun",
        "ZipCode":"50551",
        "Latitude":42.4871,
        "Longitude":-94.757
    },
    {
        "State":"Iowa",
        "StateAbbr":"IA",
        "City":"Knierim",
        "County":"Calhoun",
        "ZipCode":"50552",
        "Latitude":42.4555,
        "Longitude":-94.4569
    },
    {
        "State":"Iowa",
        "StateAbbr":"IA",
        "City":"Lytton",
        "County":"Calhoun",
        "ZipCode":"50561",
        "Latitude":42.423,
        "Longitude":-94.8597
    },
    {
        "State":"Iowa",
        "StateAbbr":"IA",
        "City":"Manson",
        "County":"Calhoun",
        "ZipCode":"50563",
        "Latitude":42.5285,
        "Longitude":-94.5304
    },
    {
        "State":"Iowa",
        "StateAbbr":"IA",
        "City":"Pomeroy",
        "County":"Calhoun",
        "ZipCode":"50575",
        "Latitude":42.5511,
        "Longitude":-94.6839
    },
    {
        "State":"Iowa",
        "StateAbbr":"IA",
        "City":"Rockwell City",
        "County":"Calhoun",
        "ZipCode":"50579",
        "Latitude":42.3961,
        "Longitude":-94.6292
    },
    {
        "State":"Iowa",
        "StateAbbr":"IA",
        "City":"Somers",
        "County":"Calhoun",
        "ZipCode":"50586",
        "Latitude":42.3561,
        "Longitude":-94.4464
    },
    {
        "State":"Iowa",
        "StateAbbr":"IA",
        "City":"Lake City",
        "County":"Calhoun",
        "ZipCode":"51449",
        "Latitude":42.2705,
        "Longitude":-94.7458
    },
    {
        "State":"Iowa",
        "StateAbbr":"IA",
        "City":"Lohrville",
        "County":"Calhoun",
        "ZipCode":"51453",
        "Latitude":42.2619,
        "Longitude":-94.5566
    },
    {
        "State":"Iowa",
        "StateAbbr":"IA",
        "City":"Coon Rapids",
        "County":"Carroll",
        "ZipCode":"50058",
        "Latitude":41.894,
        "Longitude":-94.68
    },
    {
        "State":"Iowa",
        "StateAbbr":"IA",
        "City":"Carroll",
        "County":"Carroll",
        "ZipCode":"51401",
        "Latitude":42.072,
        "Longitude":-94.8667
    },
    {
        "State":"Iowa",
        "StateAbbr":"IA",
        "City":"Arcadia",
        "County":"Carroll",
        "ZipCode":"51430",
        "Latitude":42.0573,
        "Longitude":-95.0371
    },
    {
        "State":"Iowa",
        "StateAbbr":"IA",
        "City":"Breda",
        "County":"Carroll",
        "ZipCode":"51436",
        "Latitude":42.1758,
        "Longitude":-95.0007
    },
    {
        "State":"Iowa",
        "StateAbbr":"IA",
        "City":"Dedham",
        "County":"Carroll",
        "ZipCode":"51440",
        "Latitude":41.9055,
        "Longitude":-94.8149
    },
    {
        "State":"Iowa",
        "StateAbbr":"IA",
        "City":"Glidden",
        "County":"Carroll",
        "ZipCode":"51443",
        "Latitude":42.0618,
        "Longitude":-94.7148
    },
    {
        "State":"Iowa",
        "StateAbbr":"IA",
        "City":"Halbur",
        "County":"Carroll",
        "ZipCode":"51444",
        "Latitude":42.0048,
        "Longitude":-94.9731
    },
    {
        "State":"Iowa",
        "StateAbbr":"IA",
        "City":"Lanesboro",
        "County":"Carroll",
        "ZipCode":"51451",
        "Latitude":42.1845,
        "Longitude":-94.6917
    },
    {
        "State":"Iowa",
        "StateAbbr":"IA",
        "City":"Lidderdale",
        "County":"Carroll",
        "ZipCode":"51452",
        "Latitude":42.1254,
        "Longitude":-94.7754
    },
    {
        "State":"Iowa",
        "StateAbbr":"IA",
        "City":"Manning",
        "County":"Carroll",
        "ZipCode":"51455",
        "Latitude":41.9072,
        "Longitude":-95.0556
    },
    {
        "State":"Iowa",
        "StateAbbr":"IA",
        "City":"Ralston",
        "County":"Carroll",
        "ZipCode":"51459",
        "Latitude":42.0414,
        "Longitude":-94.6321
    },
    {
        "State":"Iowa",
        "StateAbbr":"IA",
        "City":"Templeton",
        "County":"Carroll",
        "ZipCode":"51463",
        "Latitude":41.9121,
        "Longitude":-94.932
    },
    {
        "State":"Iowa",
        "StateAbbr":"IA",
        "City":"Anita",
        "County":"Cass",
        "ZipCode":"50020",
        "Latitude":41.45,
        "Longitude":-94.7794
    },
    {
        "State":"Iowa",
        "StateAbbr":"IA",
        "City":"Atlantic",
        "County":"Cass",
        "ZipCode":"50022",
        "Latitude":41.4003,
        "Longitude":-95.0101
    },
    {
        "State":"Iowa",
        "StateAbbr":"IA",
        "City":"Wiota",
        "County":"Cass",
        "ZipCode":"50274",
        "Latitude":41.3846,
        "Longitude":-94.8405
    },
    {
        "State":"Iowa",
        "StateAbbr":"IA",
        "City":"Cumberland",
        "County":"Cass",
        "ZipCode":"50843",
        "Latitude":41.2632,
        "Longitude":-94.871
    },
    {
        "State":"Iowa",
        "StateAbbr":"IA",
        "City":"Massena",
        "County":"Cass",
        "ZipCode":"50853",
        "Latitude":41.2499,
        "Longitude":-94.7649
    },
    {
        "State":"Iowa",
        "StateAbbr":"IA",
        "City":"Griswold",
        "County":"Cass",
        "ZipCode":"51535",
        "Latitude":41.235,
        "Longitude":-95.1375
    },
    {
        "State":"Iowa",
        "StateAbbr":"IA",
        "City":"Lewis",
        "County":"Cass",
        "ZipCode":"51544",
        "Latitude":41.2963,
        "Longitude":-95.062
    },
    {
        "State":"Iowa",
        "StateAbbr":"IA",
        "City":"Marne",
        "County":"Cass",
        "ZipCode":"51552",
        "Latitude":41.4547,
        "Longitude":-95.0973
    },
    {
        "State":"Iowa",
        "StateAbbr":"IA",
        "City":"Clarence",
        "County":"Cedar",
        "ZipCode":"52216",
        "Latitude":41.8896,
        "Longitude":-91.0605
    },
    {
        "State":"Iowa",
        "StateAbbr":"IA",
        "City":"Lowden",
        "County":"Cedar",
        "ZipCode":"52255",
        "Latitude":41.8594,
        "Longitude":-90.9382
    },
    {
        "State":"Iowa",
        "StateAbbr":"IA",
        "City":"Mechanicsville",
        "County":"Cedar",
        "ZipCode":"52306",
        "Latitude":41.9039,
        "Longitude":-91.2764
    },
    {
        "State":"Iowa",
        "StateAbbr":"IA",
        "City":"Stanwood",
        "County":"Cedar",
        "ZipCode":"52337",
        "Latitude":41.8963,
        "Longitude":-91.1662
    },
    {
        "State":"Iowa",
        "StateAbbr":"IA",
        "City":"West Branch",
        "County":"Cedar",
        "ZipCode":"52358",
        "Latitude":41.6726,
        "Longitude":-91.3141
    },
    {
        "State":"Iowa",
        "StateAbbr":"IA",
        "City":"Bennett",
        "County":"Cedar",
        "ZipCode":"52721",
        "Latitude":41.7353,
        "Longitude":-90.9656
    },
    {
        "State":"Iowa",
        "StateAbbr":"IA",
        "City":"Durant",
        "County":"Cedar",
        "ZipCode":"52747",
        "Latitude":41.6145,
        "Longitude":-90.91
    },
    {
        "State":"Iowa",
        "StateAbbr":"IA",
        "City":"Tipton",
        "County":"Cedar",
        "ZipCode":"52772",
        "Latitude":41.7563,
        "Longitude":-91.1362
    },
    {
        "State":"Iowa",
        "StateAbbr":"IA",
        "City":"Mason City",
        "County":"Cerro Gordo",
        "ZipCode":"50401",
        "Latitude":43.1499,
        "Longitude":-93.1954
    },
    {
        "State":"Iowa",
        "StateAbbr":"IA",
        "City":"Mason City",
        "County":"Cerro Gordo",
        "ZipCode":"50402",
        "Latitude":43.1536,
        "Longitude":-93.201
    },
    {
        "State":"Iowa",
        "StateAbbr":"IA",
        "City":"Clear Lake",
        "County":"Cerro Gordo",
        "ZipCode":"50428",
        "Latitude":43.1406,
        "Longitude":-93.385
    },
    {
        "State":"Iowa",
        "StateAbbr":"IA",
        "City":"Dougherty",
        "County":"Cerro Gordo",
        "ZipCode":"50433",
        "Latitude":42.9222,
        "Longitude":-93.0421
    },
    {
        "State":"Iowa",
        "StateAbbr":"IA",
        "City":"Meservey",
        "County":"Cerro Gordo",
        "ZipCode":"50457",
        "Latitude":42.9137,
        "Longitude":-93.4773
    },
    {
        "State":"Iowa",
        "StateAbbr":"IA",
        "City":"Plymouth",
        "County":"Cerro Gordo",
        "ZipCode":"50464",
        "Latitude":43.246,
        "Longitude":-93.1226
    },
    {
        "State":"Iowa",
        "StateAbbr":"IA",
        "City":"Rock Falls",
        "County":"Cerro Gordo",
        "ZipCode":"50467",
        "Latitude":43.2066,
        "Longitude":-93.0857
    },
    {
        "State":"Iowa",
        "StateAbbr":"IA",
        "City":"Rockwell",
        "County":"Cerro Gordo",
        "ZipCode":"50469",
        "Latitude":43.0032,
        "Longitude":-93.2167
    },
    {
        "State":"Iowa",
        "StateAbbr":"IA",
        "City":"Swaledale",
        "County":"Cerro Gordo",
        "ZipCode":"50477",
        "Latitude":42.9622,
        "Longitude":-93.3115
    },
    {
        "State":"Iowa",
        "StateAbbr":"IA",
        "City":"Thornton",
        "County":"Cerro Gordo",
        "ZipCode":"50479",
        "Latitude":42.9684,
        "Longitude":-93.4088
    },
    {
        "State":"Iowa",
        "StateAbbr":"IA",
        "City":"Ventura",
        "County":"Cerro Gordo",
        "ZipCode":"50482",
        "Latitude":43.1262,
        "Longitude":-93.4706
    },
    {
        "State":"Iowa",
        "StateAbbr":"IA",
        "City":"Aurelia",
        "County":"Cherokee",
        "ZipCode":"51005",
        "Latitude":42.6912,
        "Longitude":-95.4381
    },
    {
        "State":"Iowa",
        "StateAbbr":"IA",
        "City":"Cherokee",
        "County":"Cherokee",
        "ZipCode":"51012",
        "Latitude":42.7482,
        "Longitude":-95.5568
    },
    {
        "State":"Iowa",
        "StateAbbr":"IA",
        "City":"Cleghorn",
        "County":"Cherokee",
        "ZipCode":"51014",
        "Latitude":42.8086,
        "Longitude":-95.7124
    },
    {
        "State":"Iowa",
        "StateAbbr":"IA",
        "City":"Larrabee",
        "County":"Cherokee",
        "ZipCode":"51029",
        "Latitude":42.8608,
        "Longitude":-95.5453
    },
    {
        "State":"Iowa",
        "StateAbbr":"IA",
        "City":"Marcus",
        "County":"Cherokee",
        "ZipCode":"51035",
        "Latitude":42.82,
        "Longitude":-95.8034
    },
    {
        "State":"Iowa",
        "StateAbbr":"IA",
        "City":"Meriden",
        "County":"Cherokee",
        "ZipCode":"51037",
        "Latitude":42.7874,
        "Longitude":-95.6408
    },
    {
        "State":"Iowa",
        "StateAbbr":"IA",
        "City":"Quimby",
        "County":"Cherokee",
        "ZipCode":"51049",
        "Latitude":42.6303,
        "Longitude":-95.642
    },
    {
        "State":"Iowa",
        "StateAbbr":"IA",
        "City":"Washta",
        "County":"Cherokee",
        "ZipCode":"51061",
        "Latitude":42.5781,
        "Longitude":-95.7295
    },
    {
        "State":"Iowa",
        "StateAbbr":"IA",
        "City":"Alta Vista",
        "County":"Chickasaw",
        "ZipCode":"50603",
        "Latitude":43.1482,
        "Longitude":-92.4237
    },
    {
        "State":"Iowa",
        "StateAbbr":"IA",
        "City":"Fredericksburg",
        "County":"Chickasaw",
        "ZipCode":"50630",
        "Latitude":42.9593,
        "Longitude":-92.1983
    },
    {
        "State":"Iowa",
        "StateAbbr":"IA",
        "City":"Ionia",
        "County":"Chickasaw",
        "ZipCode":"50645",
        "Latitude":43.0403,
        "Longitude":-92.4865
    },
    {
        "State":"Iowa",
        "StateAbbr":"IA",
        "City":"Nashua",
        "County":"Chickasaw",
        "ZipCode":"50658",
        "Latitude":42.9528,
        "Longitude":-92.5298
    },
    {
        "State":"Iowa",
        "StateAbbr":"IA",
        "City":"New Hampton",
        "County":"Chickasaw",
        "ZipCode":"50659",
        "Latitude":43.056,
        "Longitude":-92.3131
    },
    {
        "State":"Iowa",
        "StateAbbr":"IA",
        "City":"North Washington",
        "County":"Chickasaw",
        "ZipCode":"50661",
        "Latitude":43.1174,
        "Longitude":-92.4144
    },
    {
        "State":"Iowa",
        "StateAbbr":"IA",
        "City":"Lawler",
        "County":"Chickasaw",
        "ZipCode":"52154",
        "Latitude":43.0932,
        "Longitude":-92.144
    },
    {
        "State":"Iowa",
        "StateAbbr":"IA",
        "City":"Murray",
        "County":"Clarke",
        "ZipCode":"50174",
        "Latitude":41.0376,
        "Longitude":-93.953
    },
    {
        "State":"Iowa",
        "StateAbbr":"IA",
        "City":"Osceola",
        "County":"Clarke",
        "ZipCode":"50213",
        "Latitude":41.0295,
        "Longitude":-93.7712
    },
    {
        "State":"Iowa",
        "StateAbbr":"IA",
        "City":"Woodburn",
        "County":"Clarke",
        "ZipCode":"50275",
        "Latitude":41.0,
        "Longitude":-93.6083
    },
    {
        "State":"Iowa",
        "StateAbbr":"IA",
        "City":"Peterson",
        "County":"Clay",
        "ZipCode":"51047",
        "Latitude":42.9328,
        "Longitude":-95.3377
    },
    {
        "State":"Iowa",
        "StateAbbr":"IA",
        "City":"Spencer",
        "County":"Clay",
        "ZipCode":"51301",
        "Latitude":43.1451,
        "Longitude":-95.1457
    },
    {
        "State":"Iowa",
        "StateAbbr":"IA",
        "City":"Dickens",
        "County":"Clay",
        "ZipCode":"51333",
        "Latitude":43.1548,
        "Longitude":-94.9854
    },
    {
        "State":"Iowa",
        "StateAbbr":"IA",
        "City":"Everly",
        "County":"Clay",
        "ZipCode":"51338",
        "Latitude":43.1609,
        "Longitude":-95.3228
    },
    {
        "State":"Iowa",
        "StateAbbr":"IA",
        "City":"Fostoria",
        "County":"Clay",
        "ZipCode":"51340",
        "Latitude":43.0824,
        "Longitude":-95.1511
    },
    {
        "State":"Iowa",
        "StateAbbr":"IA",
        "City":"Gillett Grove",
        "County":"Clay",
        "ZipCode":"51341",
        "Latitude":43.0157,
        "Longitude":-95.0431
    },
    {
        "State":"Iowa",
        "StateAbbr":"IA",
        "City":"Greenville",
        "County":"Clay",
        "ZipCode":"51343",
        "Latitude":43.0333,
        "Longitude":-95.0582
    },
    {
        "State":"Iowa",
        "StateAbbr":"IA",
        "City":"Royal",
        "County":"Clay",
        "ZipCode":"51357",
        "Latitude":43.0488,
        "Longitude":-95.2679
    },
    {
        "State":"Iowa",
        "StateAbbr":"IA",
        "City":"Webb",
        "County":"Clay",
        "ZipCode":"51366",
        "Latitude":42.9502,
        "Longitude":-94.9951
    },
    {
        "State":"Iowa",
        "StateAbbr":"IA",
        "City":"Edgewood",
        "County":"Clayton",
        "ZipCode":"52042",
        "Latitude":42.6541,
        "Longitude":-91.395
    },
    {
        "State":"Iowa",
        "StateAbbr":"IA",
        "City":"Elkader",
        "County":"Clayton",
        "ZipCode":"52043",
        "Latitude":42.8496,
        "Longitude":-91.4143
    },
    {
        "State":"Iowa",
        "StateAbbr":"IA",
        "City":"Elkport",
        "County":"Clayton",
        "ZipCode":"52044",
        "Latitude":42.7624,
        "Longitude":-91.3203
    },
    {
        "State":"Iowa",
        "StateAbbr":"IA",
        "City":"Farmersburg",
        "County":"Clayton",
        "ZipCode":"52047",
        "Latitude":42.9522,
        "Longitude":-91.339
    },
    {
        "State":"Iowa",
        "StateAbbr":"IA",
        "City":"Garber",
        "County":"Clayton",
        "ZipCode":"52048",
        "Latitude":42.7453,
        "Longitude":-91.2593
    },
    {
        "State":"Iowa",
        "StateAbbr":"IA",
        "City":"Garnavillo",
        "County":"Clayton",
        "ZipCode":"52049",
        "Latitude":42.8762,
        "Longitude":-91.2156
    },
    {
        "State":"Iowa",
        "StateAbbr":"IA",
        "City":"Guttenberg",
        "County":"Clayton",
        "ZipCode":"52052",
        "Latitude":42.7594,
        "Longitude":-91.119
    },
    {
        "State":"Iowa",
        "StateAbbr":"IA",
        "City":"North Buena Vista",
        "County":"Clayton",
        "ZipCode":"52066",
        "Latitude":42.6783,
        "Longitude":-90.9518
    },
    {
        "State":"Iowa",
        "StateAbbr":"IA",
        "City":"Saint Olaf",
        "County":"Clayton",
        "ZipCode":"52072",
        "Latitude":42.922,
        "Longitude":-91.3778
    },
    {
        "State":"Iowa",
        "StateAbbr":"IA",
        "City":"Strawberry Point",
        "County":"Clayton",
        "ZipCode":"52076",
        "Latitude":42.6832,
        "Longitude":-91.5409
    },
    {
        "State":"Iowa",
        "StateAbbr":"IA",
        "City":"Volga",
        "County":"Clayton",
        "ZipCode":"52077",
        "Latitude":42.7904,
        "Longitude":-91.5429
    },
    {
        "State":"Iowa",
        "StateAbbr":"IA",
        "City":"Luana",
        "County":"Clayton",
        "ZipCode":"52156",
        "Latitude":43.0493,
        "Longitude":-91.4583
    },
    {
        "State":"Iowa",
        "StateAbbr":"IA",
        "City":"Mc Gregor",
        "County":"Clayton",
        "ZipCode":"52157",
        "Latitude":43.0237,
        "Longitude":-91.1887
    },
    {
        "State":"Iowa",
        "StateAbbr":"IA",
        "City":"Marquette",
        "County":"Clayton",
        "ZipCode":"52158",
        "Latitude":43.036,
        "Longitude":-91.1931
    },
    {
        "State":"Iowa",
        "StateAbbr":"IA",
        "City":"Monona",
        "County":"Clayton",
        "ZipCode":"52159",
        "Latitude":43.034,
        "Longitude":-91.3934
    },
    {
        "State":"Iowa",
        "StateAbbr":"IA",
        "City":"Delmar",
        "County":"Clinton",
        "ZipCode":"52037",
        "Latitude":41.9961,
        "Longitude":-90.6087
    },
    {
        "State":"Iowa",
        "StateAbbr":"IA",
        "City":"Lost Nation",
        "County":"Clinton",
        "ZipCode":"52254",
        "Latitude":41.9745,
        "Longitude":-90.8265
    },
    {
        "State":"Iowa",
        "StateAbbr":"IA",
        "City":"Andover",
        "County":"Clinton",
        "ZipCode":"52701",
        "Latitude":41.9792,
        "Longitude":-90.2518
    },
    {
        "State":"Iowa",
        "StateAbbr":"IA",
        "City":"Bryant",
        "County":"Clinton",
        "ZipCode":"52727",
        "Latitude":41.9629,
        "Longitude":-90.3388
    },
    {
        "State":"Iowa",
        "StateAbbr":"IA",
        "City":"Calamus",
        "County":"Clinton",
        "ZipCode":"52729",
        "Latitude":41.8111,
        "Longitude":-90.7416
    },
    {
        "State":"Iowa",
        "StateAbbr":"IA",
        "City":"Camanche",
        "County":"Clinton",
        "ZipCode":"52730",
        "Latitude":41.7886,
        "Longitude":-90.2709
    },
    {
        "State":"Iowa",
        "StateAbbr":"IA",
        "City":"Charlotte",
        "County":"Clinton",
        "ZipCode":"52731",
        "Latitude":41.9779,
        "Longitude":-90.4782
    },
    {
        "State":"Iowa",
        "StateAbbr":"IA",
        "City":"Clinton",
        "County":"Clinton",
        "ZipCode":"52732",
        "Latitude":41.8517,
        "Longitude":-90.2078
    },
    {
        "State":"Iowa",
        "StateAbbr":"IA",
        "City":"Clinton",
        "County":"Clinton",
        "ZipCode":"52733",
        "Latitude":41.8445,
        "Longitude":-90.1887
    },
    {
        "State":"Iowa",
        "StateAbbr":"IA",
        "City":"Clinton",
        "County":"Clinton",
        "ZipCode":"52734",
        "Latitude":41.8444,
        "Longitude":-90.1885
    },
    {
        "State":"Iowa",
        "StateAbbr":"IA",
        "City":"Clinton",
        "County":"Clinton",
        "ZipCode":"52736",
        "Latitude":41.8445,
        "Longitude":-90.1887
    },
    {
        "State":"Iowa",
        "StateAbbr":"IA",
        "City":"De Witt",
        "County":"Clinton",
        "ZipCode":"52742",
        "Latitude":41.8267,
        "Longitude":-90.5237
    },
    {
        "State":"Iowa",
        "StateAbbr":"IA",
        "City":"Goose Lake",
        "County":"Clinton",
        "ZipCode":"52750",
        "Latitude":41.9799,
        "Longitude":-90.3819
    },
    {
        "State":"Iowa",
        "StateAbbr":"IA",
        "City":"Grand Mound",
        "County":"Clinton",
        "ZipCode":"52751",
        "Latitude":41.8501,
        "Longitude":-90.6695
    },
    {
        "State":"Iowa",
        "StateAbbr":"IA",
        "City":"Low Moor",
        "County":"Clinton",
        "ZipCode":"52757",
        "Latitude":41.8017,
        "Longitude":-90.3549
    },
    {
        "State":"Iowa",
        "StateAbbr":"IA",
        "City":"Teeds Grove",
        "County":"Clinton",
        "ZipCode":"52771",
        "Latitude":41.9991,
        "Longitude":-90.2187
    },
    {
        "State":"Iowa",
        "StateAbbr":"IA",
        "City":"Welton",
        "County":"Clinton",
        "ZipCode":"52774",
        "Latitude":41.9081,
        "Longitude":-90.5954
    },
    {
        "State":"Iowa",
        "StateAbbr":"IA",
        "City":"Wheatland",
        "County":"Clinton",
        "ZipCode":"52777",
        "Latitude":41.8259,
        "Longitude":-90.8402
    },
    {
        "State":"Iowa",
        "StateAbbr":"IA",
        "City":"Aspinwall",
        "County":"Crawford",
        "ZipCode":"51432",
        "Latitude":41.9119,
        "Longitude":-95.1356
    },
    {
        "State":"Iowa",
        "StateAbbr":"IA",
        "City":"Charter Oak",
        "County":"Crawford",
        "ZipCode":"51439",
        "Latitude":42.0707,
        "Longitude":-95.5992
    },
    {
        "State":"Iowa",
        "StateAbbr":"IA",
        "City":"Deloit",
        "County":"Crawford",
        "ZipCode":"51441",
        "Latitude":42.1238,
        "Longitude":-95.3045
    },
    {
        "State":"Iowa",
        "StateAbbr":"IA",
        "City":"Denison",
        "County":"Crawford",
        "ZipCode":"51442",
        "Latitude":42.0196,
        "Longitude":-95.3636
    },
    {
        "State":"Iowa",
        "StateAbbr":"IA",
        "City":"Kiron",
        "County":"Crawford",
        "ZipCode":"51448",
        "Latitude":42.1794,
        "Longitude":-95.3115
    },
    {
        "State":"Iowa",
        "StateAbbr":"IA",
        "City":"Manilla",
        "County":"Crawford",
        "ZipCode":"51454",
        "Latitude":41.8922,
        "Longitude":-95.2391
    },
    {
        "State":"Iowa",
        "StateAbbr":"IA",
        "City":"Ricketts",
        "County":"Crawford",
        "ZipCode":"51460",
        "Latitude":42.1304,
        "Longitude":-95.5746
    },
    {
        "State":"Iowa",
        "StateAbbr":"IA",
        "City":"Schleswig",
        "County":"Crawford",
        "ZipCode":"51461",
        "Latitude":42.1646,
        "Longitude":-95.4443
    },
    {
        "State":"Iowa",
        "StateAbbr":"IA",
        "City":"Vail",
        "County":"Crawford",
        "ZipCode":"51465",
        "Latitude":42.0338,
        "Longitude":-95.1778
    },
    {
        "State":"Iowa",
        "StateAbbr":"IA",
        "City":"Westside",
        "County":"Crawford",
        "ZipCode":"51467",
        "Latitude":42.1084,
        "Longitude":-95.1273
    },
    {
        "State":"Iowa",
        "StateAbbr":"IA",
        "City":"Arion",
        "County":"Crawford",
        "ZipCode":"51520",
        "Latitude":41.9504,
        "Longitude":-95.4623
    },
    {
        "State":"Iowa",
        "StateAbbr":"IA",
        "City":"Dow City",
        "County":"Crawford",
        "ZipCode":"51528",
        "Latitude":41.9134,
        "Longitude":-95.4862
    },
    {
        "State":"Iowa",
        "StateAbbr":"IA",
        "City":"Adel",
        "County":"Dallas",
        "ZipCode":"50003",
        "Latitude":41.6221,
        "Longitude":-94.038
    },
    {
        "State":"Iowa",
        "StateAbbr":"IA",
        "City":"Booneville",
        "County":"Dallas",
        "ZipCode":"50038",
        "Latitude":41.5242,
        "Longitude":-93.8838
    },
    {
        "State":"Iowa",
        "StateAbbr":"IA",
        "City":"Bouton",
        "County":"Dallas",
        "ZipCode":"50039",
        "Latitude":41.8284,
        "Longitude":-93.9963
    },
    {
        "State":"Iowa",
        "StateAbbr":"IA",
        "City":"Dallas Center",
        "County":"Dallas",
        "ZipCode":"50063",
        "Latitude":41.6862,
        "Longitude":-93.9707
    },
    {
        "State":"Iowa",
        "StateAbbr":"IA",
        "City":"Dawson",
        "County":"Dallas",
        "ZipCode":"50066",
        "Latitude":41.8324,
        "Longitude":-94.2171
    },
    {
        "State":"Iowa",
        "StateAbbr":"IA",
        "City":"De Soto",
        "County":"Dallas",
        "ZipCode":"50069",
        "Latitude":41.5208,
        "Longitude":-94.0303
    },
    {
        "State":"Iowa",
        "StateAbbr":"IA",
        "City":"Dexter",
        "County":"Dallas",
        "ZipCode":"50070",
        "Latitude":41.5198,
        "Longitude":-94.2145
    },
    {
        "State":"Iowa",
        "StateAbbr":"IA",
        "City":"Granger",
        "County":"Dallas",
        "ZipCode":"50109",
        "Latitude":41.7611,
        "Longitude":-93.8244
    },
    {
        "State":"Iowa",
        "StateAbbr":"IA",
        "City":"Linden",
        "County":"Dallas",
        "ZipCode":"50146",
        "Latitude":41.6422,
        "Longitude":-94.2406
    },
    {
        "State":"Iowa",
        "StateAbbr":"IA",
        "City":"Minburn",
        "County":"Dallas",
        "ZipCode":"50167",
        "Latitude":41.7562,
        "Longitude":-94.015
    },
    {
        "State":"Iowa",
        "StateAbbr":"IA",
        "City":"Perry",
        "County":"Dallas",
        "ZipCode":"50220",
        "Latitude":41.8397,
        "Longitude":-94.1022
    },
    {
        "State":"Iowa",
        "StateAbbr":"IA",
        "City":"Redfield",
        "County":"Dallas",
        "ZipCode":"50233",
        "Latitude":41.5873,
        "Longitude":-94.1897
    },
    {
        "State":"Iowa",
        "StateAbbr":"IA",
        "City":"Van Meter",
        "County":"Dallas",
        "ZipCode":"50261",
        "Latitude":41.4699,
        "Longitude":-93.9207
    },
    {
        "State":"Iowa",
        "StateAbbr":"IA",
        "City":"Waukee",
        "County":"Dallas",
        "ZipCode":"50263",
        "Latitude":41.593,
        "Longitude":-93.8592
    },
    {
        "State":"Iowa",
        "StateAbbr":"IA",
        "City":"Woodward",
        "County":"Dallas",
        "ZipCode":"50276",
        "Latitude":41.8452,
        "Longitude":-93.9056
    },
    {
        "State":"Iowa",
        "StateAbbr":"IA",
        "City":"Bloomfield",
        "County":"Davis",
        "ZipCode":"52537",
        "Latitude":40.7324,
        "Longitude":-92.3987
    },
    {
        "State":"Iowa",
        "StateAbbr":"IA",
        "City":"Drakesville",
        "County":"Davis",
        "ZipCode":"52552",
        "Latitude":40.8253,
        "Longitude":-92.5051
    },
    {
        "State":"Iowa",
        "StateAbbr":"IA",
        "City":"Floris",
        "County":"Davis",
        "ZipCode":"52560",
        "Latitude":40.8591,
        "Longitude":-92.3247
    },
    {
        "State":"Iowa",
        "StateAbbr":"IA",
        "City":"Pulaski",
        "County":"Davis",
        "ZipCode":"52584",
        "Latitude":40.6941,
        "Longitude":-92.258
    },
    {
        "State":"Iowa",
        "StateAbbr":"IA",
        "City":"Davis City",
        "County":"Decatur",
        "ZipCode":"50065",
        "Latitude":40.6346,
        "Longitude":-93.8105
    },
    {
        "State":"Iowa",
        "StateAbbr":"IA",
        "City":"Decatur",
        "County":"Decatur",
        "ZipCode":"50067",
        "Latitude":40.743,
        "Longitude":-93.8317
    },
    {
        "State":"Iowa",
        "StateAbbr":"IA",
        "City":"Garden Grove",
        "County":"Decatur",
        "ZipCode":"50103",
        "Latitude":40.7711,
        "Longitude":-93.6117
    },
    {
        "State":"Iowa",
        "StateAbbr":"IA",
        "City":"Grand River",
        "County":"Decatur",
        "ZipCode":"50108",
        "Latitude":40.8137,
        "Longitude":-93.9544
    },
    {
        "State":"Iowa",
        "StateAbbr":"IA",
        "City":"Lamoni",
        "County":"Decatur",
        "ZipCode":"50140",
        "Latitude":40.6229,
        "Longitude":-93.9349
    },
    {
        "State":"Iowa",
        "StateAbbr":"IA",
        "City":"Leon",
        "County":"Decatur",
        "ZipCode":"50144",
        "Latitude":40.7373,
        "Longitude":-93.7429
    },
    {
        "State":"Iowa",
        "StateAbbr":"IA",
        "City":"Van Wert",
        "County":"Decatur",
        "ZipCode":"50262",
        "Latitude":40.8645,
        "Longitude":-93.8073
    },
    {
        "State":"Iowa",
        "StateAbbr":"IA",
        "City":"Weldon",
        "County":"Decatur",
        "ZipCode":"50264",
        "Latitude":40.8739,
        "Longitude":-93.7387
    },
    {
        "State":"Iowa",
        "StateAbbr":"IA",
        "City":"Masonville",
        "County":"Delaware",
        "ZipCode":"50654",
        "Latitude":42.4794,
        "Longitude":-91.5913
    },
    {
        "State":"Iowa",
        "StateAbbr":"IA",
        "City":"Colesburg",
        "County":"Delaware",
        "ZipCode":"52035",
        "Latitude":42.6383,
        "Longitude":-91.1963
    },
    {
        "State":"Iowa",
        "StateAbbr":"IA",
        "City":"Delaware",
        "County":"Delaware",
        "ZipCode":"52036",
        "Latitude":42.4766,
        "Longitude":-91.3112
    },
    {
        "State":"Iowa",
        "StateAbbr":"IA",
        "City":"Dundee",
        "County":"Delaware",
        "ZipCode":"52038",
        "Latitude":42.594,
        "Longitude":-91.5477
    },
    {
        "State":"Iowa",
        "StateAbbr":"IA",
        "City":"Earlville",
        "County":"Delaware",
        "ZipCode":"52041",
        "Latitude":42.5001,
        "Longitude":-91.2597
    },
    {
        "State":"Iowa",
        "StateAbbr":"IA",
        "City":"Greeley",
        "County":"Delaware",
        "ZipCode":"52050",
        "Latitude":42.5939,
        "Longitude":-91.3233
    },
    {
        "State":"Iowa",
        "StateAbbr":"IA",
        "City":"Manchester",
        "County":"Delaware",
        "ZipCode":"52057",
        "Latitude":42.4834,
        "Longitude":-91.449
    },
    {
        "State":"Iowa",
        "StateAbbr":"IA",
        "City":"Delhi",
        "County":"Delaware",
        "ZipCode":"52223",
        "Latitude":42.4297,
        "Longitude":-91.331
    },
    {
        "State":"Iowa",
        "StateAbbr":"IA",
        "City":"Hopkinton",
        "County":"Delaware",
        "ZipCode":"52237",
        "Latitude":42.3422,
        "Longitude":-91.2461
    },
    {
        "State":"Iowa",
        "StateAbbr":"IA",
        "City":"Ryan",
        "County":"Delaware",
        "ZipCode":"52330",
        "Latitude":42.3436,
        "Longitude":-91.4848
    },
    {
        "State":"Iowa",
        "StateAbbr":"IA",
        "City":"Burlington",
        "County":"Des Moines",
        "ZipCode":"52601",
        "Latitude":40.8087,
        "Longitude":-91.117
    },
    {
        "State":"Iowa",
        "StateAbbr":"IA",
        "City":"Danville",
        "County":"Des Moines",
        "ZipCode":"52623",
        "Latitude":40.854,
        "Longitude":-91.314
    },
    {
        "State":"Iowa",
        "StateAbbr":"IA",
        "City":"Mediapolis",
        "County":"Des Moines",
        "ZipCode":"52637",
        "Latitude":41.0059,
        "Longitude":-91.1321
    },
    {
        "State":"Iowa",
        "StateAbbr":"IA",
        "City":"Middletown",
        "County":"Des Moines",
        "ZipCode":"52638",
        "Latitude":40.8296,
        "Longitude":-91.2631
    },
    {
        "State":"Iowa",
        "StateAbbr":"IA",
        "City":"Sperry",
        "County":"Des Moines",
        "ZipCode":"52650",
        "Latitude":40.9419,
        "Longitude":-91.185
    },
    {
        "State":"Iowa",
        "StateAbbr":"IA",
        "City":"West Burlington",
        "County":"Des Moines",
        "ZipCode":"52655",
        "Latitude":40.8321,
        "Longitude":-91.1799
    },
    {
        "State":"Iowa",
        "StateAbbr":"IA",
        "City":"Yarmouth",
        "County":"Des Moines",
        "ZipCode":"52660",
        "Latitude":40.9835,
        "Longitude":-91.3026
    },
    {
        "State":"Iowa",
        "StateAbbr":"IA",
        "City":"Arnolds Park",
        "County":"Dickinson",
        "ZipCode":"51331",
        "Latitude":43.3637,
        "Longitude":-95.1282
    },
    {
        "State":"Iowa",
        "StateAbbr":"IA",
        "City":"Lake Park",
        "County":"Dickinson",
        "ZipCode":"51347",
        "Latitude":43.4452,
        "Longitude":-95.3216
    },
    {
        "State":"Iowa",
        "StateAbbr":"IA",
        "City":"Milford",
        "County":"Dickinson",
        "ZipCode":"51351",
        "Latitude":43.3196,
        "Longitude":-95.1615
    },
    {
        "State":"Iowa",
        "StateAbbr":"IA",
        "City":"Okoboji",
        "County":"Dickinson",
        "ZipCode":"51355",
        "Latitude":43.3889,
        "Longitude":-95.1369
    },
    {
        "State":"Iowa",
        "StateAbbr":"IA",
        "City":"Spirit Lake",
        "County":"Dickinson",
        "ZipCode":"51360",
        "Latitude":43.4262,
        "Longitude":-95.1123
    },
    {
        "State":"Iowa",
        "StateAbbr":"IA",
        "City":"Superior",
        "County":"Dickinson",
        "ZipCode":"51363",
        "Latitude":43.4318,
        "Longitude":-94.9469
    },
    {
        "State":"Iowa",
        "StateAbbr":"IA",
        "City":"Terril",
        "County":"Dickinson",
        "ZipCode":"51364",
        "Latitude":43.3241,
        "Longitude":-94.9737
    },
    {
        "State":"Iowa",
        "StateAbbr":"IA",
        "City":"Dubuque",
        "County":"Dubuque",
        "ZipCode":"52001",
        "Latitude":42.515,
        "Longitude":-90.6819
    },
    {
        "State":"Iowa",
        "StateAbbr":"IA",
        "City":"Dubuque",
        "County":"Dubuque",
        "ZipCode":"52002",
        "Latitude":42.5122,
        "Longitude":-90.7384
    },
    {
        "State":"Iowa",
        "StateAbbr":"IA",
        "City":"Dubuque",
        "County":"Dubuque",
        "ZipCode":"52003",
        "Latitude":42.4649,
        "Longitude":-90.6829
    },
    {
        "State":"Iowa",
        "StateAbbr":"IA",
        "City":"Dubuque",
        "County":"Dubuque",
        "ZipCode":"52004",
        "Latitude":42.5006,
        "Longitude":-90.6646
    },
    {
        "State":"Iowa",
        "StateAbbr":"IA",
        "City":"Bernard",
        "County":"Dubuque",
        "ZipCode":"52032",
        "Latitude":42.3321,
        "Longitude":-90.863
    },
    {
        "State":"Iowa",
        "StateAbbr":"IA",
        "City":"Cascade",
        "County":"Dubuque",
        "ZipCode":"52033",
        "Latitude":42.287,
        "Longitude":-91.0144
    },
    {
        "State":"Iowa",
        "StateAbbr":"IA",
        "City":"Durango",
        "County":"Dubuque",
        "ZipCode":"52039",
        "Latitude":42.5526,
        "Longitude":-90.8608
    },
    {
        "State":"Iowa",
        "StateAbbr":"IA",
        "City":"Dyersville",
        "County":"Dubuque",
        "ZipCode":"52040",
        "Latitude":42.4833,
        "Longitude":-91.1183
    },
    {
        "State":"Iowa",
        "StateAbbr":"IA",
        "City":"Epworth",
        "County":"Dubuque",
        "ZipCode":"52045",
        "Latitude":42.4439,
        "Longitude":-90.9313
    },
    {
        "State":"Iowa",
        "StateAbbr":"IA",
        "City":"Farley",
        "County":"Dubuque",
        "ZipCode":"52046",
        "Latitude":42.4451,
        "Longitude":-91.0083
    },
    {
        "State":"Iowa",
        "StateAbbr":"IA",
        "City":"Holy Cross",
        "County":"Dubuque",
        "ZipCode":"52053",
        "Latitude":42.5808,
        "Longitude":-90.973
    },
    {
        "State":"Iowa",
        "StateAbbr":"IA",
        "City":"Luxemburg",
        "County":"Dubuque",
        "ZipCode":"52056",
        "Latitude":42.5783,
        "Longitude":-91.0621
    },
    {
        "State":"Iowa",
        "StateAbbr":"IA",
        "City":"New Vienna",
        "County":"Dubuque",
        "ZipCode":"52065",
        "Latitude":42.5678,
        "Longitude":-91.0976
    },
    {
        "State":"Iowa",
        "StateAbbr":"IA",
        "City":"Peosta",
        "County":"Dubuque",
        "ZipCode":"52068",
        "Latitude":42.4435,
        "Longitude":-90.8094
    },
    {
        "State":"Iowa",
        "StateAbbr":"IA",
        "City":"Sherrill",
        "County":"Dubuque",
        "ZipCode":"52073",
        "Latitude":42.6171,
        "Longitude":-90.8115
    },
    {
        "State":"Iowa",
        "StateAbbr":"IA",
        "City":"Worthington",
        "County":"Dubuque",
        "ZipCode":"52078",
        "Latitude":42.393,
        "Longitude":-91.1069
    },
    {
        "State":"Iowa",
        "StateAbbr":"IA",
        "City":"Zwingle",
        "County":"Dubuque",
        "ZipCode":"52079",
        "Latitude":42.2775,
        "Longitude":-90.7507
    },
    {
        "State":"Iowa",
        "StateAbbr":"IA",
        "City":"Dubuque",
        "County":"Dubuque",
        "ZipCode":"52099",
        "Latitude":42.5006,
        "Longitude":-90.6646
    },
    {
        "State":"Iowa",
        "StateAbbr":"IA",
        "City":"Armstrong",
        "County":"Emmet",
        "ZipCode":"50514",
        "Latitude":43.4024,
        "Longitude":-94.4853
    },
    {
        "State":"Iowa",
        "StateAbbr":"IA",
        "City":"Dolliver",
        "County":"Emmet",
        "ZipCode":"50531",
        "Latitude":43.4664,
        "Longitude":-94.6242
    },
    {
        "State":"Iowa",
        "StateAbbr":"IA",
        "City":"Ringsted",
        "County":"Emmet",
        "ZipCode":"50578",
        "Latitude":43.2977,
        "Longitude":-94.5291
    },
    {
        "State":"Iowa",
        "StateAbbr":"IA",
        "City":"Estherville",
        "County":"Emmet",
        "ZipCode":"51334",
        "Latitude":43.4017,
        "Longitude":-94.818
    },
    {
        "State":"Iowa",
        "StateAbbr":"IA",
        "City":"Wallingford",
        "County":"Emmet",
        "ZipCode":"51365",
        "Latitude":43.3189,
        "Longitude":-94.7964
    },
    {
        "State":"Iowa",
        "StateAbbr":"IA",
        "City":"Arlington",
        "County":"Fayette",
        "ZipCode":"50606",
        "Latitude":42.7338,
        "Longitude":-91.6668
    },
    {
        "State":"Iowa",
        "StateAbbr":"IA",
        "City":"Maynard",
        "County":"Fayette",
        "ZipCode":"50655",
        "Latitude":42.7752,
        "Longitude":-91.8908
    },
    {
        "State":"Iowa",
        "StateAbbr":"IA",
        "City":"Oelwein",
        "County":"Fayette",
        "ZipCode":"50662",
        "Latitude":42.6811,
        "Longitude":-91.9131
    },
    {
        "State":"Iowa",
        "StateAbbr":"IA",
        "City":"Oran",
        "County":"Fayette",
        "ZipCode":"50664",
        "Latitude":42.7012,
        "Longitude":-92.0762
    },
    {
        "State":"Iowa",
        "StateAbbr":"IA",
        "City":"Westgate",
        "County":"Fayette",
        "ZipCode":"50681",
        "Latitude":42.7812,
        "Longitude":-92.0122
    },
    {
        "State":"Iowa",
        "StateAbbr":"IA",
        "City":"Clermont",
        "County":"Fayette",
        "ZipCode":"52135",
        "Latitude":43.013,
        "Longitude":-91.6552
    },
    {
        "State":"Iowa",
        "StateAbbr":"IA",
        "City":"Elgin",
        "County":"Fayette",
        "ZipCode":"52141",
        "Latitude":42.9548,
        "Longitude":-91.6454
    },
    {
        "State":"Iowa",
        "StateAbbr":"IA",
        "City":"Fayette",
        "County":"Fayette",
        "ZipCode":"52142",
        "Latitude":42.8494,
        "Longitude":-91.8139
    },
    {
        "State":"Iowa",
        "StateAbbr":"IA",
        "City":"Hawkeye",
        "County":"Fayette",
        "ZipCode":"52147",
        "Latitude":42.9487,
        "Longitude":-91.9578
    },
    {
        "State":"Iowa",
        "StateAbbr":"IA",
        "City":"Randalia",
        "County":"Fayette",
        "ZipCode":"52164",
        "Latitude":42.8626,
        "Longitude":-91.8846
    },
    {
        "State":"Iowa",
        "StateAbbr":"IA",
        "City":"Saint Lucas",
        "County":"Fayette",
        "ZipCode":"52166",
        "Latitude":43.0664,
        "Longitude":-91.9335
    },
    {
        "State":"Iowa",
        "StateAbbr":"IA",
        "City":"Wadena",
        "County":"Fayette",
        "ZipCode":"52169",
        "Latitude":42.855,
        "Longitude":-91.6639
    },
    {
        "State":"Iowa",
        "StateAbbr":"IA",
        "City":"Waucoma",
        "County":"Fayette",
        "ZipCode":"52171",
        "Latitude":43.0433,
        "Longitude":-92.0302
    },
    {
        "State":"Iowa",
        "StateAbbr":"IA",
        "City":"West Union",
        "County":"Fayette",
        "ZipCode":"52175",
        "Latitude":42.9438,
        "Longitude":-91.8334
    },
    {
        "State":"Iowa",
        "StateAbbr":"IA",
        "City":"Floyd",
        "County":"Floyd",
        "ZipCode":"50435",
        "Latitude":43.143,
        "Longitude":-92.724
    },
    {
        "State":"Iowa",
        "StateAbbr":"IA",
        "City":"Nora Springs",
        "County":"Floyd",
        "ZipCode":"50458",
        "Latitude":43.1479,
        "Longitude":-93.0002
    },
    {
        "State":"Iowa",
        "StateAbbr":"IA",
        "City":"Rockford",
        "County":"Floyd",
        "ZipCode":"50468",
        "Latitude":43.0573,
        "Longitude":-92.952
    },
    {
        "State":"Iowa",
        "StateAbbr":"IA",
        "City":"Rudd",
        "County":"Floyd",
        "ZipCode":"50471",
        "Latitude":43.142,
        "Longitude":-92.8885
    },
    {
        "State":"Iowa",
        "StateAbbr":"IA",
        "City":"Charles City",
        "County":"Floyd",
        "ZipCode":"50616",
        "Latitude":43.0683,
        "Longitude":-92.6761
    },
    {
        "State":"Iowa",
        "StateAbbr":"IA",
        "City":"Colwell",
        "County":"Floyd",
        "ZipCode":"50620",
        "Latitude":43.1584,
        "Longitude":-92.5905
    },
    {
        "State":"Iowa",
        "StateAbbr":"IA",
        "City":"Marble Rock",
        "County":"Floyd",
        "ZipCode":"50653",
        "Latitude":42.9645,
        "Longitude":-92.8917
    },
    {
        "State":"Iowa",
        "StateAbbr":"IA",
        "City":"Bradford",
        "County":"Franklin",
        "ZipCode":"50041",
        "Latitude":42.633,
        "Longitude":-93.2449
    },
    {
        "State":"Iowa",
        "StateAbbr":"IA",
        "City":"Popejoy",
        "County":"Franklin",
        "ZipCode":"50227",
        "Latitude":42.5974,
        "Longitude":-93.4279
    },
    {
        "State":"Iowa",
        "StateAbbr":"IA",
        "City":"Alexander",
        "County":"Franklin",
        "ZipCode":"50420",
        "Latitude":42.8114,
        "Longitude":-93.445
    },
    {
        "State":"Iowa",
        "StateAbbr":"IA",
        "City":"Chapin",
        "County":"Franklin",
        "ZipCode":"50427",
        "Latitude":42.8349,
        "Longitude":-93.2226
    },
    {
        "State":"Iowa",
        "StateAbbr":"IA",
        "City":"Coulter",
        "County":"Franklin",
        "ZipCode":"50431",
        "Latitude":42.7382,
        "Longitude":-93.37
    },
    {
        "State":"Iowa",
        "StateAbbr":"IA",
        "City":"Hampton",
        "County":"Franklin",
        "ZipCode":"50441",
        "Latitude":42.7405,
        "Longitude":-93.211
    },
    {
        "State":"Iowa",
        "StateAbbr":"IA",
        "City":"Latimer",
        "County":"Franklin",
        "ZipCode":"50452",
        "Latitude":42.7598,
        "Longitude":-93.3518
    },
    {
        "State":"Iowa",
        "StateAbbr":"IA",
        "City":"Sheffield",
        "County":"Franklin",
        "ZipCode":"50475",
        "Latitude":42.8779,
        "Longitude":-93.2156
    },
    {
        "State":"Iowa",
        "StateAbbr":"IA",
        "City":"Geneva",
        "County":"Franklin",
        "ZipCode":"50633",
        "Latitude":42.6755,
        "Longitude":-93.1294
    },
    {
        "State":"Iowa",
        "StateAbbr":"IA",
        "City":"Farragut",
        "County":"Fremont",
        "ZipCode":"51639",
        "Latitude":40.7215,
        "Longitude":-95.4776
    },
    {
        "State":"Iowa",
        "StateAbbr":"IA",
        "City":"Hamburg",
        "County":"Fremont",
        "ZipCode":"51640",
        "Latitude":40.6149,
        "Longitude":-95.6258
    },
    {
        "State":"Iowa",
        "StateAbbr":"IA",
        "City":"Imogene",
        "County":"Fremont",
        "ZipCode":"51645",
        "Latitude":40.8631,
        "Longitude":-95.4358
    },
    {
        "State":"Iowa",
        "StateAbbr":"IA",
        "City":"Percival",
        "County":"Fremont",
        "ZipCode":"51648",
        "Latitude":40.7401,
        "Longitude":-95.8093
    },
    {
        "State":"Iowa",
        "StateAbbr":"IA",
        "City":"Randolph",
        "County":"Fremont",
        "ZipCode":"51649",
        "Latitude":40.8704,
        "Longitude":-95.5624
    },
    {
        "State":"Iowa",
        "StateAbbr":"IA",
        "City":"Riverton",
        "County":"Fremont",
        "ZipCode":"51650",
        "Latitude":40.6629,
        "Longitude":-95.5773
    },
    {
        "State":"Iowa",
        "StateAbbr":"IA",
        "City":"Sidney",
        "County":"Fremont",
        "ZipCode":"51652",
        "Latitude":40.7507,
        "Longitude":-95.6403
    },
    {
        "State":"Iowa",
        "StateAbbr":"IA",
        "City":"Tabor",
        "County":"Fremont",
        "ZipCode":"51653",
        "Latitude":40.9004,
        "Longitude":-95.6729
    },
    {
        "State":"Iowa",
        "StateAbbr":"IA",
        "City":"Thurman",
        "County":"Fremont",
        "ZipCode":"51654",
        "Latitude":40.8424,
        "Longitude":-95.7605
    },
    {
        "State":"Iowa",
        "StateAbbr":"IA",
        "City":"Churdan",
        "County":"Greene",
        "ZipCode":"50050",
        "Latitude":42.1614,
        "Longitude":-94.4933
    },
    {
        "State":"Iowa",
        "StateAbbr":"IA",
        "City":"Cooper",
        "County":"Greene",
        "ZipCode":"50059",
        "Latitude":42.0363,
        "Longitude":-94.397
    },
    {
        "State":"Iowa",
        "StateAbbr":"IA",
        "City":"Dana",
        "County":"Greene",
        "ZipCode":"50064",
        "Latitude":42.1075,
        "Longitude":-94.2408
    },
    {
        "State":"Iowa",
        "StateAbbr":"IA",
        "City":"Grand Junction",
        "County":"Greene",
        "ZipCode":"50107",
        "Latitude":42.0296,
        "Longitude":-94.2336
    },
    {
        "State":"Iowa",
        "StateAbbr":"IA",
        "City":"Jefferson",
        "County":"Greene",
        "ZipCode":"50129",
        "Latitude":42.0093,
        "Longitude":-94.3888
    },
    {
        "State":"Iowa",
        "StateAbbr":"IA",
        "City":"Paton",
        "County":"Greene",
        "ZipCode":"50217",
        "Latitude":42.1658,
        "Longitude":-94.273
    },
    {
        "State":"Iowa",
        "StateAbbr":"IA",
        "City":"Rippey",
        "County":"Greene",
        "ZipCode":"50235",
        "Latitude":41.9257,
        "Longitude":-94.2132
    },
    {
        "State":"Iowa",
        "StateAbbr":"IA",
        "City":"Scranton",
        "County":"Greene",
        "ZipCode":"51462",
        "Latitude":42.0124,
        "Longitude":-94.5518
    },
    {
        "State":"Iowa",
        "StateAbbr":"IA",
        "City":"Beaman",
        "County":"Grundy",
        "ZipCode":"50609",
        "Latitude":42.2367,
        "Longitude":-92.8162
    },
    {
        "State":"Iowa",
        "StateAbbr":"IA",
        "City":"Conrad",
        "County":"Grundy",
        "ZipCode":"50621",
        "Latitude":42.2342,
        "Longitude":-92.8865
    },
    {
        "State":"Iowa",
        "StateAbbr":"IA",
        "City":"Dike",
        "County":"Grundy",
        "ZipCode":"50624",
        "Latitude":42.473,
        "Longitude":-92.6122
    },
    {
        "State":"Iowa",
        "StateAbbr":"IA",
        "City":"Grundy Center",
        "County":"Grundy",
        "ZipCode":"50638",
        "Latitude":42.3672,
        "Longitude":-92.7773
    },
    {
        "State":"Iowa",
        "StateAbbr":"IA",
        "City":"Holland",
        "County":"Grundy",
        "ZipCode":"50642",
        "Latitude":42.4011,
        "Longitude":-92.7999
    },
    {
        "State":"Iowa",
        "StateAbbr":"IA",
        "City":"Morrison",
        "County":"Grundy",
        "ZipCode":"50657",
        "Latitude":42.3433,
        "Longitude":-92.6738
    },
    {
        "State":"Iowa",
        "StateAbbr":"IA",
        "City":"Reinbeck",
        "County":"Grundy",
        "ZipCode":"50669",
        "Latitude":42.3131,
        "Longitude":-92.5948
    },
    {
        "State":"Iowa",
        "StateAbbr":"IA",
        "City":"Stout",
        "County":"Grundy",
        "ZipCode":"50673",
        "Latitude":42.5264,
        "Longitude":-92.7119
    },
    {
        "State":"Iowa",
        "StateAbbr":"IA",
        "City":"Wellsburg",
        "County":"Grundy",
        "ZipCode":"50680",
        "Latitude":42.4494,
        "Longitude":-92.9398
    },
    {
        "State":"Iowa",
        "StateAbbr":"IA",
        "City":"Bagley",
        "County":"Guthrie",
        "ZipCode":"50026",
        "Latitude":41.8341,
        "Longitude":-94.4415
    },
    {
        "State":"Iowa",
        "StateAbbr":"IA",
        "City":"Bayard",
        "County":"Guthrie",
        "ZipCode":"50029",
        "Latitude":41.8519,
        "Longitude":-94.5583
    },
    {
        "State":"Iowa",
        "StateAbbr":"IA",
        "City":"Casey",
        "County":"Guthrie",
        "ZipCode":"50048",
        "Latitude":41.505,
        "Longitude":-94.5194
    },
    {
        "State":"Iowa",
        "StateAbbr":"IA",
        "City":"Guthrie Center",
        "County":"Guthrie",
        "ZipCode":"50115",
        "Latitude":41.6837,
        "Longitude":-94.4864
    },
    {
        "State":"Iowa",
        "StateAbbr":"IA",
        "City":"Jamaica",
        "County":"Guthrie",
        "ZipCode":"50128",
        "Latitude":41.8419,
        "Longitude":-94.3204
    },
    {
        "State":"Iowa",
        "StateAbbr":"IA",
        "City":"Menlo",
        "County":"Guthrie",
        "ZipCode":"50164",
        "Latitude":41.5348,
        "Longitude":-94.409
    },
    {
        "State":"Iowa",
        "StateAbbr":"IA",
        "City":"Panora",
        "County":"Guthrie",
        "ZipCode":"50216",
        "Latitude":41.6967,
        "Longitude":-94.3606
    },
    {
        "State":"Iowa",
        "StateAbbr":"IA",
        "City":"Stuart",
        "County":"Guthrie",
        "ZipCode":"50250",
        "Latitude":41.5033,
        "Longitude":-94.3186
    },
    {
        "State":"Iowa",
        "StateAbbr":"IA",
        "City":"Yale",
        "County":"Guthrie",
        "ZipCode":"50277",
        "Latitude":41.7753,
        "Longitude":-94.3503
    },
    {
        "State":"Iowa",
        "StateAbbr":"IA",
        "City":"Blairsburg",
        "County":"Hamilton",
        "ZipCode":"50034",
        "Latitude":42.4937,
        "Longitude":-93.6594
    },
    {
        "State":"Iowa",
        "StateAbbr":"IA",
        "City":"Ellsworth",
        "County":"Hamilton",
        "ZipCode":"50075",
        "Latitude":42.3009,
        "Longitude":-93.549
    },
    {
        "State":"Iowa",
        "StateAbbr":"IA",
        "City":"Jewell",
        "County":"Hamilton",
        "ZipCode":"50130",
        "Latitude":42.3139,
        "Longitude":-93.6428
    },
    {
        "State":"Iowa",
        "StateAbbr":"IA",
        "City":"Kamrar",
        "County":"Hamilton",
        "ZipCode":"50132",
        "Latitude":42.3945,
        "Longitude":-93.7279
    },
    {
        "State":"Iowa",
        "StateAbbr":"IA",
        "City":"Randall",
        "County":"Hamilton",
        "ZipCode":"50231",
        "Latitude":42.2383,
        "Longitude":-93.6008
    },
    {
        "State":"Iowa",
        "StateAbbr":"IA",
        "City":"Stanhope",
        "County":"Hamilton",
        "ZipCode":"50246",
        "Latitude":42.2904,
        "Longitude":-93.7751
    },
    {
        "State":"Iowa",
        "StateAbbr":"IA",
        "City":"Stratford",
        "County":"Hamilton",
        "ZipCode":"50249",
        "Latitude":42.2847,
        "Longitude":-93.9029
    },
    {
        "State":"Iowa",
        "StateAbbr":"IA",
        "City":"Williams",
        "County":"Hamilton",
        "ZipCode":"50271",
        "Latitude":42.4883,
        "Longitude":-93.5449
    },
    {
        "State":"Iowa",
        "StateAbbr":"IA",
        "City":"Webster City",
        "County":"Hamilton",
        "ZipCode":"50595",
        "Latitude":42.4657,
        "Longitude":-93.8262
    },
    {
        "State":"Iowa",
        "StateAbbr":"IA",
        "City":"Britt",
        "County":"Hancock",
        "ZipCode":"50423",
        "Latitude":43.1006,
        "Longitude":-93.7752
    },
    {
        "State":"Iowa",
        "StateAbbr":"IA",
        "City":"Corwith",
        "County":"Hancock",
        "ZipCode":"50430",
        "Latitude":42.9927,
        "Longitude":-93.9575
    },
    {
        "State":"Iowa",
        "StateAbbr":"IA",
        "City":"Crystal Lake",
        "County":"Hancock",
        "ZipCode":"50432",
        "Latitude":43.2233,
        "Longitude":-93.7924
    },
    {
        "State":"Iowa",
        "StateAbbr":"IA",
        "City":"Garner",
        "County":"Hancock",
        "ZipCode":"50438",
        "Latitude":43.1144,
        "Longitude":-93.5944
    },
    {
        "State":"Iowa",
        "StateAbbr":"IA",
        "City":"Goodell",
        "County":"Hancock",
        "ZipCode":"50439",
        "Latitude":42.9383,
        "Longitude":-93.5824
    },
    {
        "State":"Iowa",
        "StateAbbr":"IA",
        "City":"Kanawha",
        "County":"Hancock",
        "ZipCode":"50447",
        "Latitude":42.9434,
        "Longitude":-93.7728
    },
    {
        "State":"Iowa",
        "StateAbbr":"IA",
        "City":"Klemme",
        "County":"Hancock",
        "ZipCode":"50449",
        "Latitude":43.0136,
        "Longitude":-93.5879
    },
    {
        "State":"Iowa",
        "StateAbbr":"IA",
        "City":"Woden",
        "County":"Hancock",
        "ZipCode":"50484",
        "Latitude":43.2226,
        "Longitude":-93.9109
    },
    {
        "State":"Iowa",
        "StateAbbr":"IA",
        "City":"Alden",
        "County":"Hardin",
        "ZipCode":"50006",
        "Latitude":42.5179,
        "Longitude":-93.3841
    },
    {
        "State":"Iowa",
        "StateAbbr":"IA",
        "City":"Buckeye",
        "County":"Hardin",
        "ZipCode":"50043",
        "Latitude":42.4179,
        "Longitude":-93.3755
    },
    {
        "State":"Iowa",
        "StateAbbr":"IA",
        "City":"Garden City",
        "County":"Hardin",
        "ZipCode":"50102",
        "Latitude":42.2455,
        "Longitude":-93.3955
    },
    {
        "State":"Iowa",
        "StateAbbr":"IA",
        "City":"Hubbard",
        "County":"Hardin",
        "ZipCode":"50122",
        "Latitude":42.3022,
        "Longitude":-93.2939
    },
    {
        "State":"Iowa",
        "StateAbbr":"IA",
        "City":"Iowa Falls",
        "County":"Hardin",
        "ZipCode":"50126",
        "Latitude":42.5138,
        "Longitude":-93.2709
    },
    {
        "State":"Iowa",
        "StateAbbr":"IA",
        "City":"New Providence",
        "County":"Hardin",
        "ZipCode":"50206",
        "Latitude":42.2693,
        "Longitude":-93.1753
    },
    {
        "State":"Iowa",
        "StateAbbr":"IA",
        "City":"Radcliffe",
        "County":"Hardin",
        "ZipCode":"50230",
        "Latitude":42.3241,
        "Longitude":-93.4234
    },
    {
        "State":"Iowa",
        "StateAbbr":"IA",
        "City":"Union",
        "County":"Hardin",
        "ZipCode":"50258",
        "Latitude":42.2521,
        "Longitude":-93.0562
    },
    {
        "State":"Iowa",
        "StateAbbr":"IA",
        "City":"Gifford",
        "County":"Hardin",
        "ZipCode":"50259",
        "Latitude":42.3831,
        "Longitude":-93.2506
    },
    {
        "State":"Iowa",
        "StateAbbr":"IA",
        "City":"Whitten",
        "County":"Hardin",
        "ZipCode":"50269",
        "Latitude":42.2718,
        "Longitude":-93.0214
    },
    {
        "State":"Iowa",
        "StateAbbr":"IA",
        "City":"Ackley",
        "County":"Hardin",
        "ZipCode":"50601",
        "Latitude":42.5527,
        "Longitude":-93.0608
    },
    {
        "State":"Iowa",
        "StateAbbr":"IA",
        "City":"Eldora",
        "County":"Hardin",
        "ZipCode":"50627",
        "Latitude":42.3572,
        "Longitude":-93.1037
    },
    {
        "State":"Iowa",
        "StateAbbr":"IA",
        "City":"Steamboat Rock",
        "County":"Hardin",
        "ZipCode":"50672",
        "Latitude":42.4178,
        "Longitude":-93.0629
    },
    {
        "State":"Iowa",
        "StateAbbr":"IA",
        "City":"Dunlap",
        "County":"Harrison",
        "ZipCode":"51529",
        "Latitude":41.8603,
        "Longitude":-95.6257
    },
    {
        "State":"Iowa",
        "StateAbbr":"IA",
        "City":"Little Sioux",
        "County":"Harrison",
        "ZipCode":"51545",
        "Latitude":41.8083,
        "Longitude":-96.0314
    },
    {
        "State":"Iowa",
        "StateAbbr":"IA",
        "City":"Logan",
        "County":"Harrison",
        "ZipCode":"51546",
        "Latitude":41.643,
        "Longitude":-95.7889
    },
    {
        "State":"Iowa",
        "StateAbbr":"IA",
        "City":"Magnolia",
        "County":"Harrison",
        "ZipCode":"51550",
        "Latitude":41.6921,
        "Longitude":-95.8742
    },
    {
        "State":"Iowa",
        "StateAbbr":"IA",
        "City":"Missouri Valley",
        "County":"Harrison",
        "ZipCode":"51555",
        "Latitude":41.5644,
        "Longitude":-95.8913
    },
    {
        "State":"Iowa",
        "StateAbbr":"IA",
        "City":"Modale",
        "County":"Harrison",
        "ZipCode":"51556",
        "Latitude":41.6371,
        "Longitude":-95.9852
    },
    {
        "State":"Iowa",
        "StateAbbr":"IA",
        "City":"Mondamin",
        "County":"Harrison",
        "ZipCode":"51557",
        "Latitude":41.7089,
        "Longitude":-96.0072
    },
    {
        "State":"Iowa",
        "StateAbbr":"IA",
        "City":"Persia",
        "County":"Harrison",
        "ZipCode":"51563",
        "Latitude":41.5647,
        "Longitude":-95.5658
    },
    {
        "State":"Iowa",
        "StateAbbr":"IA",
        "City":"Pisgah",
        "County":"Harrison",
        "ZipCode":"51564",
        "Latitude":41.8214,
        "Longitude":-95.9192
    },
    {
        "State":"Iowa",
        "StateAbbr":"IA",
        "City":"Woodbine",
        "County":"Harrison",
        "ZipCode":"51579",
        "Latitude":41.7373,
        "Longitude":-95.7008
    },
    {
        "State":"Iowa",
        "StateAbbr":"IA",
        "City":"Hillsboro",
        "County":"Henry",
        "ZipCode":"52630",
        "Latitude":40.8372,
        "Longitude":-91.7119
    },
    {
        "State":"Iowa",
        "StateAbbr":"IA",
        "City":"Mount Pleasant",
        "County":"Henry",
        "ZipCode":"52641",
        "Latitude":40.9646,
        "Longitude":-91.5614
    },
    {
        "State":"Iowa",
        "StateAbbr":"IA",
        "City":"Rome",
        "County":"Henry",
        "ZipCode":"52642",
        "Latitude":40.9774,
        "Longitude":-91.6923
    },
    {
        "State":"Iowa",
        "StateAbbr":"IA",
        "City":"Mount Union",
        "County":"Henry",
        "ZipCode":"52644",
        "Latitude":41.0374,
        "Longitude":-91.4138
    },
    {
        "State":"Iowa",
        "StateAbbr":"IA",
        "City":"New London",
        "County":"Henry",
        "ZipCode":"52645",
        "Latitude":40.9161,
        "Longitude":-91.3986
    },
    {
        "State":"Iowa",
        "StateAbbr":"IA",
        "City":"Olds",
        "County":"Henry",
        "ZipCode":"52647",
        "Latitude":41.1342,
        "Longitude":-91.5449
    },
    {
        "State":"Iowa",
        "StateAbbr":"IA",
        "City":"Salem",
        "County":"Henry",
        "ZipCode":"52649",
        "Latitude":40.8568,
        "Longitude":-91.6336
    },
    {
        "State":"Iowa",
        "StateAbbr":"IA",
        "City":"Swedesburg",
        "County":"Henry",
        "ZipCode":"52652",
        "Latitude":41.1043,
        "Longitude":-91.547
    },
    {
        "State":"Iowa",
        "StateAbbr":"IA",
        "City":"Wayland",
        "County":"Henry",
        "ZipCode":"52654",
        "Latitude":41.1449,
        "Longitude":-91.6589
    },
    {
        "State":"Iowa",
        "StateAbbr":"IA",
        "City":"Winfield",
        "County":"Henry",
        "ZipCode":"52659",
        "Latitude":41.1257,
        "Longitude":-91.4379
    },
    {
        "State":"Iowa",
        "StateAbbr":"IA",
        "City":"Riceville",
        "County":"Howard",
        "ZipCode":"50466",
        "Latitude":43.3719,
        "Longitude":-92.5554
    },
    {
        "State":"Iowa",
        "StateAbbr":"IA",
        "City":"Elma",
        "County":"Howard",
        "ZipCode":"50628",
        "Latitude":43.2786,
        "Longitude":-92.3981
    },
    {
        "State":"Iowa",
        "StateAbbr":"IA",
        "City":"Chester",
        "County":"Howard",
        "ZipCode":"52134",
        "Latitude":43.473,
        "Longitude":-92.4155
    },
    {
        "State":"Iowa",
        "StateAbbr":"IA",
        "City":"Cresco",
        "County":"Howard",
        "ZipCode":"52136",
        "Latitude":43.363,
        "Longitude":-92.126
    },
    {
        "State":"Iowa",
        "StateAbbr":"IA",
        "City":"Lime Springs",
        "County":"Howard",
        "ZipCode":"52155",
        "Latitude":43.4556,
        "Longitude":-92.2733
    },
    {
        "State":"Iowa",
        "StateAbbr":"IA",
        "City":"Protivin",
        "County":"Howard",
        "ZipCode":"52163",
        "Latitude":43.217,
        "Longitude":-92.0927
    },
    {
        "State":"Iowa",
        "StateAbbr":"IA",
        "City":"Bode",
        "County":"Humboldt",
        "ZipCode":"50519",
        "Latitude":42.8661,
        "Longitude":-94.2781
    },
    {
        "State":"Iowa",
        "StateAbbr":"IA",
        "City":"Bradgate",
        "County":"Humboldt",
        "ZipCode":"50520",
        "Latitude":42.7794,
        "Longitude":-94.4002
    },
    {
        "State":"Iowa",
        "StateAbbr":"IA",
        "City":"Dakota City",
        "County":"Humboldt",
        "ZipCode":"50529",
        "Latitude":42.7214,
        "Longitude":-94.1993
    },
    {
        "State":"Iowa",
        "StateAbbr":"IA",
        "City":"Gilmore City",
        "County":"Humboldt",
        "ZipCode":"50541",
        "Latitude":42.7067,
        "Longitude":-94.4108
    },
    {
        "State":"Iowa",
        "StateAbbr":"IA",
        "City":"Hardy",
        "County":"Humboldt",
        "ZipCode":"50545",
        "Latitude":42.7975,
        "Longitude":-94.0799
    },
    {
        "State":"Iowa",
        "StateAbbr":"IA",
        "City":"Humboldt",
        "County":"Humboldt",
        "ZipCode":"50548",
        "Latitude":42.7196,
        "Longitude":-94.2132
    },
    {
        "State":"Iowa",
        "StateAbbr":"IA",
        "City":"Livermore",
        "County":"Humboldt",
        "ZipCode":"50558",
        "Latitude":42.8666,
        "Longitude":-94.1747
    },
    {
        "State":"Iowa",
        "StateAbbr":"IA",
        "City":"Ottosen",
        "County":"Humboldt",
        "ZipCode":"50570",
        "Latitude":42.8764,
        "Longitude":-94.3786
    },
    {
        "State":"Iowa",
        "StateAbbr":"IA",
        "City":"Renwick",
        "County":"Humboldt",
        "ZipCode":"50577",
        "Latitude":42.8491,
        "Longitude":-94.0074
    },
    {
        "State":"Iowa",
        "StateAbbr":"IA",
        "City":"Rutland",
        "County":"Humboldt",
        "ZipCode":"50582",
        "Latitude":42.7635,
        "Longitude":-94.2719
    },
    {
        "State":"Iowa",
        "StateAbbr":"IA",
        "City":"Thor",
        "County":"Humboldt",
        "ZipCode":"50591",
        "Latitude":42.6889,
        "Longitude":-94.039
    },
    {
        "State":"Iowa",
        "StateAbbr":"IA",
        "City":"Battle Creek",
        "County":"Ida",
        "ZipCode":"51006",
        "Latitude":42.3327,
        "Longitude":-95.6045
    },
    {
        "State":"Iowa",
        "StateAbbr":"IA",
        "City":"Galva",
        "County":"Ida",
        "ZipCode":"51020",
        "Latitude":42.5105,
        "Longitude":-95.4298
    },
    {
        "State":"Iowa",
        "StateAbbr":"IA",
        "City":"Holstein",
        "County":"Ida",
        "ZipCode":"51025",
        "Latitude":42.4948,
        "Longitude":-95.565
    },
    {
        "State":"Iowa",
        "StateAbbr":"IA",
        "City":"Arthur",
        "County":"Ida",
        "ZipCode":"51431",
        "Latitude":42.3363,
        "Longitude":-95.3675
    },
    {
        "State":"Iowa",
        "StateAbbr":"IA",
        "City":"Ida Grove",
        "County":"Ida",
        "ZipCode":"51445",
        "Latitude":42.34,
        "Longitude":-95.4645
    },
    {
        "State":"Iowa",
        "StateAbbr":"IA",
        "City":"Amana",
        "County":"Iowa",
        "ZipCode":"52203",
        "Latitude":41.8313,
        "Longitude":-91.8855
    },
    {
        "State":"Iowa",
        "StateAbbr":"IA",
        "City":"Amana",
        "County":"Iowa",
        "ZipCode":"52204",
        "Latitude":41.8,
        "Longitude":-91.8707
    },
    {
        "State":"Iowa",
        "StateAbbr":"IA",
        "City":"Conroy",
        "County":"Iowa",
        "ZipCode":"52220",
        "Latitude":41.7292,
        "Longitude":-91.9977
    },
    {
        "State":"Iowa",
        "StateAbbr":"IA",
        "City":"Homestead",
        "County":"Iowa",
        "ZipCode":"52236",
        "Latitude":41.7339,
        "Longitude":-91.8795
    },
    {
        "State":"Iowa",
        "StateAbbr":"IA",
        "City":"Ladora",
        "County":"Iowa",
        "ZipCode":"52251",
        "Latitude":41.7564,
        "Longitude":-92.1873
    },
    {
        "State":"Iowa",
        "StateAbbr":"IA",
        "City":"Marengo",
        "County":"Iowa",
        "ZipCode":"52301",
        "Latitude":41.7863,
        "Longitude":-92.072
    },
    {
        "State":"Iowa",
        "StateAbbr":"IA",
        "City":"Middle Amana",
        "County":"Iowa",
        "ZipCode":"52307",
        "Latitude":41.7954,
        "Longitude":-91.9018
    },
    {
        "State":"Iowa",
        "StateAbbr":"IA",
        "City":"Millersburg",
        "County":"Iowa",
        "ZipCode":"52308",
        "Latitude":41.5733,
        "Longitude":-92.1599
    },
    {
        "State":"Iowa",
        "StateAbbr":"IA",
        "City":"North English",
        "County":"Iowa",
        "ZipCode":"52316",
        "Latitude":41.5241,
        "Longitude":-92.0893
    },
    {
        "State":"Iowa",
        "StateAbbr":"IA",
        "City":"Parnell",
        "County":"Iowa",
        "ZipCode":"52325",
        "Latitude":41.5702,
        "Longitude":-92.0052
    },
    {
        "State":"Iowa",
        "StateAbbr":"IA",
        "City":"South Amana",
        "County":"Iowa",
        "ZipCode":"52334",
        "Latitude":41.7576,
        "Longitude":-91.9263
    },
    {
        "State":"Iowa",
        "StateAbbr":"IA",
        "City":"Victor",
        "County":"Iowa",
        "ZipCode":"52347",
        "Latitude":41.729,
        "Longitude":-92.2842
    },
    {
        "State":"Iowa",
        "StateAbbr":"IA",
        "City":"Williamsburg",
        "County":"Iowa",
        "ZipCode":"52361",
        "Latitude":41.6393,
        "Longitude":-92.024
    },
    {
        "State":"Iowa",
        "StateAbbr":"IA",
        "City":"Andrew",
        "County":"Jackson",
        "ZipCode":"52030",
        "Latitude":42.1536,
        "Longitude":-90.5924
    },
    {
        "State":"Iowa",
        "StateAbbr":"IA",
        "City":"Bellevue",
        "County":"Jackson",
        "ZipCode":"52031",
        "Latitude":42.2582,
        "Longitude":-90.4356
    },
    {
        "State":"Iowa",
        "StateAbbr":"IA",
        "City":"La Motte",
        "County":"Jackson",
        "ZipCode":"52054",
        "Latitude":42.3044,
        "Longitude":-90.6177
    },
    {
        "State":"Iowa",
        "StateAbbr":"IA",
        "City":"Maquoketa",
        "County":"Jackson",
        "ZipCode":"52060",
        "Latitude":42.0778,
        "Longitude":-90.6771
    },
    {
        "State":"Iowa",
        "StateAbbr":"IA",
        "City":"Miles",
        "County":"Jackson",
        "ZipCode":"52064",
        "Latitude":42.1006,
        "Longitude":-90.3367
    },
    {
        "State":"Iowa",
        "StateAbbr":"IA",
        "City":"Preston",
        "County":"Jackson",
        "ZipCode":"52069",
        "Latitude":42.0539,
        "Longitude":-90.3954
    },
    {
        "State":"Iowa",
        "StateAbbr":"IA",
        "City":"Sabula",
        "County":"Jackson",
        "ZipCode":"52070",
        "Latitude":42.0737,
        "Longitude":-90.1955
    },
    {
        "State":"Iowa",
        "StateAbbr":"IA",
        "City":"Saint Donatus",
        "County":"Jackson",
        "ZipCode":"52071",
        "Latitude":42.3196,
        "Longitude":-90.4903
    },
    {
        "State":"Iowa",
        "StateAbbr":"IA",
        "City":"Spragueville",
        "County":"Jackson",
        "ZipCode":"52074",
        "Latitude":42.0727,
        "Longitude":-90.473
    },
    {
        "State":"Iowa",
        "StateAbbr":"IA",
        "City":"Springbrook",
        "County":"Jackson",
        "ZipCode":"52075",
        "Latitude":42.1674,
        "Longitude":-90.4846
    },
    {
        "State":"Iowa",
        "StateAbbr":"IA",
        "City":"Baldwin",
        "County":"Jackson",
        "ZipCode":"52207",
        "Latitude":42.0732,
        "Longitude":-90.82
    },
    {
        "State":"Iowa",
        "StateAbbr":"IA",
        "City":"Monmouth",
        "County":"Jackson",
        "ZipCode":"52309",
        "Latitude":42.0772,
        "Longitude":-90.8786
    },
    {
        "State":"Iowa",
        "StateAbbr":"IA",
        "City":"Baxter",
        "County":"Jasper",
        "ZipCode":"50028",
        "Latitude":41.8204,
        "Longitude":-93.1583
    },
    {
        "State":"Iowa",
        "StateAbbr":"IA",
        "City":"Colfax",
        "County":"Jasper",
        "ZipCode":"50054",
        "Latitude":41.6788,
        "Longitude":-93.2588
    },
    {
        "State":"Iowa",
        "StateAbbr":"IA",
        "City":"Ira",
        "County":"Jasper",
        "ZipCode":"50127",
        "Latitude":41.7771,
        "Longitude":-93.2058
    },
    {
        "State":"Iowa",
        "StateAbbr":"IA",
        "City":"Kellogg",
        "County":"Jasper",
        "ZipCode":"50135",
        "Latitude":41.7184,
        "Longitude":-92.9114
    },
    {
        "State":"Iowa",
        "StateAbbr":"IA",
        "City":"Killduff",
        "County":"Jasper",
        "ZipCode":"50137",
        "Latitude":41.608,
        "Longitude":-92.9046
    },
    {
        "State":"Iowa",
        "StateAbbr":"IA",
        "City":"Lynnville",
        "County":"Jasper",
        "ZipCode":"50153",
        "Latitude":41.5698,
        "Longitude":-92.7877
    },
    {
        "State":"Iowa",
        "StateAbbr":"IA",
        "City":"Mingo",
        "County":"Jasper",
        "ZipCode":"50168",
        "Latitude":41.7898,
        "Longitude":-93.288
    },
    {
        "State":"Iowa",
        "StateAbbr":"IA",
        "City":"Monroe",
        "County":"Jasper",
        "ZipCode":"50170",
        "Latitude":41.5222,
        "Longitude":-93.1019
    },
    {
        "State":"Iowa",
        "StateAbbr":"IA",
        "City":"Newton",
        "County":"Jasper",
        "ZipCode":"50208",
        "Latitude":41.6992,
        "Longitude":-93.0455
    },
    {
        "State":"Iowa",
        "StateAbbr":"IA",
        "City":"Prairie City",
        "County":"Jasper",
        "ZipCode":"50228",
        "Latitude":41.5854,
        "Longitude":-93.241
    },
    {
        "State":"Iowa",
        "StateAbbr":"IA",
        "City":"Reasnor",
        "County":"Jasper",
        "ZipCode":"50232",
        "Latitude":41.5798,
        "Longitude":-93.0198
    },
    {
        "State":"Iowa",
        "StateAbbr":"IA",
        "City":"Sully",
        "County":"Jasper",
        "ZipCode":"50251",
        "Latitude":41.574,
        "Longitude":-92.8451
    },
    {
        "State":"Iowa",
        "StateAbbr":"IA",
        "City":"Batavia",
        "County":"Jefferson",
        "ZipCode":"52533",
        "Latitude":40.9905,
        "Longitude":-92.1431
    },
    {
        "State":"Iowa",
        "StateAbbr":"IA",
        "City":"Fairfield",
        "County":"Jefferson",
        "ZipCode":"52556",
        "Latitude":41.0039,
        "Longitude":-91.9576
    },
    {
        "State":"Iowa",
        "StateAbbr":"IA",
        "City":"Fairfield",
        "County":"Jefferson",
        "ZipCode":"52557",
        "Latitude":41.0166,
        "Longitude":-91.9682
    },
    {
        "State":"Iowa",
        "StateAbbr":"IA",
        "City":"Libertyville",
        "County":"Jefferson",
        "ZipCode":"52567",
        "Latitude":40.9499,
        "Longitude":-92.025
    },
    {
        "State":"Iowa",
        "StateAbbr":"IA",
        "City":"Packwood",
        "County":"Jefferson",
        "ZipCode":"52580",
        "Latitude":41.1228,
        "Longitude":-92.0664
    },
    {
        "State":"Iowa",
        "StateAbbr":"IA",
        "City":"Lockridge",
        "County":"Jefferson",
        "ZipCode":"52635",
        "Latitude":41.0119,
        "Longitude":-91.7645
    },
    {
        "State":"Iowa",
        "StateAbbr":"IA",
        "City":"Hills",
        "County":"Johnson",
        "ZipCode":"52235",
        "Latitude":41.5557,
        "Longitude":-91.5308
    },
    {
        "State":"Iowa",
        "StateAbbr":"IA",
        "City":"Iowa City",
        "County":"Johnson",
        "ZipCode":"52240",
        "Latitude":41.6355,
        "Longitude":-91.5016
    },
    {
        "State":"Iowa",
        "StateAbbr":"IA",
        "City":"Coralville",
        "County":"Johnson",
        "ZipCode":"52241",
        "Latitude":41.6937,
        "Longitude":-91.5906
    },
    {
        "State":"Iowa",
        "StateAbbr":"IA",
        "City":"Iowa City",
        "County":"Johnson",
        "ZipCode":"52242",
        "Latitude":41.6627,
        "Longitude":-91.5477
    },
    {
        "State":"Iowa",
        "StateAbbr":"IA",
        "City":"Iowa City",
        "County":"Johnson",
        "ZipCode":"52243",
        "Latitude":41.6611,
        "Longitude":-91.5302
    },
    {
        "State":"Iowa",
        "StateAbbr":"IA",
        "City":"Iowa City",
        "County":"Johnson",
        "ZipCode":"52244",
        "Latitude":41.5727,
        "Longitude":-91.6619
    },
    {
        "State":"Iowa",
        "StateAbbr":"IA",
        "City":"Iowa City",
        "County":"Johnson",
        "ZipCode":"52245",
        "Latitude":41.6649,
        "Longitude":-91.5151
    },
    {
        "State":"Iowa",
        "StateAbbr":"IA",
        "City":"Iowa City",
        "County":"Johnson",
        "ZipCode":"52246",
        "Latitude":41.6438,
        "Longitude":-91.5669
    },
    {
        "State":"Iowa",
        "StateAbbr":"IA",
        "City":"North Liberty",
        "County":"Johnson",
        "ZipCode":"52317",
        "Latitude":41.7443,
        "Longitude":-91.6061
    },
    {
        "State":"Iowa",
        "StateAbbr":"IA",
        "City":"Oxford",
        "County":"Johnson",
        "ZipCode":"52322",
        "Latitude":41.6507,
        "Longitude":-91.7724
    },
    {
        "State":"Iowa",
        "StateAbbr":"IA",
        "City":"Solon",
        "County":"Johnson",
        "ZipCode":"52333",
        "Latitude":41.8099,
        "Longitude":-91.5086
    },
    {
        "State":"Iowa",
        "StateAbbr":"IA",
        "City":"Swisher",
        "County":"Johnson",
        "ZipCode":"52338",
        "Latitude":41.8268,
        "Longitude":-91.6739
    },