[
    {
        "State":"Mississippi",
        "StateAbbr":"MS",
        "City":"Natchez",
        "County":"Adams",
        "ZipCode":"39120",
        "Latitude":31.5492,
        "Longitude":-91.3642
    },
    {
        "State":"Mississippi",
        "StateAbbr":"MS",
        "City":"Natchez",
        "County":"Adams",
        "ZipCode":"39121",
        "Latitude":31.4706,
        "Longitude":-91.4044
    },
    {
        "State":"Mississippi",
        "StateAbbr":"MS",
        "City":"Natchez",
        "County":"Adams",
        "ZipCode":"39122",
        "Latitude":31.5604,
        "Longitude":-91.4032
    },
    {
        "State":"Mississippi",
        "StateAbbr":"MS",
        "City":"Sibley",
        "County":"Adams",
        "ZipCode":"39165",
        "Latitude":31.4706,
        "Longitude":-91.4044
    },
    {
        "State":"Mississippi",
        "StateAbbr":"MS",
        "City":"Washington",
        "County":"Adams",
        "ZipCode":"39190",
        "Latitude":31.5788,
        "Longitude":-91.2993
    },
    {
        "State":"Mississippi",
        "StateAbbr":"MS",
        "City":"Corinth",
        "County":"Alcorn",
        "ZipCode":"38834",
        "Latitude":34.8759,
        "Longitude":-88.5916
    },
    {
        "State":"Mississippi",
        "StateAbbr":"MS",
        "City":"Corinth",
        "County":"Alcorn",
        "ZipCode":"38835",
        "Latitude":34.9205,
        "Longitude":-88.5218
    },
    {
        "State":"Mississippi",
        "StateAbbr":"MS",
        "City":"Glen",
        "County":"Alcorn",
        "ZipCode":"38846",
        "Latitude":34.878,
        "Longitude":-88.4359
    },
    {
        "State":"Mississippi",
        "StateAbbr":"MS",
        "City":"Rienzi",
        "County":"Alcorn",
        "ZipCode":"38865",
        "Latitude":34.7968,
        "Longitude":-88.5795
    },
    {
        "State":"Mississippi",
        "StateAbbr":"MS",
        "City":"Crosby",
        "County":"Amite",
        "ZipCode":"39633",
        "Latitude":31.291,
        "Longitude":-91.1849
    },
    {
        "State":"Mississippi",
        "StateAbbr":"MS",
        "City":"Gloster",
        "County":"Amite",
        "ZipCode":"39638",
        "Latitude":31.1903,
        "Longitude":-90.924
    },
    {
        "State":"Mississippi",
        "StateAbbr":"MS",
        "City":"Liberty",
        "County":"Amite",
        "ZipCode":"39645",
        "Latitude":31.1384,
        "Longitude":-90.7133
    },
    {
        "State":"Mississippi",
        "StateAbbr":"MS",
        "City":"Smithdale",
        "County":"Amite",
        "ZipCode":"39664",
        "Latitude":31.3672,
        "Longitude":-90.6752
    },
    {
        "State":"Mississippi",
        "StateAbbr":"MS",
        "City":"Ethel",
        "County":"Attala",
        "ZipCode":"39067",
        "Latitude":33.1204,
        "Longitude":-89.4659
    },
    {
        "State":"Mississippi",
        "StateAbbr":"MS",
        "City":"Kosciusko",
        "County":"Attala",
        "ZipCode":"39090",
        "Latitude":33.0446,
        "Longitude":-89.5724
    },
    {
        "State":"Mississippi",
        "StateAbbr":"MS",
        "City":"Mc Adams",
        "County":"Attala",
        "ZipCode":"39107",
        "Latitude":33.0828,
        "Longitude":-89.6412
    },
    {
        "State":"Mississippi",
        "StateAbbr":"MS",
        "City":"Mc Cool",
        "County":"Attala",
        "ZipCode":"39108",
        "Latitude":33.1632,
        "Longitude":-89.3268
    },
    {
        "State":"Mississippi",
        "StateAbbr":"MS",
        "City":"Sallis",
        "County":"Attala",
        "ZipCode":"39160",
        "Latitude":33.001,
        "Longitude":-89.7552
    },
    {
        "State":"Mississippi",
        "StateAbbr":"MS",
        "City":"Ashland",
        "County":"Benton",
        "ZipCode":"38603",
        "Latitude":34.8346,
        "Longitude":-89.1427
    },
    {
        "State":"Mississippi",
        "StateAbbr":"MS",
        "City":"Hickory Flat",
        "County":"Benton",
        "ZipCode":"38633",
        "Latitude":34.6244,
        "Longitude":-89.1862
    },
    {
        "State":"Mississippi",
        "StateAbbr":"MS",
        "City":"Michigan City",
        "County":"Benton",
        "ZipCode":"38647",
        "Latitude":34.9608,
        "Longitude":-89.2267
    },
    {
        "State":"Mississippi",
        "StateAbbr":"MS",
        "City":"Alligator",
        "County":"Bolivar",
        "ZipCode":"38720",
        "Latitude":34.1294,
        "Longitude":-90.7382
    },
    {
        "State":"Mississippi",
        "StateAbbr":"MS",
        "City":"Benoit",
        "County":"Bolivar",
        "ZipCode":"38725",
        "Latitude":33.6448,
        "Longitude":-91.0338
    },
    {
        "State":"Mississippi",
        "StateAbbr":"MS",
        "City":"Beulah",
        "County":"Bolivar",
        "ZipCode":"38726",
        "Latitude":33.788,
        "Longitude":-90.9795
    },
    {
        "State":"Mississippi",
        "StateAbbr":"MS",
        "City":"Boyle",
        "County":"Bolivar",
        "ZipCode":"38730",
        "Latitude":33.6891,
        "Longitude":-90.7838
    },
    {
        "State":"Mississippi",
        "StateAbbr":"MS",
        "City":"Cleveland",
        "County":"Bolivar",
        "ZipCode":"38732",
        "Latitude":33.743,
        "Longitude":-90.7309
    },
    {
        "State":"Mississippi",
        "StateAbbr":"MS",
        "City":"Cleveland",
        "County":"Bolivar",
        "ZipCode":"38733",
        "Latitude":33.624,
        "Longitude":-90.8195
    },
    {
        "State":"Mississippi",
        "StateAbbr":"MS",
        "City":"Duncan",
        "County":"Bolivar",
        "ZipCode":"38740",
        "Latitude":34.047,
        "Longitude":-90.7652
    },
    {
        "State":"Mississippi",
        "StateAbbr":"MS",
        "City":"Gunnison",
        "County":"Bolivar",
        "ZipCode":"38746",
        "Latitude":33.9439,
        "Longitude":-90.9319
    },
    {
        "State":"Mississippi",
        "StateAbbr":"MS",
        "City":"Merigold",
        "County":"Bolivar",
        "ZipCode":"38759",
        "Latitude":33.8373,
        "Longitude":-90.7256
    },
    {
        "State":"Mississippi",
        "StateAbbr":"MS",
        "City":"Mound Bayou",
        "County":"Bolivar",
        "ZipCode":"38762",
        "Latitude":33.886,
        "Longitude":-90.7302
    },
    {
        "State":"Mississippi",
        "StateAbbr":"MS",
        "City":"Pace",
        "County":"Bolivar",
        "ZipCode":"38764",
        "Latitude":33.7915,
        "Longitude":-90.857
    },
    {
        "State":"Mississippi",
        "StateAbbr":"MS",
        "City":"Rosedale",
        "County":"Bolivar",
        "ZipCode":"38769",
        "Latitude":33.8432,
        "Longitude":-90.9923
    },
    {
        "State":"Mississippi",
        "StateAbbr":"MS",
        "City":"Scott",
        "County":"Bolivar",
        "ZipCode":"38772",
        "Latitude":33.5629,
        "Longitude":-91.0391
    },
    {
        "State":"Mississippi",
        "StateAbbr":"MS",
        "City":"Shaw",
        "County":"Bolivar",
        "ZipCode":"38773",
        "Latitude":33.6021,
        "Longitude":-90.7746
    },
    {
        "State":"Mississippi",
        "StateAbbr":"MS",
        "City":"Shelby",
        "County":"Bolivar",
        "ZipCode":"38774",
        "Latitude":33.9491,
        "Longitude":-90.7625
    },
    {
        "State":"Mississippi",
        "StateAbbr":"MS",
        "City":"Winstonville",
        "County":"Bolivar",
        "ZipCode":"38781",
        "Latitude":33.9101,
        "Longitude":-90.7515
    },
    {
        "State":"Mississippi",
        "StateAbbr":"MS",
        "City":"Derma",
        "County":"Calhoun",
        "ZipCode":"38839",
        "Latitude":33.8562,
        "Longitude":-89.3032
    },
    {
        "State":"Mississippi",
        "StateAbbr":"MS",
        "City":"Vardaman",
        "County":"Calhoun",
        "ZipCode":"38878",
        "Latitude":33.919,
        "Longitude":-89.1921
    },
    {
        "State":"Mississippi",
        "StateAbbr":"MS",
        "City":"Banner",
        "County":"Calhoun",
        "ZipCode":"38913",
        "Latitude":34.0949,
        "Longitude":-89.4154
    },
    {
        "State":"Mississippi",
        "StateAbbr":"MS",
        "City":"Big Creek",
        "County":"Calhoun",
        "ZipCode":"38914",
        "Latitude":33.8514,
        "Longitude":-89.4378
    },
    {
        "State":"Mississippi",
        "StateAbbr":"MS",
        "City":"Bruce",
        "County":"Calhoun",
        "ZipCode":"38915",
        "Latitude":34.0066,
        "Longitude":-89.3484
    },
    {
        "State":"Mississippi",
        "StateAbbr":"MS",
        "City":"Calhoun City",
        "County":"Calhoun",
        "ZipCode":"38916",
        "Latitude":33.8408,
        "Longitude":-89.3178
    },
    {
        "State":"Mississippi",
        "StateAbbr":"MS",
        "City":"Pittsboro",
        "County":"Calhoun",
        "ZipCode":"38951",
        "Latitude":33.9443,
        "Longitude":-89.3376
    },
    {
        "State":"Mississippi",
        "StateAbbr":"MS",
        "City":"Slate Spring",
        "County":"Calhoun",
        "ZipCode":"38955",
        "Latitude":33.7439,
        "Longitude":-89.3753
    },
    {
        "State":"Mississippi",
        "StateAbbr":"MS",
        "City":"Mantee",
        "County":"Calhoun",
        "ZipCode":"39751",
        "Latitude":33.7052,
        "Longitude":-89.1051
    },
    {
        "State":"Mississippi",
        "StateAbbr":"MS",
        "City":"Carrollton",
        "County":"Carroll",
        "ZipCode":"38917",
        "Latitude":33.5208,
        "Longitude":-89.9506
    },
    {
        "State":"Mississippi",
        "StateAbbr":"MS",
        "City":"Coila",
        "County":"Carroll",
        "ZipCode":"38923",
        "Latitude":33.3731,
        "Longitude":-89.9915
    },
    {
        "State":"Mississippi",
        "StateAbbr":"MS",
        "City":"Mc Carley",
        "County":"Carroll",
        "ZipCode":"38943",
        "Latitude":33.5864,
        "Longitude":-89.8513
    },
    {
        "State":"Mississippi",
        "StateAbbr":"MS",
        "City":"North Carrollton",
        "County":"Carroll",
        "ZipCode":"38947",
        "Latitude":33.5324,
        "Longitude":-89.9001
    },
    {
        "State":"Mississippi",
        "StateAbbr":"MS",
        "City":"Sidon",
        "County":"Carroll",
        "ZipCode":"38954",
        "Latitude":33.4095,
        "Longitude":-90.1779
    },
    {
        "State":"Mississippi",
        "StateAbbr":"MS",
        "City":"Vaiden",
        "County":"Carroll",
        "ZipCode":"39176",
        "Latitude":33.3343,
        "Longitude":-89.757
    },
    {
        "State":"Mississippi",
        "StateAbbr":"MS",
        "City":"Houlka",
        "County":"Chickasaw",
        "ZipCode":"38850",
        "Latitude":34.0561,
        "Longitude":-89.0531
    },
    {
        "State":"Mississippi",
        "StateAbbr":"MS",
        "City":"Houston",
        "County":"Chickasaw",
        "ZipCode":"38851",
        "Latitude":33.9026,
        "Longitude":-88.967
    },
    {
        "State":"Mississippi",
        "StateAbbr":"MS",
        "City":"Okolona",
        "County":"Chickasaw",
        "ZipCode":"38860",
        "Latitude":33.9694,
        "Longitude":-88.7638
    },
    {
        "State":"Mississippi",
        "StateAbbr":"MS",
        "City":"Trebloc",
        "County":"Chickasaw",
        "ZipCode":"38875",
        "Latitude":33.9068,
        "Longitude":-88.9554
    },
    {
        "State":"Mississippi",
        "StateAbbr":"MS",
        "City":"Van Vleet",
        "County":"Chickasaw",
        "ZipCode":"38877",
        "Latitude":33.9871,
        "Longitude":-88.8988
    },
    {
        "State":"Mississippi",
        "StateAbbr":"MS",
        "City":"Woodland",
        "County":"Chickasaw",
        "ZipCode":"39776",
        "Latitude":33.8066,
        "Longitude":-89.0256
    },
    {
        "State":"Mississippi",
        "StateAbbr":"MS",
        "City":"Ackerman",
        "County":"Choctaw",
        "ZipCode":"39735",
        "Latitude":33.3517,
        "Longitude":-89.2014
    },
    {
        "State":"Mississippi",
        "StateAbbr":"MS",
        "City":"French Camp",
        "County":"Choctaw",
        "ZipCode":"39745",
        "Latitude":33.2898,
        "Longitude":-89.3999
    },
    {
        "State":"Mississippi",
        "StateAbbr":"MS",
        "City":"Weir",
        "County":"Choctaw",
        "ZipCode":"39772",
        "Latitude":33.2645,
        "Longitude":-89.2804
    },
    {
        "State":"Mississippi",
        "StateAbbr":"MS",
        "City":"Hermanville",
        "County":"Claiborne",
        "ZipCode":"39086",
        "Latitude":31.9564,
        "Longitude":-90.8446
    },
    {
        "State":"Mississippi",
        "StateAbbr":"MS",
        "City":"Pattison",
        "County":"Claiborne",
        "ZipCode":"39144",
        "Latitude":31.851,
        "Longitude":-90.8283
    },
    {
        "State":"Mississippi",
        "StateAbbr":"MS",
        "City":"Port Gibson",
        "County":"Claiborne",
        "ZipCode":"39150",
        "Latitude":31.961,
        "Longitude":-90.984
    },
    {
        "State":"Mississippi",
        "StateAbbr":"MS",
        "City":"Enterprise",
        "County":"Clarke",
        "ZipCode":"39330",
        "Latitude":32.1563,
        "Longitude":-88.8474
    },
    {
        "State":"Mississippi",
        "StateAbbr":"MS",
        "City":"Pachuta",
        "County":"Clarke",
        "ZipCode":"39347",
        "Latitude":32.0217,
        "Longitude":-88.8851
    },
    {
        "State":"Mississippi",
        "StateAbbr":"MS",
        "City":"Quitman",
        "County":"Clarke",
        "ZipCode":"39355",
        "Latitude":32.0668,
        "Longitude":-88.6788
    },
    {
        "State":"Mississippi",
        "StateAbbr":"MS",
        "City":"Shubuta",
        "County":"Clarke",
        "ZipCode":"39360",
        "Latitude":31.9607,
        "Longitude":-88.7168
    },
    {
        "State":"Mississippi",
        "StateAbbr":"MS",
        "City":"Stonewall",
        "County":"Clarke",
        "ZipCode":"39363",
        "Latitude":32.1564,
        "Longitude":-88.7748
    },
    {
        "State":"Mississippi",
        "StateAbbr":"MS",
        "City":"Cedarbluff",
        "County":"Clay",
        "ZipCode":"39741",
        "Latitude":33.6162,
        "Longitude":-88.8267
    },
    {
        "State":"Mississippi",
        "StateAbbr":"MS",
        "City":"Montpelier",
        "County":"Clay",
        "ZipCode":"39754",
        "Latitude":33.7179,
        "Longitude":-88.9478
    },
    {
        "State":"Mississippi",
        "StateAbbr":"MS",
        "City":"Pheba",
        "County":"Clay",
        "ZipCode":"39755",
        "Latitude":33.5961,
        "Longitude":-88.9518
    },
    {
        "State":"Mississippi",
        "StateAbbr":"MS",
        "City":"West Point",
        "County":"Clay",
        "ZipCode":"39773",
        "Latitude":33.6076,
        "Longitude":-88.6503
    },
    {
        "State":"Mississippi",
        "StateAbbr":"MS",
        "City":"Clarksdale",
        "County":"Coahoma",
        "ZipCode":"38614",
        "Latitude":34.256,
        "Longitude":-90.6348
    },
    {
        "State":"Mississippi",
        "StateAbbr":"MS",
        "City":"Coahoma",
        "County":"Coahoma",
        "ZipCode":"38617",
        "Latitude":34.3668,
        "Longitude":-90.5232
    },
    {
        "State":"Mississippi",
        "StateAbbr":"MS",
        "City":"Farrell",
        "County":"Coahoma",
        "ZipCode":"38630",
        "Latitude":34.2643,
        "Longitude":-90.6723
    },
    {
        "State":"Mississippi",
        "StateAbbr":"MS",
        "City":"Friars Point",
        "County":"Coahoma",
        "ZipCode":"38631",
        "Latitude":34.3668,
        "Longitude":-90.6376
    },
    {
        "State":"Mississippi",
        "StateAbbr":"MS",
        "City":"Jonestown",
        "County":"Coahoma",
        "ZipCode":"38639",
        "Latitude":34.3037,
        "Longitude":-90.4294
    },
    {
        "State":"Mississippi",
        "StateAbbr":"MS",
        "City":"Lula",
        "County":"Coahoma",
        "ZipCode":"38644",
        "Latitude":34.4618,
        "Longitude":-90.4981
    },
    {
        "State":"Mississippi",
        "StateAbbr":"MS",
        "City":"Lyon",
        "County":"Coahoma",
        "ZipCode":"38645",
        "Latitude":34.2474,
        "Longitude":-90.4981
    },
    {
        "State":"Mississippi",
        "StateAbbr":"MS",
        "City":"Sherard",
        "County":"Coahoma",
        "ZipCode":"38669",
        "Latitude":34.1953,
        "Longitude":-90.7335
    },
    {
        "State":"Mississippi",
        "StateAbbr":"MS",
        "City":"Dublin",
        "County":"Coahoma",
        "ZipCode":"38739",
        "Latitude":34.0604,
        "Longitude":-90.5011
    },
    {
        "State":"Mississippi",
        "StateAbbr":"MS",
        "City":"Rena Lara",
        "County":"Coahoma",
        "ZipCode":"38767",
        "Latitude":34.1412,
        "Longitude":-90.7865
    },
    {
        "State":"Mississippi",
        "StateAbbr":"MS",
        "City":"Crystal Springs",
        "County":"Copiah",
        "ZipCode":"39059",
        "Latitude":31.9933,
        "Longitude":-90.3744
    },
    {
        "State":"Mississippi",
        "StateAbbr":"MS",
        "City":"Gallman",
        "County":"Copiah",
        "ZipCode":"39077",
        "Latitude":31.9288,
        "Longitude":-90.3926
    },
    {
        "State":"Mississippi",
        "StateAbbr":"MS",
        "City":"Georgetown",
        "County":"Copiah",
        "ZipCode":"39078",
        "Latitude":31.8552,
        "Longitude":-90.2127
    },
    {
        "State":"Mississippi",
        "StateAbbr":"MS",
        "City":"Hazlehurst",
        "County":"Copiah",
        "ZipCode":"39083",
        "Latitude":31.8562,
        "Longitude":-90.4051
    },
    {
        "State":"Mississippi",
        "StateAbbr":"MS",
        "City":"Wesson",
        "County":"Copiah",
        "ZipCode":"39191",
        "Latitude":31.6901,
        "Longitude":-90.4131
    },
    {
        "State":"Mississippi",
        "StateAbbr":"MS",
        "City":"Mount Olive",
        "County":"Covington",
        "ZipCode":"39119",
        "Latitude":31.7613,
        "Longitude":-89.6551
    },
    {
        "State":"Mississippi",
        "StateAbbr":"MS",
        "City":"Collins",
        "County":"Covington",
        "ZipCode":"39428",
        "Latitude":31.6707,
        "Longitude":-89.5438
    },
    {
        "State":"Mississippi",
        "StateAbbr":"MS",
        "City":"Seminary",
        "County":"Covington",
        "ZipCode":"39479",
        "Latitude":31.5285,
        "Longitude":-89.4816
    },
    {
        "State":"Mississippi",
        "StateAbbr":"MS",
        "City":"Hernando",
        "County":"DeSoto",
        "ZipCode":"38632",
        "Latitude":34.8096,
        "Longitude":-90.0095
    },
    {
        "State":"Mississippi",
        "StateAbbr":"MS",
        "City":"Horn Lake",
        "County":"DeSoto",
        "ZipCode":"38637",
        "Latitude":34.9519,
        "Longitude":-90.0507
    },
    {
        "State":"Mississippi",
        "StateAbbr":"MS",
        "City":"Lake Cormorant",
        "County":"DeSoto",
        "ZipCode":"38641",
        "Latitude":34.8937,
        "Longitude":-90.1608
    },
    {
        "State":"Mississippi",
        "StateAbbr":"MS",
        "City":"Nesbit",
        "County":"DeSoto",
        "ZipCode":"38651",
        "Latitude":34.8992,
        "Longitude":-90.0122
    },
    {
        "State":"Mississippi",
        "StateAbbr":"MS",
        "City":"Olive Branch",
        "County":"DeSoto",
        "ZipCode":"38654",
        "Latitude":34.9441,
        "Longitude":-89.8544
    },
    {
        "State":"Mississippi",
        "StateAbbr":"MS",
        "City":"Southaven",
        "County":"DeSoto",
        "ZipCode":"38671",
        "Latitude":34.9771,
        "Longitude":-89.9992
    },
    {
        "State":"Mississippi",
        "StateAbbr":"MS",
        "City":"Southaven",
        "County":"DeSoto",
        "ZipCode":"38672",
        "Latitude":34.9474,
        "Longitude":-89.9258
    },
    {
        "State":"Mississippi",
        "StateAbbr":"MS",
        "City":"Walls",
        "County":"DeSoto",
        "ZipCode":"38680",
        "Latitude":34.9641,
        "Longitude":-90.1208
    },
    {
        "State":"Mississippi",
        "StateAbbr":"MS",
        "City":"Walls",
        "County":"DeSoto",
        "ZipCode":"38686",
        "Latitude":34.9582,
        "Longitude":-90.1526
    },
    {
        "State":"Mississippi",
        "StateAbbr":"MS",
        "City":"Hattiesburg",
        "County":"Forrest",
        "ZipCode":"39401",
        "Latitude":31.3146,
        "Longitude":-89.3065
    },
    {
        "State":"Mississippi",
        "StateAbbr":"MS",
        "City":"Hattiesburg",
        "County":"Forrest",
        "ZipCode":"39402",
        "Latitude":31.3098,
        "Longitude":-89.3775
    },
    {
        "State":"Mississippi",
        "StateAbbr":"MS",
        "City":"Hattiesburg",
        "County":"Forrest",
        "ZipCode":"39403",
        "Latitude":31.3566,
        "Longitude":-89.3824
    },
    {
        "State":"Mississippi",
        "StateAbbr":"MS",
        "City":"Hattiesburg",
        "County":"Forrest",
        "ZipCode":"39404",
        "Latitude":31.1721,
        "Longitude":-89.2948
    },
    {
        "State":"Mississippi",
        "StateAbbr":"MS",
        "City":"Hattiesburg",
        "County":"Forrest",
        "ZipCode":"39406",
        "Latitude":31.1721,
        "Longitude":-89.2948
    },
    {
        "State":"Mississippi",
        "StateAbbr":"MS",
        "City":"Hattiesburg",
        "County":"Forrest",
        "ZipCode":"39407",
        "Latitude":31.1721,
        "Longitude":-89.2948
    },
    {
        "State":"Mississippi",
        "StateAbbr":"MS",
        "City":"Brooklyn",
        "County":"Forrest",
        "ZipCode":"39425",
        "Latitude":31.0591,
        "Longitude":-89.0796
    },
    {
        "State":"Mississippi",
        "StateAbbr":"MS",
        "City":"Petal",
        "County":"Forrest",
        "ZipCode":"39465",
        "Latitude":31.3472,
        "Longitude":-89.2222
    },
    {
        "State":"Mississippi",
        "StateAbbr":"MS",
        "City":"Bude",
        "County":"Franklin",
        "ZipCode":"39630",
        "Latitude":31.4593,
        "Longitude":-90.8457
    },
    {
        "State":"Mississippi",
        "StateAbbr":"MS",
        "City":"Mc Call Creek",
        "County":"Franklin",
        "ZipCode":"39647",
        "Latitude":31.4908,
        "Longitude":-90.7836
    },
    {
        "State":"Mississippi",
        "StateAbbr":"MS",
        "City":"Meadville",
        "County":"Franklin",
        "ZipCode":"39653",
        "Latitude":31.4285,
        "Longitude":-90.8578
    },
    {
        "State":"Mississippi",
        "StateAbbr":"MS",
        "City":"Roxie",
        "County":"Franklin",
        "ZipCode":"39661",
        "Latitude":31.504,
        "Longitude":-91.0625
    },
    {
        "State":"Mississippi",
        "StateAbbr":"MS",
        "City":"Lucedale",
        "County":"George",
        "ZipCode":"39452",
        "Latitude":30.8668,
        "Longitude":-88.649
    },
    {
        "State":"Mississippi",
        "StateAbbr":"MS",
        "City":"State Line",
        "County":"Greene",
        "ZipCode":"39362",
        "Latitude":31.3916,
        "Longitude":-88.5171
    },
    {
        "State":"Mississippi",
        "StateAbbr":"MS",
        "City":"Leakesville",
        "County":"Greene",
        "ZipCode":"39451",
        "Latitude":31.1238,
        "Longitude":-88.5595
    },
    {
        "State":"Mississippi",
        "StateAbbr":"MS",
        "City":"Mc Lain",
        "County":"Greene",
        "ZipCode":"39456",
        "Latitude":31.0867,
        "Longitude":-88.7977
    },
    {
        "State":"Mississippi",
        "StateAbbr":"MS",
        "City":"Neely",
        "County":"Greene",
        "ZipCode":"39461",
        "Latitude":31.1793,
        "Longitude":-88.7198
    },
    {
        "State":"Mississippi",
        "StateAbbr":"MS",
        "City":"Grenada",
        "County":"Grenada",
        "ZipCode":"38901",
        "Latitude":33.7751,
        "Longitude":-89.8087
    },
    {
        "State":"Mississippi",
        "StateAbbr":"MS",
        "City":"Grenada",
        "County":"Grenada",
        "ZipCode":"38902",
        "Latitude":33.769,
        "Longitude":-89.8084
    },
    {
        "State":"Mississippi",
        "StateAbbr":"MS",
        "City":"Elliott",
        "County":"Grenada",
        "ZipCode":"38926",
        "Latitude":33.6895,
        "Longitude":-89.7583
    },
    {
        "State":"Mississippi",
        "StateAbbr":"MS",
        "City":"Gore Springs",
        "County":"Grenada",
        "ZipCode":"38929",
        "Latitude":33.7245,
        "Longitude":-89.5754
    },
    {
        "State":"Mississippi",
        "StateAbbr":"MS",
        "City":"Holcomb",
        "County":"Grenada",
        "ZipCode":"38940",
        "Latitude":33.7551,
        "Longitude":-90.0333
    },
    {
        "State":"Mississippi",
        "StateAbbr":"MS",
        "City":"Tie Plant",
        "County":"Grenada",
        "ZipCode":"38960",
        "Latitude":33.7872,
        "Longitude":-89.8219
    },
    {
        "State":"Mississippi",
        "StateAbbr":"MS",
        "City":"Bay Saint Louis",
        "County":"Hancock",
        "ZipCode":"39520",
        "Latitude":30.2956,
        "Longitude":-89.4632
    },
    {
        "State":"Mississippi",
        "StateAbbr":"MS",
        "City":"Bay Saint Louis",
        "County":"Hancock",
        "ZipCode":"39521",
        "Latitude":30.4032,
        "Longitude":-89.4982
    },
    {
        "State":"Mississippi",
        "StateAbbr":"MS",
        "City":"Stennis Space Center",
        "County":"Hancock",
        "ZipCode":"39522",
        "Latitude":30.4032,
        "Longitude":-89.4982
    },
    {
        "State":"Mississippi",
        "StateAbbr":"MS",
        "City":"Diamondhead",
        "County":"Hancock",
        "ZipCode":"39525",
        "Latitude":30.3728,
        "Longitude":-89.3779
    },
    {
        "State":"Mississippi",
        "StateAbbr":"MS",
        "City":"Stennis Space Center",
        "County":"Hancock",
        "ZipCode":"39529",
        "Latitude":30.4032,
        "Longitude":-89.4982
    },
    {
        "State":"Mississippi",
        "StateAbbr":"MS",
        "City":"Kiln",
        "County":"Hancock",
        "ZipCode":"39556",
        "Latitude":30.4875,
        "Longitude":-89.4187
    },
    {
        "State":"Mississippi",
        "StateAbbr":"MS",
        "City":"Lakeshore",
        "County":"Hancock",
        "ZipCode":"39558",
        "Latitude":30.2391,
        "Longitude":-89.4595
    },
    {
        "State":"Mississippi",
        "StateAbbr":"MS",
        "City":"Pearlington",
        "County":"Hancock",
        "ZipCode":"39572",
        "Latitude":30.2508,
        "Longitude":-89.6011
    },
    {
        "State":"Mississippi",
        "StateAbbr":"MS",
        "City":"Waveland",
        "County":"Hancock",
        "ZipCode":"39576",
        "Latitude":30.2914,
        "Longitude":-89.3837
    },
    {
        "State":"Mississippi",
        "StateAbbr":"MS",
        "City":"Gulfport",
        "County":"Harrison",
        "ZipCode":"39501",
        "Latitude":30.3826,
        "Longitude":-89.0976
    },
    {
        "State":"Mississippi",
        "StateAbbr":"MS",
        "City":"Gulfport",
        "County":"Harrison",
        "ZipCode":"39502",
        "Latitude":30.4158,
        "Longitude":-89.0684
    },
    {
        "State":"Mississippi",
        "StateAbbr":"MS",
        "City":"Gulfport",
        "County":"Harrison",
        "ZipCode":"39503",
        "Latitude":30.4601,
        "Longitude":-89.0886
    },
    {
        "State":"Mississippi",
        "StateAbbr":"MS",
        "City":"Gulfport",
        "County":"Harrison",
        "ZipCode":"39505",
        "Latitude":30.4158,
        "Longitude":-89.0684
    },
    {
        "State":"Mississippi",
        "StateAbbr":"MS",
        "City":"Gulfport",
        "County":"Harrison",
        "ZipCode":"39506",
        "Latitude":30.4158,
        "Longitude":-89.0684
    },
    {
        "State":"Mississippi",
        "StateAbbr":"MS",
        "City":"Gulfport",
        "County":"Harrison",
        "ZipCode":"39507",
        "Latitude":30.3962,
        "Longitude":-89.0353
    },
    {
        "State":"Mississippi",
        "StateAbbr":"MS",
        "City":"Biloxi",
        "County":"Harrison",
        "ZipCode":"39530",
        "Latitude":30.4035,
        "Longitude":-88.8971
    },
    {
        "State":"Mississippi",
        "StateAbbr":"MS",
        "City":"Biloxi",
        "County":"Harrison",
        "ZipCode":"39531",
        "Latitude":30.4033,
        "Longitude":-88.9605
    },
    {
        "State":"Mississippi",
        "StateAbbr":"MS",
        "City":"Biloxi",
        "County":"Harrison",
        "ZipCode":"39532",
        "Latitude":30.511,
        "Longitude":-88.9681
    },
    {
        "State":"Mississippi",
        "StateAbbr":"MS",
        "City":"Biloxi",
        "County":"Harrison",
        "ZipCode":"39533",
        "Latitude":30.396,
        "Longitude":-88.8853
    },
    {
        "State":"Mississippi",
        "StateAbbr":"MS",
        "City":"Biloxi",
        "County":"Harrison",
        "ZipCode":"39534",
        "Latitude":30.4067,
        "Longitude":-88.9211
    },
    {
        "State":"Mississippi",
        "StateAbbr":"MS",
        "City":"Biloxi",
        "County":"Harrison",
        "ZipCode":"39535",
        "Latitude":30.4158,
        "Longitude":-89.0684
    },
    {
        "State":"Mississippi",
        "StateAbbr":"MS",
        "City":"Diberville",
        "County":"Harrison",
        "ZipCode":"39540",
        "Latitude":30.4383,
        "Longitude":-88.8989
    },
    {
        "State":"Mississippi",
        "StateAbbr":"MS",
        "City":"Long Beach",
        "County":"Harrison",
        "ZipCode":"39560",
        "Latitude":30.3598,
        "Longitude":-89.1646
    },
    {
        "State":"Mississippi",
        "StateAbbr":"MS",
        "City":"Pass Christian",
        "County":"Harrison",
        "ZipCode":"39571",
        "Latitude":30.3989,
        "Longitude":-89.2843
    },
    {
        "State":"Mississippi",
        "StateAbbr":"MS",
        "City":"Saucier",
        "County":"Harrison",
        "ZipCode":"39574",
        "Latitude":30.5961,
        "Longitude":-89.1477
    },
    {
        "State":"Mississippi",
        "StateAbbr":"MS",
        "City":"Bolton",
        "County":"Hinds",
        "ZipCode":"39041",
        "Latitude":32.3778,
        "Longitude":-90.4474
    },
    {
        "State":"Mississippi",
        "StateAbbr":"MS",
        "City":"Clinton",
        "County":"Hinds",
        "ZipCode":"39056",
        "Latitude":32.3411,
        "Longitude":-90.3229
    },
    {
        "State":"Mississippi",
        "StateAbbr":"MS",
        "City":"Clinton",
        "County":"Hinds",
        "ZipCode":"39058",
        "Latitude":32.3415,
        "Longitude":-90.3218
    },
    {
        "State":"Mississippi",
        "StateAbbr":"MS",
        "City":"Clinton",
        "County":"Hinds",
        "ZipCode":"39060",
        "Latitude":32.3113,
        "Longitude":-90.3972
    },
    {
        "State":"Mississippi",
        "StateAbbr":"MS",
        "City":"Edwards",
        "County":"Hinds",
        "ZipCode":"39066",
        "Latitude":32.316,
        "Longitude":-90.5984
    },
    {
        "State":"Mississippi",
        "StateAbbr":"MS",
        "City":"Raymond",
        "County":"Hinds",
        "ZipCode":"39154",
        "Latitude":32.1961,
        "Longitude":-90.4753
    },
    {
        "State":"Mississippi",
        "StateAbbr":"MS",
        "City":"Terry",
        "County":"Hinds",
        "ZipCode":"39170",
        "Latitude":32.1147,
        "Longitude":-90.3241
    },
    {
        "State":"Mississippi",
        "StateAbbr":"MS",
        "City":"Tougaloo",
        "County":"Hinds",
        "ZipCode":"39174",
        "Latitude":32.3953,
        "Longitude":-90.1544
    },
    {
        "State":"Mississippi",
        "StateAbbr":"MS",
        "City":"Utica",
        "County":"Hinds",
        "ZipCode":"39175",
        "Latitude":32.1229,
        "Longitude":-90.6047
    },
    {
        "State":"Mississippi",
        "StateAbbr":"MS",
        "City":"Jackson",
        "County":"Hinds",
        "ZipCode":"39201",
        "Latitude":32.2935,
        "Longitude":-90.1867
    },
    {
        "State":"Mississippi",
        "StateAbbr":"MS",
        "City":"Jackson",
        "County":"Hinds",
        "ZipCode":"39202",
        "Latitude":32.3149,
        "Longitude":-90.1782
    },
    {
        "State":"Mississippi",
        "StateAbbr":"MS",
        "City":"Jackson",
        "County":"Hinds",
        "ZipCode":"39203",
        "Latitude":32.3081,
        "Longitude":-90.2021
    },
    {
        "State":"Mississippi",
        "StateAbbr":"MS",
        "City":"Jackson",
        "County":"Hinds",
        "ZipCode":"39204",
        "Latitude":32.2832,
        "Longitude":-90.2306
    },
    {
        "State":"Mississippi",
        "StateAbbr":"MS",
        "City":"Jackson",
        "County":"Hinds",
        "ZipCode":"39205",
        "Latitude":32.2988,
        "Longitude":-90.1848
    },
    {
        "State":"Mississippi",
        "StateAbbr":"MS",
        "City":"Jackson",
        "County":"Hinds",
        "ZipCode":"39206",
        "Latitude":32.37,
        "Longitude":-90.1738
    },
    {
        "State":"Mississippi",
        "StateAbbr":"MS",
        "City":"Jackson",
        "County":"Hinds",
        "ZipCode":"39207",
        "Latitude":32.2988,
        "Longitude":-90.1848
    },
    {
        "State":"Mississippi",
        "StateAbbr":"MS",
        "City":"Jackson",
        "County":"Hinds",
        "ZipCode":"39209",
        "Latitude":32.3184,
        "Longitude":-90.2446
    },
    {
        "State":"Mississippi",
        "StateAbbr":"MS",
        "City":"Jackson",
        "County":"Hinds",
        "ZipCode":"39210",
        "Latitude":32.3218,
        "Longitude":-90.1771
    },
    {
        "State":"Mississippi",
        "StateAbbr":"MS",
        "City":"Jackson",
        "County":"Hinds",
        "ZipCode":"39211",
        "Latitude":32.3739,
        "Longitude":-90.1293
    },
    {
        "State":"Mississippi",
        "StateAbbr":"MS",
        "City":"Jackson",
        "County":"Hinds",
        "ZipCode":"39212",
        "Latitude":32.2435,
        "Longitude":-90.2612
    },
    {
        "State":"Mississippi",
        "StateAbbr":"MS",
        "City":"Jackson",
        "County":"Hinds",
        "ZipCode":"39213",
        "Latitude":32.3553,
        "Longitude":-90.2171
    },
    {
        "State":"Mississippi",
        "StateAbbr":"MS",
        "City":"Jackson",
        "County":"Hinds",
        "ZipCode":"39215",
        "Latitude":32.2988,
        "Longitude":-90.1848
    },
    {
        "State":"Mississippi",
        "StateAbbr":"MS",
        "City":"Jackson",
        "County":"Hinds",
        "ZipCode":"39216",
        "Latitude":32.3386,
        "Longitude":-90.1708
    },
    {
        "State":"Mississippi",
        "StateAbbr":"MS",
        "City":"Jackson",
        "County":"Hinds",
        "ZipCode":"39217",
        "Latitude":32.2974,
        "Longitude":-90.2081
    },
    {
        "State":"Mississippi",
        "StateAbbr":"MS",
        "City":"Jackson",
        "County":"Hinds",
        "ZipCode":"39225",
        "Latitude":32.2988,
        "Longitude":-90.1848
    },
    {
        "State":"Mississippi",
        "StateAbbr":"MS",
        "City":"Jackson",
        "County":"Hinds",
        "ZipCode":"39236",
        "Latitude":32.2988,
        "Longitude":-90.1848
    },
    {
        "State":"Mississippi",
        "StateAbbr":"MS",
        "City":"Jackson",
        "County":"Hinds",
        "ZipCode":"39250",
        "Latitude":32.2988,
        "Longitude":-90.1848
    },
    {
        "State":"Mississippi",
        "StateAbbr":"MS",
        "City":"Jackson",
        "County":"Hinds",
        "ZipCode":"39269",
        "Latitude":32.3003,
        "Longitude":-90.1886
    },
    {
        "State":"Mississippi",
        "StateAbbr":"MS",
        "City":"Jackson",
        "County":"Hinds",
        "ZipCode":"39271",
        "Latitude":32.2988,
        "Longitude":-90.1848
    },
    {
        "State":"Mississippi",
        "StateAbbr":"MS",
        "City":"Byram",
        "County":"Hinds",
        "ZipCode":"39272",
        "Latitude":32.1888,
        "Longitude":-90.2595
    },
    {
        "State":"Mississippi",
        "StateAbbr":"MS",
        "City":"Jackson",
        "County":"Hinds",
        "ZipCode":"39282",
        "Latitude":32.2988,
        "Longitude":-90.1848
    },
    {
        "State":"Mississippi",
        "StateAbbr":"MS",
        "City":"Jackson",
        "County":"Hinds",
        "ZipCode":"39283",
        "Latitude":32.2988,
        "Longitude":-90.1848
    },
    {
        "State":"Mississippi",
        "StateAbbr":"MS",
        "City":"Jackson",
        "County":"Hinds",
        "ZipCode":"39284",
        "Latitude":32.2988,
        "Longitude":-90.1848
    },
    {
        "State":"Mississippi",
        "StateAbbr":"MS",
        "City":"Jackson",
        "County":"Hinds",
        "ZipCode":"39286",
        "Latitude":32.2988,
        "Longitude":-90.1848
    },
    {
        "State":"Mississippi",
        "StateAbbr":"MS",
        "City":"Jackson",
        "County":"Hinds",
        "ZipCode":"39289",
        "Latitude":32.2988,
        "Longitude":-90.1848
    },
    {
        "State":"Mississippi",
        "StateAbbr":"MS",
        "City":"Jackson",
        "County":"Hinds",
        "ZipCode":"39296",
        "Latitude":32.2988,
        "Longitude":-90.1848
    },
    {
        "State":"Mississippi",
        "StateAbbr":"MS",
        "City":"Cruger",
        "County":"Holmes",
        "ZipCode":"38924",
        "Latitude":33.311,
        "Longitude":-90.2316
    },
    {
        "State":"Mississippi",
        "StateAbbr":"MS",
        "City":"Durant",
        "County":"Holmes",
        "ZipCode":"39063",
        "Latitude":33.0828,
        "Longitude":-89.8612
    },
    {
        "State":"Mississippi",
        "StateAbbr":"MS",
        "City":"Goodman",
        "County":"Holmes",
        "ZipCode":"39079",
        "Latitude":32.9892,
        "Longitude":-89.9433
    },
    {
        "State":"Mississippi",
        "StateAbbr":"MS",
        "City":"Lexington",
        "County":"Holmes",
        "ZipCode":"39095",
        "Latitude":33.125,
        "Longitude":-90.0557
    },
    {
        "State":"Mississippi",
        "StateAbbr":"MS",
        "City":"Pickens",
        "County":"Holmes",
        "ZipCode":"39146",
        "Latitude":32.8905,
        "Longitude":-89.9737
    },
    {
        "State":"Mississippi",
        "StateAbbr":"MS",
        "City":"Tchula",
        "County":"Holmes",
        "ZipCode":"39169",
        "Latitude":33.1624,
        "Longitude":-90.25
    },
    {
        "State":"Mississippi",
        "StateAbbr":"MS",
        "City":"West",
        "County":"Holmes",
        "ZipCode":"39192",
        "Latitude":33.1883,
        "Longitude":-89.7695
    },
    {
        "State":"Mississippi",
        "StateAbbr":"MS",
        "City":"Isola",
        "County":"Humphreys",
        "ZipCode":"38754",
        "Latitude":33.2471,
        "Longitude":-90.604
    },
    {
        "State":"Mississippi",
        "StateAbbr":"MS",
        "City":"Belzoni",
        "County":"Humphreys",
        "ZipCode":"39038",
        "Latitude":33.1842,
        "Longitude":-90.4924
    },
    {
        "State":"Mississippi",
        "StateAbbr":"MS",
        "City":"Louise",
        "County":"Humphreys",
        "ZipCode":"39097",
        "Latitude":32.9919,
        "Longitude":-90.5893
    },
    {
        "State":"Mississippi",
        "StateAbbr":"MS",
        "City":"Midnight",
        "County":"Humphreys",
        "ZipCode":"39115",
        "Latitude":33.0496,
        "Longitude":-90.5734
    },
    {
        "State":"Mississippi",
        "StateAbbr":"MS",
        "City":"Silver City",
        "County":"Humphreys",
        "ZipCode":"39166",
        "Latitude":33.0507,
        "Longitude":-90.4928
    },
    {
        "State":"Mississippi",
        "StateAbbr":"MS",
        "City":"Grace",
        "County":"Issaquena",
        "ZipCode":"38745",
        "Latitude":32.9775,
        "Longitude":-90.983
    },
    {
        "State":"Mississippi",
        "StateAbbr":"MS",
        "City":"Mayersville",
        "County":"Issaquena",
        "ZipCode":"39113",
        "Latitude":32.9013,
        "Longitude":-91.0286
    },
    {
        "State":"Mississippi",
        "StateAbbr":"MS",
        "City":"Valley Park",
        "County":"Issaquena",
        "ZipCode":"39177",
        "Latitude":32.6323,
        "Longitude":-90.8542
    },
    {
        "State":"Mississippi",
        "StateAbbr":"MS",
        "City":"Fulton",
        "County":"Itawamba",
        "ZipCode":"38843",
        "Latitude":34.2745,
        "Longitude":-88.3793
    },
    {
        "State":"Mississippi",
        "StateAbbr":"MS",
        "City":"Golden",
        "County":"Itawamba",
        "ZipCode":"38847",
        "Latitude":34.4812,
        "Longitude":-88.1842
    },
    {
        "State":"Mississippi",
        "StateAbbr":"MS",
        "City":"Mantachie",
        "County":"Itawamba",
        "ZipCode":"38855",
        "Latitude":34.3243,
        "Longitude":-88.4912
    },
    {
        "State":"Mississippi",
        "StateAbbr":"MS",
        "City":"Nettleton",
        "County":"Itawamba",
        "ZipCode":"38858",
        "Latitude":34.0821,
        "Longitude":-88.6052
    },
    {
        "State":"Mississippi",
        "StateAbbr":"MS",
        "City":"Tremont",
        "County":"Itawamba",
        "ZipCode":"38876",
        "Latitude":34.2335,
        "Longitude":-88.2392
    },
    {
        "State":"Mississippi",
        "StateAbbr":"MS",
        "City":"Escatawpa",
        "County":"Jackson",
        "ZipCode":"39552",
        "Latitude":30.4411,
        "Longitude":-88.6345
    },
    {
        "State":"Mississippi",
        "StateAbbr":"MS",
        "City":"Gautier",
        "County":"Jackson",
        "ZipCode":"39553",
        "Latitude":30.398,
        "Longitude":-88.6412
    },
    {
        "State":"Mississippi",
        "StateAbbr":"MS",
        "City":"Hurley",
        "County":"Jackson",
        "ZipCode":"39555",
        "Latitude":30.7132,
        "Longitude":-88.5197
    },
    {
        "State":"Mississippi",
        "StateAbbr":"MS",
        "City":"Moss Point",
        "County":"Jackson",
        "ZipCode":"39562",
        "Latitude":30.5471,
        "Longitude":-88.4927
    },
    {
        "State":"Mississippi",
        "StateAbbr":"MS",
        "City":"Moss Point",
        "County":"Jackson",
        "ZipCode":"39563",
        "Latitude":30.425,
        "Longitude":-88.5233
    },
    {
        "State":"Mississippi",
        "StateAbbr":"MS",
        "City":"Ocean Springs",
        "County":"Jackson",
        "ZipCode":"39564",
        "Latitude":30.4404,
        "Longitude":-88.7801
    },
    {
        "State":"Mississippi",
        "StateAbbr":"MS",
        "City":"Vancleave",
        "County":"Jackson",
        "ZipCode":"39565",
        "Latitude":30.5405,
        "Longitude":-88.6875
    },
    {
        "State":"Mississippi",
        "StateAbbr":"MS",
        "City":"Ocean Springs",
        "County":"Jackson",
        "ZipCode":"39566",
        "Latitude":30.4113,
        "Longitude":-88.8278
    },
    {
        "State":"Mississippi",
        "StateAbbr":"MS",
        "City":"Pascagoula",
        "County":"Jackson",
        "ZipCode":"39567",
        "Latitude":30.3658,
        "Longitude":-88.5561
    },
    {
        "State":"Mississippi",
        "StateAbbr":"MS",
        "City":"Pascagoula",
        "County":"Jackson",
        "ZipCode":"39568",
        "Latitude":30.4411,
        "Longitude":-88.6345
    },
    {
        "State":"Mississippi",
        "StateAbbr":"MS",
        "City":"Pascagoula",
        "County":"Jackson",
        "ZipCode":"39569",
        "Latitude":30.3658,
        "Longitude":-88.5561
    },
    {
        "State":"Mississippi",
        "StateAbbr":"MS",
        "City":"Pascagoula",
        "County":"Jackson",
        "ZipCode":"39581",
        "Latitude":30.3664,
        "Longitude":-88.5289
    },
    {
        "State":"Mississippi",
        "StateAbbr":"MS",
        "City":"Pascagoula",
        "County":"Jackson",
        "ZipCode":"39595",
        "Latitude":30.3658,
        "Longitude":-88.5561
    },
    {
        "State":"Mississippi",
        "StateAbbr":"MS",
        "City":"Louin",
        "County":"Jasper",
        "ZipCode":"39338",
        "Latitude":32.0997,
        "Longitude":-89.2199
    },
    {
        "State":"Mississippi",
        "StateAbbr":"MS",
        "City":"Paulding",
        "County":"Jasper",
        "ZipCode":"39348",
        "Latitude":32.0167,
        "Longitude":-89.0584
    },
    {
        "State":"Mississippi",
        "StateAbbr":"MS",
        "City":"Rose Hill",
        "County":"Jasper",
        "ZipCode":"39356",
        "Latitude":32.1489,
        "Longitude":-89.0011
    },
    {
        "State":"Mississippi",
        "StateAbbr":"MS",
        "City":"Vossburg",
        "County":"Jasper",
        "ZipCode":"39366",
        "Latitude":31.9506,
        "Longitude":-88.9707
    },
    {
        "State":"Mississippi",
        "StateAbbr":"MS",
        "City":"Bay Springs",
        "County":"Jasper",
        "ZipCode":"39422",
        "Latitude":31.9449,
        "Longitude":-89.2338
    },
    {
        "State":"Mississippi",
        "StateAbbr":"MS",
        "City":"Heidelberg",
        "County":"Jasper",
        "ZipCode":"39439",
        "Latitude":31.882,
        "Longitude":-88.9981
    },
    {
        "State":"Mississippi",
        "StateAbbr":"MS",
        "City":"Moss",
        "County":"Jasper",
        "ZipCode":"39460",
        "Latitude":31.8152,
        "Longitude":-89.1778
    },
    {
        "State":"Mississippi",
        "StateAbbr":"MS",
        "City":"Stringer",
        "County":"Jasper",
        "ZipCode":"39481",
        "Latitude":31.8447,
        "Longitude":-89.2621
    },
    {
        "State":"Mississippi",
        "StateAbbr":"MS",
        "City":"Fayette",
        "County":"Jefferson",
        "ZipCode":"39069",
        "Latitude":31.7121,
        "Longitude":-91.0582
    },
    {
        "State":"Mississippi",
        "StateAbbr":"MS",
        "City":"Harriston",
        "County":"Jefferson",
        "ZipCode":"39081",
        "Latitude":31.74,
        "Longitude":-91.0509
    },
    {
        "State":"Mississippi",
        "StateAbbr":"MS",
        "City":"Lorman",
        "County":"Jefferson",
        "ZipCode":"39096",
        "Latitude":31.8383,
        "Longitude":-91.0957
    },
    {
        "State":"Mississippi",
        "StateAbbr":"MS",
        "City":"Union Church",
        "County":"Jefferson",
        "ZipCode":"39668",
        "Latitude":31.7105,
        "Longitude":-90.8259
    },
    {
        "State":"Mississippi",
        "StateAbbr":"MS",
        "City":"Bassfield",
        "County":"Jefferson Davis",
        "ZipCode":"39421",
        "Latitude":31.5037,
        "Longitude":-89.7027
    },
    {
        "State":"Mississippi",
        "StateAbbr":"MS",
        "City":"Carson",
        "County":"Jefferson Davis",
        "ZipCode":"39427",
        "Latitude":31.4814,
        "Longitude":-89.8279
    },
    {
        "State":"Mississippi",
        "StateAbbr":"MS",
        "City":"Prentiss",
        "County":"Jefferson Davis",
        "ZipCode":"39474",
        "Latitude":31.6057,
        "Longitude":-89.8735
    },
    {
        "State":"Mississippi",
        "StateAbbr":"MS",
        "City":"Eastabuchie",
        "County":"Jones",
        "ZipCode":"39436",
        "Latitude":31.4555,
        "Longitude":-89.302
    },
    {
        "State":"Mississippi",
        "StateAbbr":"MS",
        "City":"Ellisville",
        "County":"Jones",
        "ZipCode":"39437",
        "Latitude":31.5797,
        "Longitude":-89.2231
    },
    {
        "State":"Mississippi",
        "StateAbbr":"MS",
        "City":"Laurel",
        "County":"Jones",
        "ZipCode":"39440",
        "Latitude":31.7054,
        "Longitude":-89.1312
    },
    {
        "State":"Mississippi",
        "StateAbbr":"MS",
        "City":"Laurel",
        "County":"Jones",
        "ZipCode":"39441",
        "Latitude":31.7277,
        "Longitude":-89.0755
    },
    {
        "State":"Mississippi",
        "StateAbbr":"MS",
        "City":"Laurel",
        "County":"Jones",
        "ZipCode":"39442",
        "Latitude":31.6823,
        "Longitude":-89.0406
    },
    {
        "State":"Mississippi",
        "StateAbbr":"MS",
        "City":"Laurel",
        "County":"Jones",
        "ZipCode":"39443",
        "Latitude":31.7138,
        "Longitude":-89.0759
    },
    {
        "State":"Mississippi",
        "StateAbbr":"MS",
        "City":"Moselle",
        "County":"Jones",
        "ZipCode":"39459",
        "Latitude":31.4836,
        "Longitude":-89.3206
    },
    {
        "State":"Mississippi",
        "StateAbbr":"MS",
        "City":"Sandersville",
        "County":"Jones",
        "ZipCode":"39477",
        "Latitude":31.7909,
        "Longitude":-89.0414
    },
    {
        "State":"Mississippi",
        "StateAbbr":"MS",
        "City":"Soso",
        "County":"Jones",
        "ZipCode":"39480",
        "Latitude":31.7594,
        "Longitude":-89.3082
    },
    {
        "State":"Mississippi",
        "StateAbbr":"MS",
        "City":"De Kalb",
        "County":"Kemper",
        "ZipCode":"39328",
        "Latitude":32.7162,
        "Longitude":-88.7332
    },
    {
        "State":"Mississippi",
        "StateAbbr":"MS",
        "City":"Porterville",
        "County":"Kemper",
        "ZipCode":"39352",
        "Latitude":32.6368,
        "Longitude":-88.4984
    },
    {
        "State":"Mississippi",
        "StateAbbr":"MS",
        "City":"Preston",
        "County":"Kemper",
        "ZipCode":"39354",
        "Latitude":32.8826,
        "Longitude":-88.8289
    },
    {
        "State":"Mississippi",
        "StateAbbr":"MS",
        "City":"Scooba",
        "County":"Kemper",
        "ZipCode":"39358",
        "Latitude":32.8402,
        "Longitude":-88.4883
    },
    {
        "State":"Mississippi",
        "StateAbbr":"MS",
        "City":"Abbeville",
        "County":"Lafayette",
        "ZipCode":"38601",
        "Latitude":34.4719,
        "Longitude":-89.4475
    },
    {
        "State":"Mississippi",
        "StateAbbr":"MS",
        "City":"Oxford",
        "County":"Lafayette",
        "ZipCode":"38655",
        "Latitude":34.3308,
        "Longitude":-89.4835
    },
    {
        "State":"Mississippi",
        "StateAbbr":"MS",
        "City":"Taylor",
        "County":"Lafayette",
        "ZipCode":"38673",
        "Latitude":34.2849,
        "Longitude":-89.6273
    },
    {
        "State":"Mississippi",
        "StateAbbr":"MS",
        "City":"Tula",
        "County":"Lafayette",
        "ZipCode":"38675",
        "Latitude":34.3582,
        "Longitude":-89.4839
    },
    {
        "State":"Mississippi",
        "StateAbbr":"MS",
        "City":"University",
        "County":"Lafayette",
        "ZipCode":"38677",
        "Latitude":34.3659,
        "Longitude":-89.5254
    },
    {
        "State":"Mississippi",
        "StateAbbr":"MS",
        "City":"Waterford",
        "County":"Lafayette",
        "ZipCode":"38685",
        "Latitude":34.5476,
        "Longitude":-89.6129
    },
    {
        "State":"Mississippi",
        "StateAbbr":"MS",
        "City":"Toccopola",
        "County":"Lafayette",
        "ZipCode":"38874",
        "Latitude":34.2265,
        "Longitude":-89.2519
    },
    {
        "State":"Mississippi",
        "StateAbbr":"MS",
        "City":"Paris",
        "County":"Lafayette",
        "ZipCode":"38949",
        "Latitude":34.1787,
        "Longitude":-89.4598
    },
    {
        "State":"Mississippi",
        "StateAbbr":"MS",
        "City":"Lumberton",
        "County":"Lamar",
        "ZipCode":"39455",
        "Latitude":31.0013,
        "Longitude":-89.4523
    },
    {
        "State":"Mississippi",
        "StateAbbr":"MS",
        "City":"Purvis",
        "County":"Lamar",
        "ZipCode":"39475",
        "Latitude":31.1496,
        "Longitude":-89.4623
    },
    {
        "State":"Mississippi",
        "StateAbbr":"MS",
        "City":"Sumrall",
        "County":"Lamar",
        "ZipCode":"39482",
        "Latitude":31.36,
        "Longitude":-89.5777
    },
    {
        "State":"Mississippi",
        "StateAbbr":"MS",
        "City":"Meridian",
        "County":"Lauderdale",
        "ZipCode":"39301",
        "Latitude":32.3574,
        "Longitude":-88.656
    },
    {
        "State":"Mississippi",
        "StateAbbr":"MS",
        "City":"Meridian",
        "County":"Lauderdale",
        "ZipCode":"39302",
        "Latitude":32.3643,
        "Longitude":-88.7037
    },
    {
        "State":"Mississippi",
        "StateAbbr":"MS",
        "City":"Meridian",
        "County":"Lauderdale",
        "ZipCode":"39303",
        "Latitude":32.4012,
        "Longitude":-88.6523
    },
    {
        "State":"Mississippi",
        "StateAbbr":"MS",
        "City":"Meridian",
        "County":"Lauderdale",
        "ZipCode":"39304",
        "Latitude":32.4208,
        "Longitude":-88.646
    },
    {
        "State":"Mississippi",
        "StateAbbr":"MS",
        "City":"Meridian",
        "County":"Lauderdale",
        "ZipCode":"39305",
        "Latitude":32.4401,
        "Longitude":-88.6783
    },
    {
        "State":"Mississippi",
        "StateAbbr":"MS",
        "City":"Meridian",
        "County":"Lauderdale",
        "ZipCode":"39307",
        "Latitude":32.3736,
        "Longitude":-88.7436
    },
    {
        "State":"Mississippi",
        "StateAbbr":"MS",
        "City":"Meridian",
        "County":"Lauderdale",
        "ZipCode":"39309",
        "Latitude":32.5505,
        "Longitude":-88.6132
    },
    {
        "State":"Mississippi",
        "StateAbbr":"MS",
        "City":"Bailey",
        "County":"Lauderdale",
        "ZipCode":"39320",
        "Latitude":32.4676,
        "Longitude":-88.7228
    },
    {
        "State":"Mississippi",
        "StateAbbr":"MS",
        "City":"Collinsville",
        "County":"Lauderdale",
        "ZipCode":"39325",
        "Latitude":32.5643,
        "Longitude":-88.875
    },
    {
        "State":"Mississippi",
        "StateAbbr":"MS",
        "City":"Daleville",
        "County":"Lauderdale",
        "ZipCode":"39326",
        "Latitude":32.5511,
        "Longitude":-88.6609
    },
    {
        "State":"Mississippi",
        "StateAbbr":"MS",
        "City":"Lauderdale",
        "County":"Lauderdale",
        "ZipCode":"39335",
        "Latitude":32.5022,
        "Longitude":-88.4956
    },
    {
        "State":"Mississippi",
        "StateAbbr":"MS",
        "City":"Marion",
        "County":"Lauderdale",
        "ZipCode":"39342",
        "Latitude":32.4245,
        "Longitude":-88.6483
    },
    {
        "State":"Mississippi",
        "StateAbbr":"MS",
        "City":"Toomsuba",
        "County":"Lauderdale",
        "ZipCode":"39364",
        "Latitude":32.4296,
        "Longitude":-88.4892
    },
    {
        "State":"Mississippi",
        "StateAbbr":"MS",
        "City":"Newhebron",
        "County":"Lawrence",
        "ZipCode":"39140",
        "Latitude":31.73,
        "Longitude":-90.0153
    },
    {
        "State":"Mississippi",
        "StateAbbr":"MS",
        "City":"Jayess",
        "County":"Lawrence",
        "ZipCode":"39641",
        "Latitude":31.4036,
        "Longitude":-90.1864
    },
    {
        "State":"Mississippi",
        "StateAbbr":"MS",
        "City":"Monticello",
        "County":"Lawrence",
        "ZipCode":"39654",
        "Latitude":31.5238,
        "Longitude":-90.128
    },
    {
        "State":"Mississippi",
        "StateAbbr":"MS",
        "City":"Oak Vale",
        "County":"Lawrence",
        "ZipCode":"39656",
        "Latitude":31.442,
        "Longitude":-89.9827
    },
    {
        "State":"Mississippi",
        "StateAbbr":"MS",
        "City":"Silver Creek",
        "County":"Lawrence",
        "ZipCode":"39663",
        "Latitude":31.5755,
        "Longitude":-90.0173
    },
    {
        "State":"Mississippi",
        "StateAbbr":"MS",
        "City":"Sontag",
        "County":"Lawrence",
        "ZipCode":"39665",
        "Latitude":31.6524,
        "Longitude":-90.2043
    },
    {
        "State":"Mississippi",
        "StateAbbr":"MS",
        "City":"Carthage",
        "County":"Leake",
        "ZipCode":"39051",
        "Latitude":32.7852,
        "Longitude":-89.5241
    },
    {
        "State":"Mississippi",
        "StateAbbr":"MS",
        "City":"Lena",
        "County":"Leake",
        "ZipCode":"39094",
        "Latitude":32.6446,
        "Longitude":-89.5494
    },
    {
        "State":"Mississippi",
        "StateAbbr":"MS",
        "City":"Madden",
        "County":"Leake",
        "ZipCode":"39109",
        "Latitude":32.6909,
        "Longitude":-89.3554
    },
    {
        "State":"Mississippi",
        "StateAbbr":"MS",
        "City":"Thomastown",
        "County":"Leake",
        "ZipCode":"39171",
        "Latitude":32.864,
        "Longitude":-89.6695
    },
    {
        "State":"Mississippi",
        "StateAbbr":"MS",
        "City":"Walnut Grove",
        "County":"Leake",
        "ZipCode":"39189",
        "Latitude":32.6134,
        "Longitude":-89.4105
    },
    {
        "State":"Mississippi",
        "StateAbbr":"MS",
        "City":"Tupelo",
        "County":"Lee",
        "ZipCode":"38801",
        "Latitude":34.2538,
        "Longitude":-88.7209
    },
    {
        "State":"Mississippi",
        "StateAbbr":"MS",
        "City":"Tupelo",
        "County":"Lee",
        "ZipCode":"38802",
        "Latitude":34.2345,
        "Longitude":-88.7671
    },
    {
        "State":"Mississippi",
        "StateAbbr":"MS",
        "City":"Tupelo",
        "County":"Lee",
        "ZipCode":"38803",
        "Latitude":34.1876,
        "Longitude":-88.7785
    },
    {
        "State":"Mississippi",
        "StateAbbr":"MS",
        "City":"Tupelo",
        "County":"Lee",
        "ZipCode":"38804",
        "Latitude":34.2823,
        "Longitude":-88.6715
    },
    {
        "State":"Mississippi",
        "StateAbbr":"MS",
        "City":"Baldwyn",
        "County":"Lee",
        "ZipCode":"38824",
        "Latitude":34.528,
        "Longitude":-88.6375
    },
    {
        "State":"Mississippi",
        "StateAbbr":"MS",
        "City":"Belden",
        "County":"Lee",
        "ZipCode":"38826",
        "Latitude":34.3057,
        "Longitude":-88.8462
    },
    {
        "State":"Mississippi",
        "StateAbbr":"MS",
        "City":"Guntown",
        "County":"Lee",
        "ZipCode":"38849",
        "Latitude":34.4563,
        "Longitude":-88.6975
    },
    {
        "State":"Mississippi",
        "StateAbbr":"MS",
        "City":"Mooreville",
        "County":"Lee",
        "ZipCode":"38857",
        "Latitude":34.2808,
        "Longitude":-88.595
    },
    {
        "State":"Mississippi",
        "StateAbbr":"MS",
        "City":"Plantersville",
        "County":"Lee",
        "ZipCode":"38862",
        "Latitude":34.2011,
        "Longitude":-88.6335
    },
    {
        "State":"Mississippi",
        "StateAbbr":"MS",
        "City":"Saltillo",
        "County":"Lee",
        "ZipCode":"38866",
        "Latitude":34.3831,
        "Longitude":-88.6674
    },
    {
        "State":"Mississippi",
        "StateAbbr":"MS",
        "City":"Shannon",
        "County":"Lee",
        "ZipCode":"38868",
        "Latitude":34.121,
        "Longitude":-88.7342
    },
    {
        "State":"Mississippi",
        "StateAbbr":"MS",
        "City":"Verona",
        "County":"Lee",
        "ZipCode":"38879",
        "Latitude":34.1943,
        "Longitude":-88.7198
    },
    {
        "State":"Mississippi",
        "StateAbbr":"MS",
        "City":"Greenwood",
        "County":"Leflore",
        "ZipCode":"38930",
        "Latitude":33.5159,
        "Longitude":-90.1726
    },
    {
        "State":"Mississippi",
        "StateAbbr":"MS",
        "City":"Greenwood",
        "County":"Leflore",
        "ZipCode":"38935",
        "Latitude":33.5162,
        "Longitude":-90.1795
    },
    {
        "State":"Mississippi",
        "StateAbbr":"MS",
        "City":"Itta Bena",
        "County":"Leflore",
        "ZipCode":"38941",
        "Latitude":33.4798,
        "Longitude":-90.3394
    },
    {
        "State":"Mississippi",
        "StateAbbr":"MS",
        "City":"Minter City",
        "County":"Leflore",
        "ZipCode":"38944",
        "Latitude":33.7515,
        "Longitude":-90.3133
    },
    {
        "State":"Mississippi",
        "StateAbbr":"MS",
        "City":"Money",
        "County":"Leflore",
        "ZipCode":"38945",
        "Latitude":33.6507,
        "Longitude":-90.1969
    },
    {
        "State":"Mississippi",
        "StateAbbr":"MS",
        "City":"Morgan City",
        "County":"Leflore",
        "ZipCode":"38946",
        "Latitude":33.3807,
        "Longitude":-90.3504
    },
    {
        "State":"Mississippi",
        "StateAbbr":"MS",
        "City":"Schlater",
        "County":"Leflore",
        "ZipCode":"38952",
        "Latitude":33.6244,
        "Longitude":-90.362
    },
    {
        "State":"Mississippi",
        "StateAbbr":"MS",
        "City":"Swiftown",
        "County":"Leflore",
        "ZipCode":"38959",
        "Latitude":33.3809,
        "Longitude":-90.3496
    },
    {
        "State":"Mississippi",
        "StateAbbr":"MS",
        "City":"Brookhaven",
        "County":"Lincoln",
        "ZipCode":"39601",
        "Latitude":31.5858,
        "Longitude":-90.452
    },
    {
        "State":"Mississippi",
        "StateAbbr":"MS",
        "City":"Brookhaven",
        "County":"Lincoln",
        "ZipCode":"39602",
        "Latitude":31.5334,
        "Longitude":-90.4907
    },
    {
        "State":"Mississippi",
        "StateAbbr":"MS",
        "City":"Brookhaven",
        "County":"Lincoln",
        "ZipCode":"39603",
        "Latitude":31.6123,
        "Longitude":-90.4467
    },
    {
        "State":"Mississippi",
        "StateAbbr":"MS",
        "City":"Bogue Chitto",
        "County":"Lincoln",
        "ZipCode":"39629",
        "Latitude":31.4563,
        "Longitude":-90.4732
    },
    {
        "State":"Mississippi",
        "StateAbbr":"MS",
        "City":"Ruth",
        "County":"Lincoln",
        "ZipCode":"39662",
        "Latitude":31.3795,
        "Longitude":-90.2867
    },
    {
        "State":"Mississippi",
        "StateAbbr":"MS",
        "City":"Columbus",
        "County":"Lowndes",
        "ZipCode":"39701",
        "Latitude":33.4109,
        "Longitude":-88.5047
    },
    {
        "State":"Mississippi",
        "StateAbbr":"MS",
        "City":"Columbus",
        "County":"Lowndes",
        "ZipCode":"39702",
        "Latitude":33.4812,
        "Longitude":-88.3554
    },
    {
        "State":"Mississippi",
        "StateAbbr":"MS",
        "City":"Columbus",
        "County":"Lowndes",
        "ZipCode":"39703",
        "Latitude":33.4841,
        "Longitude":-88.284
    },
    {
        "State":"Mississippi",
        "StateAbbr":"MS",
        "City":"Columbus",
        "County":"Lowndes",
        "ZipCode":"39704",
        "Latitude":33.5485,
        "Longitude":-88.3796
    },
    {
        "State":"Mississippi",
        "StateAbbr":"MS",
        "City":"Columbus",
        "County":"Lowndes",
        "ZipCode":"39705",
        "Latitude":33.5508,
        "Longitude":-88.4865
    },
    {
        "State":"Mississippi",
        "StateAbbr":"MS",
        "City":"Columbus",
        "County":"Lowndes",
        "ZipCode":"39710",
        "Latitude":33.5163,
        "Longitude":-88.4601
    },
    {
        "State":"Mississippi",
        "StateAbbr":"MS",
        "City":"Artesia",
        "County":"Lowndes",
        "ZipCode":"39736",
        "Latitude":33.4115,
        "Longitude":-88.6443
    },
    {
        "State":"Mississippi",
        "StateAbbr":"MS",
        "City":"Crawford",
        "County":"Lowndes",
        "ZipCode":"39743",
        "Latitude":33.3219,
        "Longitude":-88.5671
    },
    {
        "State":"Mississippi",
        "StateAbbr":"MS",
        "City":"Mayhew",
        "County":"Lowndes",
        "ZipCode":"39753",
        "Latitude":33.4838,
        "Longitude":-88.6409
    },
    {
        "State":"Mississippi",
        "StateAbbr":"MS",
        "City":"Steens",
        "County":"Lowndes",
        "ZipCode":"39766",
        "Latitude":33.5671,
        "Longitude":-88.3278
    },
    {
        "State":"Mississippi",
        "StateAbbr":"MS",
        "City":"Camden",
        "County":"Madison",
        "ZipCode":"39045",
        "Latitude":32.7853,
        "Longitude":-89.8698
    },
    {
        "State":"Mississippi",
        "StateAbbr":"MS",
        "City":"Canton",
        "County":"Madison",
        "ZipCode":"39046",
        "Latitude":32.6205,
        "Longitude":-90.0061
    },
    {
        "State":"Mississippi",
        "StateAbbr":"MS",
        "City":"Flora",
        "County":"Madison",
        "ZipCode":"39071",
        "Latitude":32.5578,
        "Longitude":-90.3235
    },
    {
        "State":"Mississippi",
        "StateAbbr":"MS",
        "City":"Madison",
        "County":"Madison",
        "ZipCode":"39110",
        "Latitude":32.4671,
        "Longitude":-90.1087
    },
    {
        "State":"Mississippi",
        "StateAbbr":"MS",
        "City":"Madison",
        "County":"Madison",
        "ZipCode":"39130",
        "Latitude":32.4618,
        "Longitude":-90.1154
    },
    {
        "State":"Mississippi",
        "StateAbbr":"MS",
        "City":"Ridgeland",
        "County":"Madison",
        "ZipCode":"39157",
        "Latitude":32.4122,
        "Longitude":-90.1207
    },
    {
        "State":"Mississippi",
        "StateAbbr":"MS",
        "City":"Ridgeland",
        "County":"Madison",
        "ZipCode":"39158",
        "Latitude":32.4285,
        "Longitude":-90.1323
    },
    {
        "State":"Mississippi",
        "StateAbbr":"MS",
        "City":"Sharon",
        "County":"Madison",
        "ZipCode":"39163",
        "Latitude":32.6424,
        "Longitude":-90.0907
    },
    {
        "State":"Mississippi",
        "StateAbbr":"MS",
        "City":"Columbia",
        "County":"Marion",
        "ZipCode":"39429",
        "Latitude":31.2559,
        "Longitude":-89.7998
    },
    {
        "State":"Mississippi",
        "StateAbbr":"MS",
        "City":"Sandy Hook",
        "County":"Marion",
        "ZipCode":"39478",
        "Latitude":31.0479,
        "Longitude":-89.8183
    },
    {
        "State":"Mississippi",
        "StateAbbr":"MS",
        "City":"Foxworth",
        "County":"Marion",
        "ZipCode":"39483",
        "Latitude":31.2473,
        "Longitude":-89.9311
    },
    {
        "State":"Mississippi",
        "StateAbbr":"MS",
        "City":"Kokomo",
        "County":"Marion",
        "ZipCode":"39643",
        "Latitude":31.244,
        "Longitude":-90.0194
    },
    {
        "State":"Mississippi",
        "StateAbbr":"MS",
        "City":"Byhalia",
        "County":"Marshall",
        "ZipCode":"38611",
        "Latitude":34.8854,
        "Longitude":-89.6763
    },
    {
        "State":"Mississippi",
        "StateAbbr":"MS",
        "City":"Holly Springs",
        "County":"Marshall",
        "ZipCode":"38634",
        "Latitude":34.7676,
        "Longitude":-89.4487
    },
    {
        "State":"Mississippi",
        "StateAbbr":"MS",
        "City":"Holly Springs",
        "County":"Marshall",
        "ZipCode":"38635",
        "Latitude":34.7471,
        "Longitude":-89.4897
    },
    {
        "State":"Mississippi",
        "StateAbbr":"MS",
        "City":"Lamar",
        "County":"Marshall",
        "ZipCode":"38642",
        "Latitude":34.9271,
        "Longitude":-89.3163
    },
    {
        "State":"Mississippi",
        "StateAbbr":"MS",
        "City":"Mount Pleasant",
        "County":"Marshall",
        "ZipCode":"38649",
        "Latitude":34.9536,
        "Longitude":-89.523
    },
    {
        "State":"Mississippi",
        "StateAbbr":"MS",
        "City":"Potts Camp",
        "County":"Marshall",
        "ZipCode":"38659",
        "Latitude":34.6047,
        "Longitude":-89.3151
    },
    {
        "State":"Mississippi",
        "StateAbbr":"MS",
        "City":"Red Banks",
        "County":"Marshall",
        "ZipCode":"38661",
        "Latitude":34.8937,
        "Longitude":-89.5649
    },
    {
        "State":"Mississippi",
        "StateAbbr":"MS",
        "City":"Victoria",
        "County":"Marshall",
        "ZipCode":"38679",
        "Latitude":34.8708,
        "Longitude":-89.6408
    },
    {
        "State":"Mississippi",
        "StateAbbr":"MS",
        "City":"Amory",
        "County":"Monroe",
        "ZipCode":"38821",
        "Latitude":33.9844,
        "Longitude":-88.4709
    },
    {
        "State":"Mississippi",
        "StateAbbr":"MS",
        "City":"Becker",
        "County":"Monroe",
        "ZipCode":"38825",
        "Latitude":33.8698,
        "Longitude":-88.4622
    },
    {
        "State":"Mississippi",
        "StateAbbr":"MS",
        "City":"Gattman",
        "County":"Monroe",
        "ZipCode":"38844",
        "Latitude":33.8742,
        "Longitude":-88.2588
    },
    {
        "State":"Mississippi",
        "StateAbbr":"MS",
        "City":"Greenwood Springs",
        "County":"Monroe",
        "ZipCode":"38848",
        "Latitude":33.8871,
        "Longitude":-88.3089
    },
    {
        "State":"Mississippi",
        "StateAbbr":"MS",
        "City":"Smithville",
        "County":"Monroe",
        "ZipCode":"38870",
        "Latitude":34.0648,
        "Longitude":-88.39
    },
    {
        "State":"Mississippi",
        "StateAbbr":"MS",
        "City":"Aberdeen",
        "County":"Monroe",
        "ZipCode":"39730",
        "Latitude":33.8284,
        "Longitude":-88.538
    },
    {
        "State":"Mississippi",
        "StateAbbr":"MS",
        "City":"Caledonia",
        "County":"Monroe",
        "ZipCode":"39740",
        "Latitude":33.6865,
        "Longitude":-88.3145
    },
    {
        "State":"Mississippi",
        "StateAbbr":"MS",
        "City":"Hamilton",
        "County":"Monroe",
        "ZipCode":"39746",
        "Latitude":33.7404,
        "Longitude":-88.4112
    },
    {
        "State":"Mississippi",
        "StateAbbr":"MS",
        "City":"Prairie",
        "County":"Monroe",
        "ZipCode":"39756",
        "Latitude":33.7836,
        "Longitude":-88.6642
    },
    {
        "State":"Mississippi",
        "StateAbbr":"MS",
        "City":"Duck Hill",
        "County":"Montgomery",
        "ZipCode":"38925",
        "Latitude":33.5632,
        "Longitude":-89.6419
    },
    {
        "State":"Mississippi",
        "StateAbbr":"MS",
        "City":"Winona",
        "County":"Montgomery",
        "ZipCode":"38967",
        "Latitude":33.4858,
        "Longitude":-89.7277
    },
    {
        "State":"Mississippi",
        "StateAbbr":"MS",
        "City":"Kilmichael",
        "County":"Montgomery",
        "ZipCode":"39747",
        "Latitude":33.4165,
        "Longitude":-89.5696
    },
    {
        "State":"Mississippi",
        "StateAbbr":"MS",
        "City":"Stewart",
        "County":"Montgomery",
        "ZipCode":"39767",
        "Latitude":33.5101,
        "Longitude":-89.479
    },
    {
        "State":"Mississippi",
        "StateAbbr":"MS",
        "City":"Philadelphia",
        "County":"Neshoba",
        "ZipCode":"39350",
        "Latitude":32.7572,
        "Longitude":-89.1154
    },
    {
        "State":"Mississippi",
        "StateAbbr":"MS",
        "City":"Union",
        "County":"Neshoba",
        "ZipCode":"39365",
        "Latitude":32.6439,
        "Longitude":-89.112
    },
    {
        "State":"Mississippi",
        "StateAbbr":"MS",
        "City":"Conehatta",
        "County":"Newton",
        "ZipCode":"39057",
        "Latitude":32.467,
        "Longitude":-89.269
    },
    {
        "State":"Mississippi",
        "StateAbbr":"MS",
        "City":"Chunky",
        "County":"Newton",
        "ZipCode":"39323",
        "Latitude":32.3505,
        "Longitude":-88.9551
    },
    {
        "State":"Mississippi",
        "StateAbbr":"MS",
        "City":"Decatur",
        "County":"Newton",
        "ZipCode":"39327",
        "Latitude":32.4358,
        "Longitude":-89.1168
    },
    {
        "State":"Mississippi",
        "StateAbbr":"MS",
        "City":"Hickory",
        "County":"Newton",
        "ZipCode":"39332",
        "Latitude":32.32,
        "Longitude":-89.0093
    },
    {
        "State":"Mississippi",
        "StateAbbr":"MS",
        "City":"Lawrence",
        "County":"Newton",
        "ZipCode":"39336",
        "Latitude":32.2876,
        "Longitude":-89.2724
    },
    {
        "State":"Mississippi",
        "StateAbbr":"MS",
        "City":"Little Rock",
        "County":"Newton",
        "ZipCode":"39337",
        "Latitude":32.5049,
        "Longitude":-88.9955
    },
    {
        "State":"Mississippi",
        "StateAbbr":"MS",
        "City":"Newton",
        "County":"Newton",
        "ZipCode":"39345",
        "Latitude":32.3244,
        "Longitude":-89.184
    },
    {
        "State":"Mississippi",
        "StateAbbr":"MS",
        "City":"Macon",
        "County":"Noxubee",
        "ZipCode":"39341",
        "Latitude":33.1027,
        "Longitude":-88.5781
    },
    {
        "State":"Mississippi",
        "StateAbbr":"MS",
        "City":"Shuqualak",
        "County":"Noxubee",
        "ZipCode":"39361",
        "Latitude":32.9769,
        "Longitude":-88.5594
    },
    {
        "State":"Mississippi",
        "StateAbbr":"MS",
        "City":"Brooksville",
        "County":"Noxubee",
        "ZipCode":"39739",
        "Latitude":33.2346,
        "Longitude":-88.5823
    },
    {
        "State":"Mississippi",
        "StateAbbr":"MS",
        "City":"Starkville",
        "County":"Oktibbeha",
        "ZipCode":"39759",
        "Latitude":33.4505,
        "Longitude":-88.8196
    },
    {
        "State":"Mississippi",
        "StateAbbr":"MS",
        "City":"Starkville",
        "County":"Oktibbeha",
        "ZipCode":"39760",
        "Latitude":33.4599,
        "Longitude":-88.8322
    },
    {
        "State":"Mississippi",
        "StateAbbr":"MS",
        "City":"Mississippi State",
        "County":"Oktibbeha",
        "ZipCode":"39762",
        "Latitude":33.4156,
        "Longitude":-88.7433
    },
    {
        "State":"Mississippi",
        "StateAbbr":"MS",
        "City":"Sturgis",
        "County":"Oktibbeha",
        "ZipCode":"39769",
        "Latitude":33.357,
        "Longitude":-89.0473
    },
    {
        "State":"Mississippi",
        "StateAbbr":"MS",
        "City":"Batesville",
        "County":"Panola",
        "ZipCode":"38606",
        "Latitude":34.3115,
        "Longitude":-89.9443
    },
    {
        "State":"Mississippi",
        "StateAbbr":"MS",
        "City":"Como",
        "County":"Panola",
        "ZipCode":"38619",
        "Latitude":34.5137,
        "Longitude":-89.9155
    },
    {
        "State":"Mississippi",
        "StateAbbr":"MS",
        "City":"Courtland",
        "County":"Panola",
        "ZipCode":"38620",
        "Latitude":34.2596,
        "Longitude":-89.9396
    },
    {
        "State":"Mississippi",
        "StateAbbr":"MS",
        "City":"Crenshaw",
        "County":"Panola",
        "ZipCode":"38621",
        "Latitude":34.4491,
        "Longitude":-90.1701
    },
    {
        "State":"Mississippi",
        "StateAbbr":"MS",
        "City":"Pope",
        "County":"Panola",
        "ZipCode":"38658",
        "Latitude":34.1906,
        "Longitude":-90.0027
    },
    {
        "State":"Mississippi",
        "StateAbbr":"MS",
        "City":"Sarah",
        "County":"Panola",
        "ZipCode":"38665",
        "Latitude":34.591,
        "Longitude":-90.162
    },
    {
        "State":"Mississippi",
        "StateAbbr":"MS",
        "City":"Sardis",
        "County":"Panola",
        "ZipCode":"38666",
        "Latitude":34.4276,
        "Longitude":-89.9221
    },
    {
        "State":"Mississippi",
        "StateAbbr":"MS",
        "City":"Carriere",
        "County":"Pearl River",
        "ZipCode":"39426",
        "Latitude":30.6178,
        "Longitude":-89.5779
    },
    {
        "State":"Mississippi",
        "StateAbbr":"MS",
        "City":"Mc Neill",
        "County":"Pearl River",
        "ZipCode":"39457",
        "Latitude":30.6669,
        "Longitude":-89.6734
    },
    {
        "State":"Mississippi",
        "StateAbbr":"MS",
        "City":"Nicholson",
        "County":"Pearl River",
        "ZipCode":"39463",
        "Latitude":30.5637,
        "Longitude":-89.5578
    },
    {
        "State":"Mississippi",
        "StateAbbr":"MS",
        "City":"Picayune",
        "County":"Pearl River",
        "ZipCode":"39466",
        "Latitude":30.5418,
        "Longitude":-89.691
    },
    {
        "State":"Mississippi",
        "StateAbbr":"MS",
        "City":"Poplarville",
        "County":"Pearl River",
        "ZipCode":"39470",
        "Latitude":30.8524,
        "Longitude":-89.5648
    },
    {
        "State":"Mississippi",
        "StateAbbr":"MS",
        "City":"Beaumont",
        "County":"Perry",
        "ZipCode":"39423",
        "Latitude":31.1693,
        "Longitude":-88.92
    },
    {
        "State":"Mississippi",
        "StateAbbr":"MS",
        "City":"New Augusta",
        "County":"Perry",
        "ZipCode":"39462",
        "Latitude":31.2026,
        "Longitude":-89.0367
    },
    {
        "State":"Mississippi",
        "StateAbbr":"MS",
        "City":"Ovett",
        "County":"Perry",
        "ZipCode":"39464",
        "Latitude":31.4738,
        "Longitude":-89.0396
    },
    {
        "State":"Mississippi",
        "StateAbbr":"MS",
        "City":"Richton",
        "County":"Perry",
        "ZipCode":"39476",
        "Latitude":31.3434,
        "Longitude":-88.9101
    },
    {
        "State":"Mississippi",
        "StateAbbr":"MS",
        "City":"Chatawa",
        "County":"Pike",
        "ZipCode":"39632",
        "Latitude":31.1145,
        "Longitude":-90.4875
    },
    {
        "State":"Mississippi",
        "StateAbbr":"MS",
        "City":"Fernwood",
        "County":"Pike",
        "ZipCode":"39635",
        "Latitude":31.1855,
        "Longitude":-90.449
    },
    {
        "State":"Mississippi",
        "StateAbbr":"MS",
        "City":"Mccomb",
        "County":"Pike",
        "ZipCode":"39648",
        "Latitude":31.1769,
        "Longitude":-90.4016
    },
    {
        "State":"Mississippi",
        "StateAbbr":"MS",
        "City":"Mccomb",
        "County":"Pike",
        "ZipCode":"39649",
        "Latitude":31.2438,
        "Longitude":-90.4532
    },
    {
        "State":"Mississippi",
        "StateAbbr":"MS",
        "City":"Magnolia",
        "County":"Pike",
        "ZipCode":"39652",
        "Latitude":31.1217,
        "Longitude":-90.4831
    },
    {
        "State":"Mississippi",
        "StateAbbr":"MS",
        "City":"Osyka",
        "County":"Pike",
        "ZipCode":"39657",
        "Latitude":31.0217,
        "Longitude":-90.479
    },
    {
        "State":"Mississippi",
        "StateAbbr":"MS",
        "City":"Summit",
        "County":"Pike",
        "ZipCode":"39666",
        "Latitude":31.2975,
        "Longitude":-90.4654
    },
    {
        "State":"Mississippi",
        "StateAbbr":"MS",
        "City":"Algoma",
        "County":"Pontotoc",
        "ZipCode":"38820",
        "Latitude":34.1715,
        "Longitude":-89.0328
    },
    {
        "State":"Mississippi",
        "StateAbbr":"MS",
        "City":"Ecru",
        "County":"Pontotoc",
        "ZipCode":"38841",
        "Latitude":34.3366,
        "Longitude":-89.0109
    },
    {
        "State":"Mississippi",
        "StateAbbr":"MS",
        "City":"Pontotoc",
        "County":"Pontotoc",
        "ZipCode":"38863",
        "Latitude":34.217,
        "Longitude":-88.9868
    },
    {
        "State":"Mississippi",
        "StateAbbr":"MS",
        "City":"Randolph",
        "County":"Pontotoc",
        "ZipCode":"38864",
        "Latitude":34.1617,
        "Longitude":-89.1795
    },
    {
        "State":"Mississippi",
        "StateAbbr":"MS",
        "City":"Sherman",
        "County":"Pontotoc",
        "ZipCode":"38869",
        "Latitude":34.3575,
        "Longitude":-88.8351
    },
    {
        "State":"Mississippi",
        "StateAbbr":"MS",
        "City":"Thaxton",
        "County":"Pontotoc",
        "ZipCode":"38871",
        "Latitude":34.3136,
        "Longitude":-89.1515
    },
    {
        "State":"Mississippi",
        "StateAbbr":"MS",
        "City":"Booneville",
        "County":"Prentiss",
        "ZipCode":"38829",
        "Latitude":34.6694,
        "Longitude":-88.5443
    },
    {
        "State":"Mississippi",
        "StateAbbr":"MS",
        "City":"Marietta",
        "County":"Prentiss",
        "ZipCode":"38856",
        "Latitude":34.5011,
        "Longitude":-88.4498
    },
    {
        "State":"Mississippi",
        "StateAbbr":"MS",
        "City":"New Site",
        "County":"Prentiss",
        "ZipCode":"38859",
        "Latitude":34.5315,
        "Longitude":-88.3875
    },
    {
        "State":"Mississippi",
        "StateAbbr":"MS",
        "City":"Wheeler",
        "County":"Prentiss",
        "ZipCode":"38880",
        "Latitude":34.6126,
        "Longitude":-88.5822
    },
    {
        "State":"Mississippi",
        "StateAbbr":"MS",
        "City":"Belen",
        "County":"Quitman",
        "ZipCode":"38609",
        "Latitude":34.2351,
        "Longitude":-90.2927
    },
    {
        "State":"Mississippi",
        "StateAbbr":"MS",
        "City":"Crowder",
        "County":"Quitman",
        "ZipCode":"38622",
        "Latitude":34.1731,
        "Longitude":-90.1364
    },
    {
        "State":"Mississippi",
        "StateAbbr":"MS",
        "City":"Darling",
        "County":"Quitman",
        "ZipCode":"38623",
        "Latitude":34.359,
        "Longitude":-90.2743
    },
    {
        "State":"Mississippi",
        "StateAbbr":"MS",
        "City":"Falcon",
        "County":"Quitman",
        "ZipCode":"38628",
        "Latitude":34.3932,
        "Longitude":-90.2565
    },
    {
        "State":"Mississippi",
        "StateAbbr":"MS",
        "City":"Lambert",
        "County":"Quitman",
        "ZipCode":"38643",
        "Latitude":34.1837,
        "Longitude":-90.263
    },
    {
        "State":"Mississippi",
        "StateAbbr":"MS",
        "City":"Marks",
        "County":"Quitman",
        "ZipCode":"38646",
        "Latitude":34.2607,
        "Longitude":-90.2816
    },
    {
        "State":"Mississippi",
        "StateAbbr":"MS",
        "City":"Vance",
        "County":"Quitman",
        "ZipCode":"38964",
        "Latitude":34.0936,
        "Longitude":-90.3752
    },
    {
        "State":"Mississippi",
        "StateAbbr":"MS",
        "City":"Brandon",
        "County":"Rankin",
        "ZipCode":"39042",
        "Latitude":32.3038,
        "Longitude":-89.964
    },
    {
        "State":"Mississippi",
        "StateAbbr":"MS",
        "City":"Brandon",
        "County":"Rankin",
        "ZipCode":"39043",
        "Latitude":32.269,
        "Longitude":-89.9875
    },
    {
        "State":"Mississippi",
        "StateAbbr":"MS",
        "City":"Brandon",
        "County":"Rankin",
        "ZipCode":"39047",
        "Latitude":32.3886,
        "Longitude":-89.9584
    },
    {
        "State":"Mississippi",
        "StateAbbr":"MS",
        "City":"Florence",
        "County":"Rankin",
        "ZipCode":"39073",
        "Latitude":32.1535,
        "Longitude":-90.1312
    },
    {
        "State":"Mississippi",
        "StateAbbr":"MS",
        "City":"Pelahatchie",
        "County":"Rankin",
        "ZipCode":"39145",
        "Latitude":32.318,
        "Longitude":-89.7913
    },
    {
        "State":"Mississippi",
        "StateAbbr":"MS",
        "City":"Piney Woods",
        "County":"Rankin",
        "ZipCode":"39148",
        "Latitude":32.0627,
        "Longitude":-89.9929
    },
    {
        "State":"Mississippi",
        "StateAbbr":"MS",
        "City":"Puckett",
        "County":"Rankin",
        "ZipCode":"39151",
        "Latitude":32.1062,
        "Longitude":-89.7836
    },
    {
        "State":"Mississippi",
        "StateAbbr":"MS",
        "City":"Sandhill",
        "County":"Rankin",
        "ZipCode":"39161",
        "Latitude":32.4983,
        "Longitude":-89.8686
    },
    {
        "State":"Mississippi",
        "StateAbbr":"MS",
        "City":"Star",
        "County":"Rankin",
        "ZipCode":"39167",
        "Latitude":32.094,
        "Longitude":-90.0462
    },
    {
        "State":"Mississippi",
        "StateAbbr":"MS",
        "City":"Whitfield",
        "County":"Rankin",
        "ZipCode":"39193",
        "Latitude":32.2348,
        "Longitude":-90.0726
    },
    {
        "State":"Mississippi",
        "StateAbbr":"MS",
        "City":"Pearl",
        "County":"Rankin",
        "ZipCode":"39208",
        "Latitude":32.2604,
        "Longitude":-90.0897
    },
    {
        "State":"Mississippi",
        "StateAbbr":"MS",
        "City":"Richland",
        "County":"Rankin",
        "ZipCode":"39218",
        "Latitude":32.2287,
        "Longitude":-90.1591
    },
    {
        "State":"Mississippi",
        "StateAbbr":"MS",
        "City":"Flowood",
        "County":"Rankin",
        "ZipCode":"39232",
        "Latitude":32.3299,
        "Longitude":-90.0915
    },
    {
        "State":"Mississippi",
        "StateAbbr":"MS",
        "City":"Pearl",
        "County":"Rankin",
        "ZipCode":"39288",
        "Latitude":32.2746,
        "Longitude":-90.132
    },
    {
        "State":"Mississippi",
        "StateAbbr":"MS",
        "City":"Jackson",
        "County":"Rankin",
        "ZipCode":"39298",
        "Latitude":32.3199,
        "Longitude":-89.9923
    },
    {
        "State":"Mississippi",
        "StateAbbr":"MS",
        "City":"Forest",
        "County":"Scott",
        "ZipCode":"39074",
        "Latitude":32.347,
        "Longitude":-89.4672
    },
    {
        "State":"Mississippi",
        "StateAbbr":"MS",
        "City":"Harperville",
        "County":"Scott",
        "ZipCode":"39080",
        "Latitude":32.4925,
        "Longitude":-89.4946
    },
    {
        "State":"Mississippi",
        "StateAbbr":"MS",
        "City":"Hillsboro",
        "County":"Scott",
        "ZipCode":"39087",
        "Latitude":32.4706,
        "Longitude":-89.5171
    },
    {
        "State":"Mississippi",
        "StateAbbr":"MS",
        "City":"Lake",
        "County":"Scott",
        "ZipCode":"39092",
        "Latitude":32.3459,
        "Longitude":-89.3414
    },
    {
        "State":"Mississippi",
        "StateAbbr":"MS",
        "City":"Ludlow",
        "County":"Scott",
        "ZipCode":"39098",
        "Latitude":32.566,
        "Longitude":-89.7135
    },
    {
        "State":"Mississippi",
        "StateAbbr":"MS",
        "City":"Morton",
        "County":"Scott",
        "ZipCode":"39117",
        "Latitude":32.4029,
        "Longitude":-89.5949
    },
    {
        "State":"Mississippi",
        "StateAbbr":"MS",
        "City":"Pulaski",
        "County":"Scott",
        "ZipCode":"39152",
        "Latitude":32.2745,
        "Longitude":-89.5627
    },
    {
        "State":"Mississippi",
        "StateAbbr":"MS",
        "City":"Sebastopol",
        "County":"Scott",
        "ZipCode":"39359",
        "Latitude":32.5729,
        "Longitude":-89.3351
    },
    {
        "State":"Mississippi",
        "StateAbbr":"MS",
        "City":"Anguilla",
        "County":"Sharkey",
        "ZipCode":"38721",
        "Latitude":32.9739,
        "Longitude":-90.8316
    },
    {
        "State":"Mississippi",
        "StateAbbr":"MS",
        "City":"Panther Burn",
        "County":"Sharkey",
        "ZipCode":"38765",
        "Latitude":33.0662,
        "Longitude":-90.8684
    },
    {
        "State":"Mississippi",
        "StateAbbr":"MS",
        "City":"Cary",
        "County":"Sharkey",
        "ZipCode":"39054",
        "Latitude":32.806,
        "Longitude":-90.9268
    },
    {
        "State":"Mississippi",
        "StateAbbr":"MS",
        "City":"Delta City",
        "County":"Sharkey",
        "ZipCode":"39061",
        "Latitude":33.074,
        "Longitude":-90.7951
    },
    {
        "State":"Mississippi",
        "StateAbbr":"MS",
        "City":"Rolling Fork",
        "County":"Sharkey",
        "ZipCode":"39159",
        "Latitude":32.8733,
        "Longitude":-90.8833
    },
    {
        "State":"Mississippi",
        "StateAbbr":"MS",
        "City":"Braxton",
        "County":"Simpson",
        "ZipCode":"39044",
        "Latitude":32.0016,
        "Longitude":-89.9672
    },
    {
        "State":"Mississippi",
        "StateAbbr":"MS",
        "City":"D Lo",
        "County":"Simpson",
        "ZipCode":"39062",
        "Latitude":31.9857,
        "Longitude":-89.9012
    },
    {
        "State":"Mississippi",
        "StateAbbr":"MS",
        "City":"Harrisville",
        "County":"Simpson",
        "ZipCode":"39082",
        "Latitude":31.9676,
        "Longitude":-90.1054
    },
    {
        "State":"Mississippi",
        "StateAbbr":"MS",
        "City":"Magee",
        "County":"Simpson",
        "ZipCode":"39111",
        "Latitude":31.8495,
        "Longitude":-89.7503
    },
    {
        "State":"Mississippi",
        "StateAbbr":"MS",
        "City":"Mendenhall",
        "County":"Simpson",
        "ZipCode":"39114",
        "Latitude":31.9494,
        "Longitude":-89.8095
    },
    {
        "State":"Mississippi",
        "StateAbbr":"MS",
        "City":"Pinola",
        "County":"Simpson",
        "ZipCode":"39149",
        "Latitude":31.8277,
        "Longitude":-90.0088
    },
    {
        "State":"Mississippi",
        "StateAbbr":"MS",
        "City":"Mize",
        "County":"Smith",
        "ZipCode":"39116",
        "Latitude":31.8473,
        "Longitude":-89.5741
    },
    {
        "State":"Mississippi",
        "StateAbbr":"MS",
        "City":"Raleigh",
        "County":"Smith",
        "ZipCode":"39153",
        "Latitude":32.0508,
        "Longitude":-89.5088
    },
    {
        "State":"Mississippi",
        "StateAbbr":"MS",
        "City":"Taylorsville",
        "County":"Smith",
        "ZipCode":"39168",
        "Latitude":31.8394,
        "Longitude":-89.4049
    },
    {
        "State":"Mississippi",
        "StateAbbr":"MS",
        "City":"Mc Henry",
        "County":"Stone",
        "ZipCode":"39561",
        "Latitude":30.6975,
        "Longitude":-89.1536
    },
    {
        "State":"Mississippi",
        "StateAbbr":"MS",
        "City":"Perkinston",
        "County":"Stone",
        "ZipCode":"39573",
        "Latitude":30.7669,
        "Longitude":-89.14
    },
    {
        "State":"Mississippi",
        "StateAbbr":"MS",
        "City":"Wiggins",
        "County":"Stone",
        "ZipCode":"39577",
        "Latitude":30.8609,
        "Longitude":-89.1324
    },
    {
        "State":"Mississippi",
        "StateAbbr":"MS",
        "City":"Doddsville",
        "County":"Sunflower",
        "ZipCode":"38736",
        "Latitude":33.63,
        "Longitude":-90.5264
    },
    {
        "State":"Mississippi",
        "StateAbbr":"MS",
        "City":"Drew",
        "County":"Sunflower",
        "ZipCode":"38737",
        "Latitude":33.867,
        "Longitude":-90.5406
    },
    {
        "State":"Mississippi",
        "StateAbbr":"MS",
        "City":"Parchman",
        "County":"Sunflower",
        "ZipCode":"38738",
        "Latitude":33.9179,
        "Longitude":-90.4965
    },
    {
        "State":"Mississippi",
        "StateAbbr":"MS",
        "City":"Indianola",
        "County":"Sunflower",
        "ZipCode":"38749",
        "Latitude":33.451,
        "Longitude":-90.6551
    },
    {
        "State":"Mississippi",
        "StateAbbr":"MS",
        "City":"Indianola",
        "County":"Sunflower",
        "ZipCode":"38751",
        "Latitude":33.451,
        "Longitude":-90.6551
    },
    {
        "State":"Mississippi",
        "StateAbbr":"MS",
        "City":"Inverness",
        "County":"Sunflower",
        "ZipCode":"38753",
        "Latitude":33.349,
        "Longitude":-90.6051
    },
    {
        "State":"Mississippi",
        "StateAbbr":"MS",
        "City":"Moorhead",
        "County":"Sunflower",
        "ZipCode":"38761",
        "Latitude":33.4783,
        "Longitude":-90.5143
    },
    {
        "State":"Mississippi",
        "StateAbbr":"MS",
        "City":"Rome",
        "County":"Sunflower",
        "ZipCode":"38768",
        "Latitude":33.9632,
        "Longitude":-90.4784
    },
    {
        "State":"Mississippi",
        "StateAbbr":"MS",
        "City":"Ruleville",
        "County":"Sunflower",
        "ZipCode":"38771",
        "Latitude":33.7241,
        "Longitude":-90.5527
    },
    {
        "State":"Mississippi",
        "StateAbbr":"MS",
        "City":"Sunflower",
        "County":"Sunflower",
        "ZipCode":"38778",
        "Latitude":33.5567,
        "Longitude":-90.5451
    },
    {
        "State":"Mississippi",
        "StateAbbr":"MS",
        "City":"Cascilla",
        "County":"Tallahatchie",
        "ZipCode":"38920",
        "Latitude":33.9079,
        "Longitude":-90.0362
    },
    {
        "State":"Mississippi",
        "StateAbbr":"MS",
        "City":"Charleston",
        "County":"Tallahatchie",
        "ZipCode":"38921",
        "Latitude":33.9726,
        "Longitude":-90.1116
    },
    {
        "State":"Mississippi",
        "StateAbbr":"MS",
        "City":"Enid",
        "County":"Tallahatchie",
        "ZipCode":"38927",
        "Latitude":34.1263,
        "Longitude":-90.0044
    },
    {
        "State":"Mississippi",
        "StateAbbr":"MS",
        "City":"Glendora",
        "County":"Tallahatchie",
        "ZipCode":"38928",
        "Latitude":33.8573,
        "Longitude":-90.288
    },
    {
        "State":"Mississippi",
        "StateAbbr":"MS",
        "City":"Philipp",
        "County":"Tallahatchie",
        "ZipCode":"38950",
        "Latitude":33.7574,
        "Longitude":-90.2091
    },
    {
        "State":"Mississippi",
        "StateAbbr":"MS",
        "City":"Sumner",
        "County":"Tallahatchie",
        "ZipCode":"38957",
        "Latitude":33.9833,
        "Longitude":-90.3895
    },
    {
        "State":"Mississippi",
        "StateAbbr":"MS",
        "City":"Swan Lake",
        "County":"Tallahatchie",
        "ZipCode":"38958",
        "Latitude":33.9292,
        "Longitude":-90.1885
    },
    {
        "State":"Mississippi",
        "StateAbbr":"MS",
        "City":"Tippo",
        "County":"Tallahatchie",
        "ZipCode":"38962",
        "Latitude":33.9121,
        "Longitude":-90.1806
    },
    {
        "State":"Mississippi",
        "StateAbbr":"MS",
        "City":"Tutwiler",
        "County":"Tallahatchie",
        "ZipCode":"38963",
        "Latitude":34.0148,
        "Longitude":-90.4318
    },
    {
        "State":"Mississippi",
        "StateAbbr":"MS",
        "City":"Webb",
        "County":"Tallahatchie",
        "ZipCode":"38966",
        "Latitude":33.9473,
        "Longitude":-90.3443
    },
    {
        "State":"Mississippi",
        "StateAbbr":"MS",
        "City":"Arkabutla",
        "County":"Tate",
        "ZipCode":"38602",
        "Latitude":34.6863,
        "Longitude":-90.1068
    },
    {
        "State":"Mississippi",
        "StateAbbr":"MS",
        "City":"Coldwater",
        "County":"Tate",
        "ZipCode":"38618",
        "Latitude":34.6924,
        "Longitude":-89.9869
    },
    {
        "State":"Mississippi",
        "StateAbbr":"MS",
        "City":"Independence",
        "County":"Tate",
        "ZipCode":"38638",
        "Latitude":34.6959,
        "Longitude":-89.8288
    },
    {
        "State":"Mississippi",
        "StateAbbr":"MS",
        "City":"Senatobia",
        "County":"Tate",
        "ZipCode":"38668",
        "Latitude":34.6323,
        "Longitude":-89.8855
    },
    {
        "State":"Mississippi",
        "StateAbbr":"MS",
        "City":"Blue Mountain",
        "County":"Tippah",
        "ZipCode":"38610",
        "Latitude":34.671,
        "Longitude":-89.0088
    },
    {
        "State":"Mississippi",
        "StateAbbr":"MS",
        "City":"Dumas",
        "County":"Tippah",
        "ZipCode":"38625",
        "Latitude":34.6491,
        "Longitude":-88.8072
    },
    {
        "State":"Mississippi",
        "StateAbbr":"MS",
        "City":"Falkner",
        "County":"Tippah",
        "ZipCode":"38629",
        "Latitude":34.8417,
        "Longitude":-88.9525
    },
    {
        "State":"Mississippi",
        "StateAbbr":"MS",
        "City":"Ripley",
        "County":"Tippah",
        "ZipCode":"38663",
        "Latitude":34.7509,
        "Longitude":-88.924
    },
    {
        "State":"Mississippi",
        "StateAbbr":"MS",
        "City":"Tiplersville",
        "County":"Tippah",
        "ZipCode":"38674",
        "Latitude":34.9029,
        "Longitude":-88.9157
    },
    {
        "State":"Mississippi",
        "StateAbbr":"MS",
        "City":"Walnut",
        "County":"Tippah",
        "ZipCode":"38683",
        "Latitude":34.9527,
        "Longitude":-88.9053
    },
    {
        "State":"Mississippi",
        "StateAbbr":"MS",
        "City":"Belmont",
        "County":"Tishomingo",
        "ZipCode":"38827",
        "Latitude":34.5102,
        "Longitude":-88.2309
    },
    {
        "State":"Mississippi",
        "StateAbbr":"MS",
        "City":"Burnsville",
        "County":"Tishomingo",
        "ZipCode":"38833",
        "Latitude":34.8579,
        "Longitude":-88.307
    },
    {
        "State":"Mississippi",
        "StateAbbr":"MS",
        "City":"Dennis",
        "County":"Tishomingo",
        "ZipCode":"38838",
        "Latitude":34.5497,
        "Longitude":-88.2117
    },
    {
        "State":"Mississippi",
        "StateAbbr":"MS",
        "City":"Iuka",
        "County":"Tishomingo",
        "ZipCode":"38852",
        "Latitude":34.8089,
        "Longitude":-88.1983
    },
    {
        "State":"Mississippi",
        "StateAbbr":"MS",
        "City":"Tishomingo",
        "County":"Tishomingo",
        "ZipCode":"38873",
        "Latitude":34.6478,
        "Longitude":-88.2194
    },