[
    {
        "State":"Tennessee",
        "StateAbbr":"TN",
        "City":"Andersonville",
        "County":"Anderson",
        "ZipCode":"37705",
        "Latitude":36.1915,
        "Longitude":-84.0544
    },
    {
        "State":"Tennessee",
        "StateAbbr":"TN",
        "City":"Briceville",
        "County":"Anderson",
        "ZipCode":"37710",
        "Latitude":36.1626,
        "Longitude":-84.2992
    },
    {
        "State":"Tennessee",
        "StateAbbr":"TN",
        "City":"Clinton",
        "County":"Anderson",
        "ZipCode":"37716",
        "Latitude":36.0869,
        "Longitude":-84.1897
    },
    {
        "State":"Tennessee",
        "StateAbbr":"TN",
        "City":"Clinton",
        "County":"Anderson",
        "ZipCode":"37717",
        "Latitude":36.11,
        "Longitude":-84.1672
    },
    {
        "State":"Tennessee",
        "StateAbbr":"TN",
        "City":"Lake City",
        "County":"Anderson",
        "ZipCode":"37769",
        "Latitude":36.2032,
        "Longitude":-84.1386
    },
    {
        "State":"Tennessee",
        "StateAbbr":"TN",
        "City":"Norris",
        "County":"Anderson",
        "ZipCode":"37828",
        "Latitude":36.2005,
        "Longitude":-84.0858
    },
    {
        "State":"Tennessee",
        "StateAbbr":"TN",
        "City":"Oak Ridge",
        "County":"Anderson",
        "ZipCode":"37830",
        "Latitude":36.0159,
        "Longitude":-84.2623
    },
    {
        "State":"Tennessee",
        "StateAbbr":"TN",
        "City":"Oak Ridge",
        "County":"Anderson",
        "ZipCode":"37831",
        "Latitude":36.106,
        "Longitude":-84.1958
    },
    {
        "State":"Tennessee",
        "StateAbbr":"TN",
        "City":"Bell Buckle",
        "County":"Bedford",
        "ZipCode":"37020",
        "Latitude":35.6381,
        "Longitude":-86.3949
    },
    {
        "State":"Tennessee",
        "StateAbbr":"TN",
        "City":"Shelbyville",
        "County":"Bedford",
        "ZipCode":"37160",
        "Latitude":35.4863,
        "Longitude":-86.4624
    },
    {
        "State":"Tennessee",
        "StateAbbr":"TN",
        "City":"Shelbyville",
        "County":"Bedford",
        "ZipCode":"37161",
        "Latitude":35.4834,
        "Longitude":-86.4603
    },
    {
        "State":"Tennessee",
        "StateAbbr":"TN",
        "City":"Shelbyville",
        "County":"Bedford",
        "ZipCode":"37162",
        "Latitude":35.5108,
        "Longitude":-86.45
    },
    {
        "State":"Tennessee",
        "StateAbbr":"TN",
        "City":"Unionville",
        "County":"Bedford",
        "ZipCode":"37180",
        "Latitude":35.6224,
        "Longitude":-86.5639
    },
    {
        "State":"Tennessee",
        "StateAbbr":"TN",
        "City":"Wartrace",
        "County":"Bedford",
        "ZipCode":"37183",
        "Latitude":35.5123,
        "Longitude":-86.3277
    },
    {
        "State":"Tennessee",
        "StateAbbr":"TN",
        "City":"Normandy",
        "County":"Bedford",
        "ZipCode":"37360",
        "Latitude":35.4296,
        "Longitude":-86.2557
    },
    {
        "State":"Tennessee",
        "StateAbbr":"TN",
        "City":"Big Sandy",
        "County":"Benton",
        "ZipCode":"38221",
        "Latitude":36.2285,
        "Longitude":-88.0627
    },
    {
        "State":"Tennessee",
        "StateAbbr":"TN",
        "City":"Camden",
        "County":"Benton",
        "ZipCode":"38320",
        "Latitude":36.0556,
        "Longitude":-88.1119
    },
    {
        "State":"Tennessee",
        "StateAbbr":"TN",
        "City":"Eva",
        "County":"Benton",
        "ZipCode":"38333",
        "Latitude":36.1142,
        "Longitude":-87.982
    },
    {
        "State":"Tennessee",
        "StateAbbr":"TN",
        "City":"Holladay",
        "County":"Benton",
        "ZipCode":"38341",
        "Latitude":35.8951,
        "Longitude":-88.0912
    },
    {
        "State":"Tennessee",
        "StateAbbr":"TN",
        "City":"Pikeville",
        "County":"Bledsoe",
        "ZipCode":"37367",
        "Latitude":35.6408,
        "Longitude":-85.2077
    },
    {
        "State":"Tennessee",
        "StateAbbr":"TN",
        "City":"Alcoa",
        "County":"Blount",
        "ZipCode":"37701",
        "Latitude":35.7852,
        "Longitude":-83.9809
    },
    {
        "State":"Tennessee",
        "StateAbbr":"TN",
        "City":"Friendsville",
        "County":"Blount",
        "ZipCode":"37737",
        "Latitude":35.7523,
        "Longitude":-84.1061
    },
    {
        "State":"Tennessee",
        "StateAbbr":"TN",
        "City":"Louisville",
        "County":"Blount",
        "ZipCode":"37777",
        "Latitude":35.8375,
        "Longitude":-84.0089
    },
    {
        "State":"Tennessee",
        "StateAbbr":"TN",
        "City":"Maryville",
        "County":"Blount",
        "ZipCode":"37801",
        "Latitude":35.6884,
        "Longitude":-84.0769
    },
    {
        "State":"Tennessee",
        "StateAbbr":"TN",
        "City":"Maryville",
        "County":"Blount",
        "ZipCode":"37802",
        "Latitude":35.7565,
        "Longitude":-83.9705
    },
    {
        "State":"Tennessee",
        "StateAbbr":"TN",
        "City":"Maryville",
        "County":"Blount",
        "ZipCode":"37803",
        "Latitude":35.6539,
        "Longitude":-83.9956
    },
    {
        "State":"Tennessee",
        "StateAbbr":"TN",
        "City":"Maryville",
        "County":"Blount",
        "ZipCode":"37804",
        "Latitude":35.7991,
        "Longitude":-83.8852
    },
    {
        "State":"Tennessee",
        "StateAbbr":"TN",
        "City":"Rockford",
        "County":"Blount",
        "ZipCode":"37853",
        "Latitude":35.8305,
        "Longitude":-83.9412
    },
    {
        "State":"Tennessee",
        "StateAbbr":"TN",
        "City":"Tallassee",
        "County":"Blount",
        "ZipCode":"37878",
        "Latitude":35.5844,
        "Longitude":-83.9923
    },
    {
        "State":"Tennessee",
        "StateAbbr":"TN",
        "City":"Townsend",
        "County":"Blount",
        "ZipCode":"37882",
        "Latitude":35.6784,
        "Longitude":-83.7572
    },
    {
        "State":"Tennessee",
        "StateAbbr":"TN",
        "City":"Walland",
        "County":"Blount",
        "ZipCode":"37886",
        "Latitude":35.7533,
        "Longitude":-83.8243
    },
    {
        "State":"Tennessee",
        "StateAbbr":"TN",
        "City":"Charleston",
        "County":"Bradley",
        "ZipCode":"37310",
        "Latitude":35.2556,
        "Longitude":-84.7666
    },
    {
        "State":"Tennessee",
        "StateAbbr":"TN",
        "City":"Cleveland",
        "County":"Bradley",
        "ZipCode":"37311",
        "Latitude":35.1313,
        "Longitude":-84.875
    },
    {
        "State":"Tennessee",
        "StateAbbr":"TN",
        "City":"Cleveland",
        "County":"Bradley",
        "ZipCode":"37312",
        "Latitude":35.2023,
        "Longitude":-84.8476
    },
    {
        "State":"Tennessee",
        "StateAbbr":"TN",
        "City":"Cleveland",
        "County":"Bradley",
        "ZipCode":"37320",
        "Latitude":35.1727,
        "Longitude":-84.8619
    },
    {
        "State":"Tennessee",
        "StateAbbr":"TN",
        "City":"Cleveland",
        "County":"Bradley",
        "ZipCode":"37323",
        "Latitude":35.1361,
        "Longitude":-84.8457
    },
    {
        "State":"Tennessee",
        "StateAbbr":"TN",
        "City":"Mc Donald",
        "County":"Bradley",
        "ZipCode":"37353",
        "Latitude":35.0869,
        "Longitude":-84.9892
    },
    {
        "State":"Tennessee",
        "StateAbbr":"TN",
        "City":"Cleveland",
        "County":"Bradley",
        "ZipCode":"37364",
        "Latitude":35.1727,
        "Longitude":-84.8619
    },
    {
        "State":"Tennessee",
        "StateAbbr":"TN",
        "City":"Caryville",
        "County":"Campbell",
        "ZipCode":"37714",
        "Latitude":36.3028,
        "Longitude":-84.203
    },
    {
        "State":"Tennessee",
        "StateAbbr":"TN",
        "City":"Duff",
        "County":"Campbell",
        "ZipCode":"37729",
        "Latitude":36.5086,
        "Longitude":-84.0454
    },
    {
        "State":"Tennessee",
        "StateAbbr":"TN",
        "City":"Jacksboro",
        "County":"Campbell",
        "ZipCode":"37757",
        "Latitude":36.3266,
        "Longitude":-84.1928
    },
    {
        "State":"Tennessee",
        "StateAbbr":"TN",
        "City":"Jellico",
        "County":"Campbell",
        "ZipCode":"37762",
        "Latitude":36.577,
        "Longitude":-84.126
    },
    {
        "State":"Tennessee",
        "StateAbbr":"TN",
        "City":"La Follette",
        "County":"Campbell",
        "ZipCode":"37766",
        "Latitude":36.4248,
        "Longitude":-84.0907
    },
    {
        "State":"Tennessee",
        "StateAbbr":"TN",
        "City":"Newcomb",
        "County":"Campbell",
        "ZipCode":"37819",
        "Latitude":36.5428,
        "Longitude":-84.1798
    },
    {
        "State":"Tennessee",
        "StateAbbr":"TN",
        "City":"Pioneer",
        "County":"Campbell",
        "ZipCode":"37847",
        "Latitude":36.4695,
        "Longitude":-84.2907
    },
    {
        "State":"Tennessee",
        "StateAbbr":"TN",
        "City":"Auburntown",
        "County":"Cannon",
        "ZipCode":"37016",
        "Latitude":35.9338,
        "Longitude":-86.1126
    },
    {
        "State":"Tennessee",
        "StateAbbr":"TN",
        "City":"Bradyville",
        "County":"Cannon",
        "ZipCode":"37026",
        "Latitude":35.7053,
        "Longitude":-86.0912
    },
    {
        "State":"Tennessee",
        "StateAbbr":"TN",
        "City":"Readyville",
        "County":"Cannon",
        "ZipCode":"37149",
        "Latitude":35.7989,
        "Longitude":-86.2415
    },
    {
        "State":"Tennessee",
        "StateAbbr":"TN",
        "City":"Woodbury",
        "County":"Cannon",
        "ZipCode":"37190",
        "Latitude":35.8143,
        "Longitude":-86.05
    },
    {
        "State":"Tennessee",
        "StateAbbr":"TN",
        "City":"Mc Kenzie",
        "County":"Carroll",
        "ZipCode":"38201",
        "Latitude":36.1272,
        "Longitude":-88.5134
    },
    {
        "State":"Tennessee",
        "StateAbbr":"TN",
        "City":"Atwood",
        "County":"Carroll",
        "ZipCode":"38220",
        "Latitude":35.9663,
        "Longitude":-88.6247
    },
    {
        "State":"Tennessee",
        "StateAbbr":"TN",
        "City":"Mc Lemoresville",
        "County":"Carroll",
        "ZipCode":"38235",
        "Latitude":35.9778,
        "Longitude":-88.5744
    },
    {
        "State":"Tennessee",
        "StateAbbr":"TN",
        "City":"Trezevant",
        "County":"Carroll",
        "ZipCode":"38258",
        "Latitude":36.0172,
        "Longitude":-88.61
    },
    {
        "State":"Tennessee",
        "StateAbbr":"TN",
        "City":"Bruceton",
        "County":"Carroll",
        "ZipCode":"38317",
        "Latitude":36.0268,
        "Longitude":-88.2518
    },
    {
        "State":"Tennessee",
        "StateAbbr":"TN",
        "City":"Buena Vista",
        "County":"Carroll",
        "ZipCode":"38318",
        "Latitude":35.9431,
        "Longitude":-88.2926
    },
    {
        "State":"Tennessee",
        "StateAbbr":"TN",
        "City":"Cedar Grove",
        "County":"Carroll",
        "ZipCode":"38321",
        "Latitude":35.8613,
        "Longitude":-88.5517
    },
    {
        "State":"Tennessee",
        "StateAbbr":"TN",
        "City":"Clarksburg",
        "County":"Carroll",
        "ZipCode":"38324",
        "Latitude":35.8675,
        "Longitude":-88.3934
    },
    {
        "State":"Tennessee",
        "StateAbbr":"TN",
        "City":"Hollow Rock",
        "County":"Carroll",
        "ZipCode":"38342",
        "Latitude":36.0381,
        "Longitude":-88.2737
    },
    {
        "State":"Tennessee",
        "StateAbbr":"TN",
        "City":"Huntingdon",
        "County":"Carroll",
        "ZipCode":"38344",
        "Latitude":36.0062,
        "Longitude":-88.4202
    },
    {
        "State":"Tennessee",
        "StateAbbr":"TN",
        "City":"Lavinia",
        "County":"Carroll",
        "ZipCode":"38348",
        "Latitude":35.8583,
        "Longitude":-88.6324
    },
    {
        "State":"Tennessee",
        "StateAbbr":"TN",
        "City":"Westport",
        "County":"Carroll",
        "ZipCode":"38387",
        "Latitude":35.8845,
        "Longitude":-88.2892
    },
    {
        "State":"Tennessee",
        "StateAbbr":"TN",
        "City":"Yuma",
        "County":"Carroll",
        "ZipCode":"38390",
        "Latitude":35.868,
        "Longitude":-88.3819
    },
    {
        "State":"Tennessee",
        "StateAbbr":"TN",
        "City":"Elizabethton",
        "County":"Carter",
        "ZipCode":"37643",
        "Latitude":36.3445,
        "Longitude":-82.2015
    },
    {
        "State":"Tennessee",
        "StateAbbr":"TN",
        "City":"Elizabethton",
        "County":"Carter",
        "ZipCode":"37644",
        "Latitude":36.3487,
        "Longitude":-82.2107
    },
    {
        "State":"Tennessee",
        "StateAbbr":"TN",
        "City":"Hampton",
        "County":"Carter",
        "ZipCode":"37658",
        "Latitude":36.2577,
        "Longitude":-82.1891
    },
    {
        "State":"Tennessee",
        "StateAbbr":"TN",
        "City":"Milligan College",
        "County":"Carter",
        "ZipCode":"37682",
        "Latitude":36.296,
        "Longitude":-82.3054
    },
    {
        "State":"Tennessee",
        "StateAbbr":"TN",
        "City":"Roan Mountain",
        "County":"Carter",
        "ZipCode":"37687",
        "Latitude":36.1773,
        "Longitude":-82.081
    },
    {
        "State":"Tennessee",
        "StateAbbr":"TN",
        "City":"Watauga",
        "County":"Carter",
        "ZipCode":"37694",
        "Latitude":36.3702,
        "Longitude":-82.2683
    },
    {
        "State":"Tennessee",
        "StateAbbr":"TN",
        "City":"Ashland City",
        "County":"Cheatham",
        "ZipCode":"37015",
        "Latitude":36.2731,
        "Longitude":-87.0447
    },
    {
        "State":"Tennessee",
        "StateAbbr":"TN",
        "City":"Chapmansboro",
        "County":"Cheatham",
        "ZipCode":"37035",
        "Latitude":36.3768,
        "Longitude":-87.1127
    },
    {
        "State":"Tennessee",
        "StateAbbr":"TN",
        "City":"Kingston Springs",
        "County":"Cheatham",
        "ZipCode":"37082",
        "Latitude":36.0953,
        "Longitude":-87.1156
    },
    {
        "State":"Tennessee",
        "StateAbbr":"TN",
        "City":"Pegram",
        "County":"Cheatham",
        "ZipCode":"37143",
        "Latitude":36.1129,
        "Longitude":-87.0316
    },
    {
        "State":"Tennessee",
        "StateAbbr":"TN",
        "City":"Pleasant View",
        "County":"Cheatham",
        "ZipCode":"37146",
        "Latitude":36.3783,
        "Longitude":-87.0395
    },
    {
        "State":"Tennessee",
        "StateAbbr":"TN",
        "City":"Enville",
        "County":"Chester",
        "ZipCode":"38332",
        "Latitude":35.4393,
        "Longitude":-88.4206
    },
    {
        "State":"Tennessee",
        "StateAbbr":"TN",
        "City":"Henderson",
        "County":"Chester",
        "ZipCode":"38340",
        "Latitude":35.4269,
        "Longitude":-88.6398
    },
    {
        "State":"Tennessee",
        "StateAbbr":"TN",
        "City":"Jacks Creek",
        "County":"Chester",
        "ZipCode":"38347",
        "Latitude":35.4782,
        "Longitude":-88.5019
    },
    {
        "State":"Tennessee",
        "StateAbbr":"TN",
        "City":"Luray",
        "County":"Chester",
        "ZipCode":"38352",
        "Latitude":35.5355,
        "Longitude":-88.5379
    },
    {
        "State":"Tennessee",
        "StateAbbr":"TN",
        "City":"Arthur",
        "County":"Claiborne",
        "ZipCode":"37707",
        "Latitude":36.5481,
        "Longitude":-83.6707
    },
    {
        "State":"Tennessee",
        "StateAbbr":"TN",
        "City":"Clairfield",
        "County":"Claiborne",
        "ZipCode":"37715",
        "Latitude":36.565,
        "Longitude":-83.9397
    },
    {
        "State":"Tennessee",
        "StateAbbr":"TN",
        "City":"Cumberland Gap",
        "County":"Claiborne",
        "ZipCode":"37724",
        "Latitude":36.5504,
        "Longitude":-83.681
    },
    {
        "State":"Tennessee",
        "StateAbbr":"TN",
        "City":"Eagan",
        "County":"Claiborne",
        "ZipCode":"37730",
        "Latitude":36.552,
        "Longitude":-83.9769
    },
    {
        "State":"Tennessee",
        "StateAbbr":"TN",
        "City":"Harrogate",
        "County":"Claiborne",
        "ZipCode":"37752",
        "Latitude":36.5767,
        "Longitude":-83.6073
    },
    {
        "State":"Tennessee",
        "StateAbbr":"TN",
        "City":"Lone Mountain",
        "County":"Claiborne",
        "ZipCode":"37773",
        "Latitude":36.3906,
        "Longitude":-83.5849
    },
    {
        "State":"Tennessee",
        "StateAbbr":"TN",
        "City":"New Tazewell",
        "County":"Claiborne",
        "ZipCode":"37824",
        "Latitude":36.45,
        "Longitude":-83.5911
    },
    {
        "State":"Tennessee",
        "StateAbbr":"TN",
        "City":"New Tazewell",
        "County":"Claiborne",
        "ZipCode":"37825",
        "Latitude":36.4245,
        "Longitude":-83.6469
    },
    {
        "State":"Tennessee",
        "StateAbbr":"TN",
        "City":"Pruden",
        "County":"Claiborne",
        "ZipCode":"37851",
        "Latitude":36.5862,
        "Longitude":-83.901
    },
    {
        "State":"Tennessee",
        "StateAbbr":"TN",
        "City":"Shawanee",
        "County":"Claiborne",
        "ZipCode":"37867",
        "Latitude":36.5803,
        "Longitude":-83.6473
    },
    {
        "State":"Tennessee",
        "StateAbbr":"TN",
        "City":"Speedwell",
        "County":"Claiborne",
        "ZipCode":"37870",
        "Latitude":36.4797,
        "Longitude":-83.8135
    },
    {
        "State":"Tennessee",
        "StateAbbr":"TN",
        "City":"Tazewell",
        "County":"Claiborne",
        "ZipCode":"37879",
        "Latitude":36.471,
        "Longitude":-83.5552
    },
    {
        "State":"Tennessee",
        "StateAbbr":"TN",
        "City":"Celina",
        "County":"Clay",
        "ZipCode":"38551",
        "Latitude":36.5475,
        "Longitude":-85.4966
    },
    {
        "State":"Tennessee",
        "StateAbbr":"TN",
        "City":"Moss",
        "County":"Clay",
        "ZipCode":"38575",
        "Latitude":36.5966,
        "Longitude":-85.6772
    },
    {
        "State":"Tennessee",
        "StateAbbr":"TN",
        "City":"Bybee",
        "County":"Cocke",
        "ZipCode":"37713",
        "Latitude":36.0482,
        "Longitude":-83.1793
    },
    {
        "State":"Tennessee",
        "StateAbbr":"TN",
        "City":"Cosby",
        "County":"Cocke",
        "ZipCode":"37722",
        "Latitude":35.8347,
        "Longitude":-83.2187
    },
    {
        "State":"Tennessee",
        "StateAbbr":"TN",
        "City":"Del Rio",
        "County":"Cocke",
        "ZipCode":"37727",
        "Latitude":35.883,
        "Longitude":-83.015
    },
    {
        "State":"Tennessee",
        "StateAbbr":"TN",
        "City":"Hartford",
        "County":"Cocke",
        "ZipCode":"37753",
        "Latitude":35.8256,
        "Longitude":-83.0996
    },
    {
        "State":"Tennessee",
        "StateAbbr":"TN",
        "City":"Newport",
        "County":"Cocke",
        "ZipCode":"37821",
        "Latitude":35.9544,
        "Longitude":-83.2027
    },
    {
        "State":"Tennessee",
        "StateAbbr":"TN",
        "City":"Newport",
        "County":"Cocke",
        "ZipCode":"37822",
        "Latitude":35.967,
        "Longitude":-83.1877
    },
    {
        "State":"Tennessee",
        "StateAbbr":"TN",
        "City":"Parrottsville",
        "County":"Cocke",
        "ZipCode":"37843",
        "Latitude":35.9983,
        "Longitude":-83.0736
    },
    {
        "State":"Tennessee",
        "StateAbbr":"TN",
        "City":"Beechgrove",
        "County":"Coffee",
        "ZipCode":"37018",
        "Latitude":35.6447,
        "Longitude":-86.2046
    },
    {
        "State":"Tennessee",
        "StateAbbr":"TN",
        "City":"Hillsboro",
        "County":"Coffee",
        "ZipCode":"37342",
        "Latitude":35.3699,
        "Longitude":-85.9724
    },
    {
        "State":"Tennessee",
        "StateAbbr":"TN",
        "City":"Manchester",
        "County":"Coffee",
        "ZipCode":"37349",
        "Latitude":35.4976,
        "Longitude":-86.0748
    },
    {
        "State":"Tennessee",
        "StateAbbr":"TN",
        "City":"Manchester",
        "County":"Coffee",
        "ZipCode":"37355",
        "Latitude":35.4958,
        "Longitude":-86.0816
    },
    {
        "State":"Tennessee",
        "StateAbbr":"TN",
        "City":"Summitville",
        "County":"Coffee",
        "ZipCode":"37382",
        "Latitude":35.5595,
        "Longitude":-85.9925
    },
    {
        "State":"Tennessee",
        "StateAbbr":"TN",
        "City":"Tullahoma",
        "County":"Coffee",
        "ZipCode":"37388",
        "Latitude":35.3468,
        "Longitude":-86.22
    },
    {
        "State":"Tennessee",
        "StateAbbr":"TN",
        "City":"Arnold Afb",
        "County":"Coffee",
        "ZipCode":"37389",
        "Latitude":35.4976,
        "Longitude":-86.0748
    },
    {
        "State":"Tennessee",
        "StateAbbr":"TN",
        "City":"Alamo",
        "County":"Crockett",
        "ZipCode":"38001",
        "Latitude":35.8017,
        "Longitude":-89.1765
    },
    {
        "State":"Tennessee",
        "StateAbbr":"TN",
        "City":"Bells",
        "County":"Crockett",
        "ZipCode":"38006",
        "Latitude":35.7198,
        "Longitude":-89.0729
    },
    {
        "State":"Tennessee",
        "StateAbbr":"TN",
        "City":"Crockett Mills",
        "County":"Crockett",
        "ZipCode":"38021",
        "Latitude":35.8676,
        "Longitude":-89.1692
    },
    {
        "State":"Tennessee",
        "StateAbbr":"TN",
        "City":"Friendship",
        "County":"Crockett",
        "ZipCode":"38034",
        "Latitude":35.909,
        "Longitude":-89.2453
    },
    {
        "State":"Tennessee",
        "StateAbbr":"TN",
        "City":"Maury City",
        "County":"Crockett",
        "ZipCode":"38050",
        "Latitude":35.8379,
        "Longitude":-89.2273
    },
    {
        "State":"Tennessee",
        "StateAbbr":"TN",
        "City":"Fruitvale",
        "County":"Crockett",
        "ZipCode":"38336",
        "Latitude":35.7484,
        "Longitude":-89.0327
    },
    {
        "State":"Tennessee",
        "StateAbbr":"TN",
        "City":"Gadsden",
        "County":"Crockett",
        "ZipCode":"38337",
        "Latitude":35.7799,
        "Longitude":-88.9929
    },
    {
        "State":"Tennessee",
        "StateAbbr":"TN",
        "City":"Crab Orchard",
        "County":"Cumberland",
        "ZipCode":"37723",
        "Latitude":35.9537,
        "Longitude":-84.8205
    },
    {
        "State":"Tennessee",
        "StateAbbr":"TN",
        "City":"Crossville",
        "County":"Cumberland",
        "ZipCode":"38555",
        "Latitude":35.9623,
        "Longitude":-85.0514
    },
    {
        "State":"Tennessee",
        "StateAbbr":"TN",
        "City":"Crossville",
        "County":"Cumberland",
        "ZipCode":"38557",
        "Latitude":35.9885,
        "Longitude":-85.0124
    },
    {
        "State":"Tennessee",
        "StateAbbr":"TN",
        "City":"Crossville",
        "County":"Cumberland",
        "ZipCode":"38558",
        "Latitude":36.0077,
        "Longitude":-84.8719
    },
    {
        "State":"Tennessee",
        "StateAbbr":"TN",
        "City":"Crossville",
        "County":"Cumberland",
        "ZipCode":"38571",
        "Latitude":36.0527,
        "Longitude":-85.0138
    },
    {
        "State":"Tennessee",
        "StateAbbr":"TN",
        "City":"Crossville",
        "County":"Cumberland",
        "ZipCode":"38572",
        "Latitude":35.8487,
        "Longitude":-85.1308
    },
    {
        "State":"Tennessee",
        "StateAbbr":"TN",
        "City":"Pleasant Hill",
        "County":"Cumberland",
        "ZipCode":"38578",
        "Latitude":35.9813,
        "Longitude":-85.1984
    },
    {
        "State":"Tennessee",
        "StateAbbr":"TN",
        "City":"Antioch",
        "County":"Davidson",
        "ZipCode":"37011",
        "Latitude":36.0601,
        "Longitude":-86.6722
    },
    {
        "State":"Tennessee",
        "StateAbbr":"TN",
        "City":"Antioch",
        "County":"Davidson",
        "ZipCode":"37013",
        "Latitude":36.0595,
        "Longitude":-86.6592
    },
    {
        "State":"Tennessee",
        "StateAbbr":"TN",
        "City":"Goodlettsville",
        "County":"Davidson",
        "ZipCode":"37070",
        "Latitude":36.3231,
        "Longitude":-86.7133
    },
    {
        "State":"Tennessee",
        "StateAbbr":"TN",
        "City":"Goodlettsville",
        "County":"Davidson",
        "ZipCode":"37072",
        "Latitude":36.3417,
        "Longitude":-86.7212
    },
    {
        "State":"Tennessee",
        "StateAbbr":"TN",
        "City":"Hermitage",
        "County":"Davidson",
        "ZipCode":"37076",
        "Latitude":36.1848,
        "Longitude":-86.6002
    },
    {
        "State":"Tennessee",
        "StateAbbr":"TN",
        "City":"Joelton",
        "County":"Davidson",
        "ZipCode":"37080",
        "Latitude":36.329,
        "Longitude":-86.9163
    },
    {
        "State":"Tennessee",
        "StateAbbr":"TN",
        "City":"Madison",
        "County":"Davidson",
        "ZipCode":"37115",
        "Latitude":36.2604,
        "Longitude":-86.7046
    },
    {
        "State":"Tennessee",
        "StateAbbr":"TN",
        "City":"Madison",
        "County":"Davidson",
        "ZipCode":"37116",
        "Latitude":36.1866,
        "Longitude":-86.7852
    },
    {
        "State":"Tennessee",
        "StateAbbr":"TN",
        "City":"Old Hickory",
        "County":"Davidson",
        "ZipCode":"37138",
        "Latitude":36.2416,
        "Longitude":-86.6117
    },
    {
        "State":"Tennessee",
        "StateAbbr":"TN",
        "City":"Whites Creek",
        "County":"Davidson",
        "ZipCode":"37189",
        "Latitude":36.2744,
        "Longitude":-86.8292
    },
    {
        "State":"Tennessee",
        "StateAbbr":"TN",
        "City":"Nashville",
        "County":"Davidson",
        "ZipCode":"37201",
        "Latitude":36.1657,
        "Longitude":-86.7781
    },
    {
        "State":"Tennessee",
        "StateAbbr":"TN",
        "City":"Nashville",
        "County":"Davidson",
        "ZipCode":"37202",
        "Latitude":36.3403,
        "Longitude":-86.8273
    },
    {
        "State":"Tennessee",
        "StateAbbr":"TN",
        "City":"Nashville",
        "County":"Davidson",
        "ZipCode":"37203",
        "Latitude":36.1504,
        "Longitude":-86.7916
    },
    {
        "State":"Tennessee",
        "StateAbbr":"TN",
        "City":"Nashville",
        "County":"Davidson",
        "ZipCode":"37204",
        "Latitude":36.1067,
        "Longitude":-86.7743
    },
    {
        "State":"Tennessee",
        "StateAbbr":"TN",
        "City":"Nashville",
        "County":"Davidson",
        "ZipCode":"37205",
        "Latitude":36.1114,
        "Longitude":-86.869
    },
    {
        "State":"Tennessee",
        "StateAbbr":"TN",
        "City":"Nashville",
        "County":"Davidson",
        "ZipCode":"37206",
        "Latitude":36.1798,
        "Longitude":-86.7411
    },
    {
        "State":"Tennessee",
        "StateAbbr":"TN",
        "City":"Nashville",
        "County":"Davidson",
        "ZipCode":"37207",
        "Latitude":36.2195,
        "Longitude":-86.774
    },
    {
        "State":"Tennessee",
        "StateAbbr":"TN",
        "City":"Nashville",
        "County":"Davidson",
        "ZipCode":"37208",
        "Latitude":36.1762,
        "Longitude":-86.8076
    },
    {
        "State":"Tennessee",
        "StateAbbr":"TN",
        "City":"Nashville",
        "County":"Davidson",
        "ZipCode":"37209",
        "Latitude":36.1546,
        "Longitude":-86.8602
    },
    {
        "State":"Tennessee",
        "StateAbbr":"TN",
        "City":"Nashville",
        "County":"Davidson",
        "ZipCode":"37210",
        "Latitude":36.1379,
        "Longitude":-86.741
    },
    {
        "State":"Tennessee",
        "StateAbbr":"TN",
        "City":"Nashville",
        "County":"Davidson",
        "ZipCode":"37211",
        "Latitude":36.0725,
        "Longitude":-86.724
    },
    {
        "State":"Tennessee",
        "StateAbbr":"TN",
        "City":"Nashville",
        "County":"Davidson",
        "ZipCode":"37212",
        "Latitude":36.1337,
        "Longitude":-86.8006
    },
    {
        "State":"Tennessee",
        "StateAbbr":"TN",
        "City":"Nashville",
        "County":"Davidson",
        "ZipCode":"37213",
        "Latitude":36.1663,
        "Longitude":-86.7669
    },
    {
        "State":"Tennessee",
        "StateAbbr":"TN",
        "City":"Nashville",
        "County":"Davidson",
        "ZipCode":"37214",
        "Latitude":36.1633,
        "Longitude":-86.6609
    },
    {
        "State":"Tennessee",
        "StateAbbr":"TN",
        "City":"Nashville",
        "County":"Davidson",
        "ZipCode":"37215",
        "Latitude":36.0986,
        "Longitude":-86.8219
    },
    {
        "State":"Tennessee",
        "StateAbbr":"TN",
        "City":"Nashville",
        "County":"Davidson",
        "ZipCode":"37216",
        "Latitude":36.2125,
        "Longitude":-86.7257
    },
    {
        "State":"Tennessee",
        "StateAbbr":"TN",
        "City":"Nashville",
        "County":"Davidson",
        "ZipCode":"37217",
        "Latitude":36.1052,
        "Longitude":-86.6591
    },
    {
        "State":"Tennessee",
        "StateAbbr":"TN",
        "City":"Nashville",
        "County":"Davidson",
        "ZipCode":"37218",
        "Latitude":36.2071,
        "Longitude":-86.8456
    },
    {
        "State":"Tennessee",
        "StateAbbr":"TN",
        "City":"Nashville",
        "County":"Davidson",
        "ZipCode":"37219",
        "Latitude":36.1678,
        "Longitude":-86.7837
    },
    {
        "State":"Tennessee",
        "StateAbbr":"TN",
        "City":"Nashville",
        "County":"Davidson",
        "ZipCode":"37220",
        "Latitude":36.0641,
        "Longitude":-86.7697
    },
    {
        "State":"Tennessee",
        "StateAbbr":"TN",
        "City":"Nashville",
        "County":"Davidson",
        "ZipCode":"37221",
        "Latitude":36.0662,
        "Longitude":-86.9639
    },
    {
        "State":"Tennessee",
        "StateAbbr":"TN",
        "City":"Nashville",
        "County":"Davidson",
        "ZipCode":"37222",
        "Latitude":36.1659,
        "Longitude":-86.7844
    },
    {
        "State":"Tennessee",
        "StateAbbr":"TN",
        "City":"Nashville",
        "County":"Davidson",
        "ZipCode":"37224",
        "Latitude":36.1866,
        "Longitude":-86.7852
    },
    {
        "State":"Tennessee",
        "StateAbbr":"TN",
        "City":"Nashville",
        "County":"Davidson",
        "ZipCode":"37227",
        "Latitude":36.1866,
        "Longitude":-86.7852
    },
    {
        "State":"Tennessee",
        "StateAbbr":"TN",
        "City":"Nashville",
        "County":"Davidson",
        "ZipCode":"37228",
        "Latitude":36.1901,
        "Longitude":-86.8053
    },
    {
        "State":"Tennessee",
        "StateAbbr":"TN",
        "City":"Nashville",
        "County":"Davidson",
        "ZipCode":"37229",
        "Latitude":36.1866,
        "Longitude":-86.7852
    },
    {
        "State":"Tennessee",
        "StateAbbr":"TN",
        "City":"Nashville",
        "County":"Davidson",
        "ZipCode":"37230",
        "Latitude":36.1866,
        "Longitude":-86.7852
    },
    {
        "State":"Tennessee",
        "StateAbbr":"TN",
        "City":"Nashville",
        "County":"Davidson",
        "ZipCode":"37232",
        "Latitude":36.1866,
        "Longitude":-86.7852
    },
    {
        "State":"Tennessee",
        "StateAbbr":"TN",
        "City":"Nashville",
        "County":"Davidson",
        "ZipCode":"37234",
        "Latitude":36.1866,
        "Longitude":-86.7852
    },
    {
        "State":"Tennessee",
        "StateAbbr":"TN",
        "City":"Nashville",
        "County":"Davidson",
        "ZipCode":"37235",
        "Latitude":36.1866,
        "Longitude":-86.7852
    },
    {
        "State":"Tennessee",
        "StateAbbr":"TN",
        "City":"Nashville",
        "County":"Davidson",
        "ZipCode":"37236",
        "Latitude":36.1866,
        "Longitude":-86.7852
    },
    {
        "State":"Tennessee",
        "StateAbbr":"TN",
        "City":"Nashville",
        "County":"Davidson",
        "ZipCode":"37238",
        "Latitude":36.1866,
        "Longitude":-86.7852
    },
    {
        "State":"Tennessee",
        "StateAbbr":"TN",
        "City":"Nashville",
        "County":"Davidson",
        "ZipCode":"37240",
        "Latitude":36.1866,
        "Longitude":-86.7852
    },
    {
        "State":"Tennessee",
        "StateAbbr":"TN",
        "City":"Nashville",
        "County":"Davidson",
        "ZipCode":"37241",
        "Latitude":36.1866,
        "Longitude":-86.7852
    },
    {
        "State":"Tennessee",
        "StateAbbr":"TN",
        "City":"Nashville",
        "County":"Davidson",
        "ZipCode":"37242",
        "Latitude":36.1866,
        "Longitude":-86.7852
    },
    {
        "State":"Tennessee",
        "StateAbbr":"TN",
        "City":"Nashville",
        "County":"Davidson",
        "ZipCode":"37243",
        "Latitude":36.165,
        "Longitude":-86.7821
    },
    {
        "State":"Tennessee",
        "StateAbbr":"TN",
        "City":"Nashville",
        "County":"Davidson",
        "ZipCode":"37244",
        "Latitude":36.1866,
        "Longitude":-86.7852
    },
    {
        "State":"Tennessee",
        "StateAbbr":"TN",
        "City":"Nashville",
        "County":"Davidson",
        "ZipCode":"37246",
        "Latitude":36.1586,
        "Longitude":-86.79
    },
    {
        "State":"Tennessee",
        "StateAbbr":"TN",
        "City":"Nashville",
        "County":"Davidson",
        "ZipCode":"37250",
        "Latitude":36.1866,
        "Longitude":-86.7852
    },
    {
        "State":"Tennessee",
        "StateAbbr":"TN",
        "City":"Bath Springs",
        "County":"Decatur",
        "ZipCode":"38311",
        "Latitude":35.4521,
        "Longitude":-88.1286
    },
    {
        "State":"Tennessee",
        "StateAbbr":"TN",
        "City":"Decaturville",
        "County":"Decatur",
        "ZipCode":"38329",
        "Latitude":35.5585,
        "Longitude":-88.1334
    },
    {
        "State":"Tennessee",
        "StateAbbr":"TN",
        "City":"Parsons",
        "County":"Decatur",
        "ZipCode":"38363",
        "Latitude":35.6664,
        "Longitude":-88.1195
    },
    {
        "State":"Tennessee",
        "StateAbbr":"TN",
        "City":"Scotts Hill",
        "County":"Decatur",
        "ZipCode":"38374",
        "Latitude":35.505,
        "Longitude":-88.2405
    },
    {
        "State":"Tennessee",
        "StateAbbr":"TN",
        "City":"Sugar Tree",
        "County":"Decatur",
        "ZipCode":"38380",
        "Latitude":35.792,
        "Longitude":-88.0322
    },
    {
        "State":"Tennessee",
        "StateAbbr":"TN",
        "City":"Alexandria",
        "County":"DeKalb",
        "ZipCode":"37012",
        "Latitude":36.0711,
        "Longitude":-86.0372
    },
    {
        "State":"Tennessee",
        "StateAbbr":"TN",
        "City":"Dowelltown",
        "County":"DeKalb",
        "ZipCode":"37059",
        "Latitude":35.9725,
        "Longitude":-85.9055
    },
    {
        "State":"Tennessee",
        "StateAbbr":"TN",
        "City":"Liberty",
        "County":"DeKalb",
        "ZipCode":"37095",
        "Latitude":36.0067,
        "Longitude":-85.9678
    },
    {
        "State":"Tennessee",
        "StateAbbr":"TN",
        "City":"Smithville",
        "County":"DeKalb",
        "ZipCode":"37166",
        "Latitude":35.9299,
        "Longitude":-85.8046
    },
    {
        "State":"Tennessee",
        "StateAbbr":"TN",
        "City":"Burns",
        "County":"Dickson",
        "ZipCode":"37029",
        "Latitude":36.0471,
        "Longitude":-87.3061
    },
    {
        "State":"Tennessee",
        "StateAbbr":"TN",
        "City":"Charlotte",
        "County":"Dickson",
        "ZipCode":"37036",
        "Latitude":36.2326,
        "Longitude":-87.2816
    },
    {
        "State":"Tennessee",
        "StateAbbr":"TN",
        "City":"Cumberland Furnace",
        "County":"Dickson",
        "ZipCode":"37051",
        "Latitude":36.2721,
        "Longitude":-87.3914
    },
    {
        "State":"Tennessee",
        "StateAbbr":"TN",
        "City":"Dickson",
        "County":"Dickson",
        "ZipCode":"37055",
        "Latitude":36.076,
        "Longitude":-87.3995
    },
    {
        "State":"Tennessee",
        "StateAbbr":"TN",
        "City":"Dickson",
        "County":"Dickson",
        "ZipCode":"37056",
        "Latitude":36.1469,
        "Longitude":-87.353
    },
    {
        "State":"Tennessee",
        "StateAbbr":"TN",
        "City":"Slayden",
        "County":"Dickson",
        "ZipCode":"37165",
        "Latitude":36.2948,
        "Longitude":-87.4703
    },
    {
        "State":"Tennessee",
        "StateAbbr":"TN",
        "City":"Vanleer",
        "County":"Dickson",
        "ZipCode":"37181",
        "Latitude":36.2237,
        "Longitude":-87.4565
    },
    {
        "State":"Tennessee",
        "StateAbbr":"TN",
        "City":"White Bluff",
        "County":"Dickson",
        "ZipCode":"37187",
        "Latitude":36.1253,
        "Longitude":-87.219
    },
    {
        "State":"Tennessee",
        "StateAbbr":"TN",
        "City":"Bogota",
        "County":"Dyer",
        "ZipCode":"38007",
        "Latitude":36.164,
        "Longitude":-89.4384
    },
    {
        "State":"Tennessee",
        "StateAbbr":"TN",
        "City":"Dyersburg",
        "County":"Dyer",
        "ZipCode":"38024",
        "Latitude":36.0444,
        "Longitude":-89.3836
    },
    {
        "State":"Tennessee",
        "StateAbbr":"TN",
        "City":"Dyersburg",
        "County":"Dyer",
        "ZipCode":"38025",
        "Latitude":36.0345,
        "Longitude":-89.3856
    },
    {
        "State":"Tennessee",
        "StateAbbr":"TN",
        "City":"Finley",
        "County":"Dyer",
        "ZipCode":"38030",
        "Latitude":36.0169,
        "Longitude":-89.5134
    },
    {
        "State":"Tennessee",
        "StateAbbr":"TN",
        "City":"Lenox",
        "County":"Dyer",
        "ZipCode":"38047",
        "Latitude":36.0892,
        "Longitude":-89.4984
    },
    {
        "State":"Tennessee",
        "StateAbbr":"TN",
        "City":"Newbern",
        "County":"Dyer",
        "ZipCode":"38059",
        "Latitude":36.1009,
        "Longitude":-89.2514
    },
    {
        "State":"Tennessee",
        "StateAbbr":"TN",
        "City":"Tigrett",
        "County":"Dyer",
        "ZipCode":"38070",
        "Latitude":35.9515,
        "Longitude":-89.2401
    },
    {
        "State":"Tennessee",
        "StateAbbr":"TN",
        "City":"Trimble",
        "County":"Dyer",
        "ZipCode":"38259",
        "Latitude":36.2011,
        "Longitude":-89.1863
    },
    {
        "State":"Tennessee",
        "StateAbbr":"TN",
        "City":"Braden",
        "County":"Fayette",
        "ZipCode":"38010",
        "Latitude":35.2886,
        "Longitude":-89.488
    },
    {
        "State":"Tennessee",
        "StateAbbr":"TN",
        "City":"Gallaway",
        "County":"Fayette",
        "ZipCode":"38036",
        "Latitude":35.3274,
        "Longitude":-89.6198
    },
    {
        "State":"Tennessee",
        "StateAbbr":"TN",
        "City":"Laconia",
        "County":"Fayette",
        "ZipCode":"38045",
        "Latitude":35.2904,
        "Longitude":-89.2322
    },
    {
        "State":"Tennessee",
        "StateAbbr":"TN",
        "City":"La Grange",
        "County":"Fayette",
        "ZipCode":"38046",
        "Latitude":35.0454,
        "Longitude":-89.2437
    },
    {
        "State":"Tennessee",
        "StateAbbr":"TN",
        "City":"Macon",
        "County":"Fayette",
        "ZipCode":"38048",
        "Latitude":35.1507,
        "Longitude":-89.4814
    },
    {
        "State":"Tennessee",
        "StateAbbr":"TN",
        "City":"Moscow",
        "County":"Fayette",
        "ZipCode":"38057",
        "Latitude":35.0588,
        "Longitude":-89.3595
    },
    {
        "State":"Tennessee",
        "StateAbbr":"TN",
        "City":"Oakland",
        "County":"Fayette",
        "ZipCode":"38060",
        "Latitude":35.229,
        "Longitude":-89.5151
    },
    {
        "State":"Tennessee",
        "StateAbbr":"TN",
        "City":"Rossville",
        "County":"Fayette",
        "ZipCode":"38066",
        "Latitude":35.0768,
        "Longitude":-89.5678
    },
    {
        "State":"Tennessee",
        "StateAbbr":"TN",
        "City":"Somerville",
        "County":"Fayette",
        "ZipCode":"38068",
        "Latitude":35.2772,
        "Longitude":-89.3918
    },
    {
        "State":"Tennessee",
        "StateAbbr":"TN",
        "City":"Williston",
        "County":"Fayette",
        "ZipCode":"38076",
        "Latitude":35.1576,
        "Longitude":-89.3684
    },
    {
        "State":"Tennessee",
        "StateAbbr":"TN",
        "City":"Allardt",
        "County":"Fentress",
        "ZipCode":"38504",
        "Latitude":36.3818,
        "Longitude":-84.7756
    },
    {
        "State":"Tennessee",
        "StateAbbr":"TN",
        "City":"Clarkrange",
        "County":"Fentress",
        "ZipCode":"38553",
        "Latitude":36.2112,
        "Longitude":-84.9777
    },
    {
        "State":"Tennessee",
        "StateAbbr":"TN",
        "City":"Jamestown",
        "County":"Fentress",
        "ZipCode":"38556",
        "Latitude":36.4245,
        "Longitude":-84.9357
    },
    {
        "State":"Tennessee",
        "StateAbbr":"TN",
        "City":"Grimsley",
        "County":"Fentress",
        "ZipCode":"38565",
        "Latitude":36.2598,
        "Longitude":-85.0015
    },
    {
        "State":"Tennessee",
        "StateAbbr":"TN",
        "City":"Pall Mall",
        "County":"Fentress",
        "ZipCode":"38577",
        "Latitude":36.5781,
        "Longitude":-85.0384
    },
    {
        "State":"Tennessee",
        "StateAbbr":"TN",
        "City":"Wilder",
        "County":"Fentress",
        "ZipCode":"38589",
        "Latitude":36.2822,
        "Longitude":-85.0913
    },
    {
        "State":"Tennessee",
        "StateAbbr":"TN",
        "City":"Belvidere",
        "County":"Franklin",
        "ZipCode":"37306",
        "Latitude":35.1415,
        "Longitude":-86.1728
    },
    {
        "State":"Tennessee",
        "StateAbbr":"TN",
        "City":"Cowan",
        "County":"Franklin",
        "ZipCode":"37318",
        "Latitude":35.1783,
        "Longitude":-86.0167
    },
    {
        "State":"Tennessee",
        "StateAbbr":"TN",
        "City":"Decherd",
        "County":"Franklin",
        "ZipCode":"37324",
        "Latitude":35.2326,
        "Longitude":-86.0589
    },
    {
        "State":"Tennessee",
        "StateAbbr":"TN",
        "City":"Estill Springs",
        "County":"Franklin",
        "ZipCode":"37330",
        "Latitude":35.2705,
        "Longitude":-86.1396
    },
    {
        "State":"Tennessee",
        "StateAbbr":"TN",
        "City":"Huntland",
        "County":"Franklin",
        "ZipCode":"37345",
        "Latitude":35.0512,
        "Longitude":-86.2694
    },
    {
        "State":"Tennessee",
        "StateAbbr":"TN",
        "City":"Sewanee",
        "County":"Franklin",
        "ZipCode":"37375",
        "Latitude":35.2011,
        "Longitude":-85.9126
    },
    {
        "State":"Tennessee",
        "StateAbbr":"TN",
        "City":"Sherwood",
        "County":"Franklin",
        "ZipCode":"37376",
        "Latitude":35.0452,
        "Longitude":-85.9302
    },
    {
        "State":"Tennessee",
        "StateAbbr":"TN",
        "City":"Sewanee",
        "County":"Franklin",
        "ZipCode":"37383",
        "Latitude":35.1805,
        "Longitude":-85.9035
    },
    {
        "State":"Tennessee",
        "StateAbbr":"TN",
        "City":"Winchester",
        "County":"Franklin",
        "ZipCode":"37398",
        "Latitude":35.1864,
        "Longitude":-86.113
    },
    {
        "State":"Tennessee",
        "StateAbbr":"TN",
        "City":"Kenton",
        "County":"Gibson",
        "ZipCode":"38233",
        "Latitude":36.1906,
        "Longitude":-89.0229
    },
    {
        "State":"Tennessee",
        "StateAbbr":"TN",
        "City":"Bradford",
        "County":"Gibson",
        "ZipCode":"38316",
        "Latitude":36.0645,
        "Longitude":-88.8046
    },
    {
        "State":"Tennessee",
        "StateAbbr":"TN",
        "City":"Dyer",
        "County":"Gibson",
        "ZipCode":"38330",
        "Latitude":36.0716,
        "Longitude":-89.0192
    },
    {
        "State":"Tennessee",
        "StateAbbr":"TN",
        "City":"Eaton",
        "County":"Gibson",
        "ZipCode":"38331",
        "Latitude":35.9693,
        "Longitude":-89.1319
    },
    {
        "State":"Tennessee",
        "StateAbbr":"TN",
        "City":"Gibson",
        "County":"Gibson",
        "ZipCode":"38338",
        "Latitude":35.8708,
        "Longitude":-88.8464
    },
    {
        "State":"Tennessee",
        "StateAbbr":"TN",
        "City":"Humboldt",
        "County":"Gibson",
        "ZipCode":"38343",
        "Latitude":35.837,
        "Longitude":-88.9057
    },
    {
        "State":"Tennessee",
        "StateAbbr":"TN",
        "City":"Idlewild",
        "County":"Gibson",
        "ZipCode":"38346",
        "Latitude":36.0306,
        "Longitude":-88.8056
    },
    {
        "State":"Tennessee",
        "StateAbbr":"TN",
        "City":"Medina",
        "County":"Gibson",
        "ZipCode":"38355",
        "Latitude":35.8081,
        "Longitude":-88.7627
    },
    {
        "State":"Tennessee",
        "StateAbbr":"TN",
        "City":"Milan",
        "County":"Gibson",
        "ZipCode":"38358",
        "Latitude":35.9251,
        "Longitude":-88.7688
    },
    {
        "State":"Tennessee",
        "StateAbbr":"TN",
        "City":"Rutherford",
        "County":"Gibson",
        "ZipCode":"38369",
        "Latitude":36.13,
        "Longitude":-88.9849
    },
    {
        "State":"Tennessee",
        "StateAbbr":"TN",
        "City":"Trenton",
        "County":"Gibson",
        "ZipCode":"38382",
        "Latitude":35.9712,
        "Longitude":-88.9507
    },
    {
        "State":"Tennessee",
        "StateAbbr":"TN",
        "City":"Yorkville",
        "County":"Gibson",
        "ZipCode":"38389",
        "Latitude":36.1354,
        "Longitude":-89.1117
    },
    {
        "State":"Tennessee",
        "StateAbbr":"TN",
        "City":"Ardmore",
        "County":"Giles",
        "ZipCode":"38449",
        "Latitude":35.0574,
        "Longitude":-86.8796
    },
    {
        "State":"Tennessee",
        "StateAbbr":"TN",
        "City":"Elkton",
        "County":"Giles",
        "ZipCode":"38455",
        "Latitude":35.0523,
        "Longitude":-86.8886
    },
    {
        "State":"Tennessee",
        "StateAbbr":"TN",
        "City":"Frankewing",
        "County":"Giles",
        "ZipCode":"38459",
        "Latitude":35.1834,
        "Longitude":-86.85
    },
    {
        "State":"Tennessee",
        "StateAbbr":"TN",
        "City":"Goodspring",
        "County":"Giles",
        "ZipCode":"38460",
        "Latitude":35.1167,
        "Longitude":-87.1278
    },
    {
        "State":"Tennessee",
        "StateAbbr":"TN",
        "City":"Lynnville",
        "County":"Giles",
        "ZipCode":"38472",
        "Latitude":35.3792,
        "Longitude":-87.0629
    },
    {
        "State":"Tennessee",
        "StateAbbr":"TN",
        "City":"Minor Hill",
        "County":"Giles",
        "ZipCode":"38473",
        "Latitude":35.05,
        "Longitude":-87.1522
    },
    {
        "State":"Tennessee",
        "StateAbbr":"TN",
        "City":"Prospect",
        "County":"Giles",
        "ZipCode":"38477",
        "Latitude":35.0666,
        "Longitude":-87.0174
    },
    {
        "State":"Tennessee",
        "StateAbbr":"TN",
        "City":"Pulaski",
        "County":"Giles",
        "ZipCode":"38478",
        "Latitude":35.2093,
        "Longitude":-87.0393
    },
    {
        "State":"Tennessee",
        "StateAbbr":"TN",
        "City":"Bean Station",
        "County":"Grainger",
        "ZipCode":"37708",
        "Latitude":36.3249,
        "Longitude":-83.3142
    },
    {
        "State":"Tennessee",
        "StateAbbr":"TN",
        "City":"Blaine",
        "County":"Grainger",
        "ZipCode":"37709",
        "Latitude":36.1583,
        "Longitude":-83.6783
    },
    {
        "State":"Tennessee",
        "StateAbbr":"TN",
        "City":"Powder Springs",
        "County":"Grainger",
        "ZipCode":"37848",
        "Latitude":36.2357,
        "Longitude":-83.6801
    },
    {
        "State":"Tennessee",
        "StateAbbr":"TN",
        "City":"Rutledge",
        "County":"Grainger",
        "ZipCode":"37861",
        "Latitude":36.2501,
        "Longitude":-83.5125
    },
    {
        "State":"Tennessee",
        "StateAbbr":"TN",
        "City":"Thorn Hill",
        "County":"Grainger",
        "ZipCode":"37881",
        "Latitude":36.3917,
        "Longitude":-83.366
    },
    {
        "State":"Tennessee",
        "StateAbbr":"TN",
        "City":"Washburn",
        "County":"Grainger",
        "ZipCode":"37888",
        "Latitude":36.3106,
        "Longitude":-83.5937
    },
    {
        "State":"Tennessee",
        "StateAbbr":"TN",
        "City":"Afton",
        "County":"Greene",
        "ZipCode":"37616",
        "Latitude":36.2265,
        "Longitude":-82.7476
    },
    {
        "State":"Tennessee",
        "StateAbbr":"TN",
        "City":"Chuckey",
        "County":"Greene",
        "ZipCode":"37641",
        "Latitude":36.2569,
        "Longitude":-82.6905
    },
    {
        "State":"Tennessee",
        "StateAbbr":"TN",
        "City":"Greeneville",
        "County":"Greene",
        "ZipCode":"37743",
        "Latitude":36.1316,
        "Longitude":-82.8692
    },
    {
        "State":"Tennessee",
        "StateAbbr":"TN",
        "City":"Greeneville",
        "County":"Greene",
        "ZipCode":"37744",
        "Latitude":36.1683,
        "Longitude":-82.8548
    },
    {
        "State":"Tennessee",
        "StateAbbr":"TN",
        "City":"Greeneville",
        "County":"Greene",
        "ZipCode":"37745",
        "Latitude":36.2455,
        "Longitude":-82.8238
    },
    {
        "State":"Tennessee",
        "StateAbbr":"TN",
        "City":"Midway",
        "County":"Greene",
        "ZipCode":"37809",
        "Latitude":36.151,
        "Longitude":-83.0281
    },
    {
        "State":"Tennessee",
        "StateAbbr":"TN",
        "City":"Mohawk",
        "County":"Greene",
        "ZipCode":"37810",
        "Latitude":36.1869,
        "Longitude":-83.0902
    },
    {
        "State":"Tennessee",
        "StateAbbr":"TN",
        "City":"Mosheim",
        "County":"Greene",
        "ZipCode":"37818",
        "Latitude":36.1839,
        "Longitude":-82.9674
    },
    {
        "State":"Tennessee",
        "StateAbbr":"TN",
        "City":"Altamont",
        "County":"Grundy",
        "ZipCode":"37301",
        "Latitude":35.4258,
        "Longitude":-85.7635
    },
    {
        "State":"Tennessee",
        "StateAbbr":"TN",
        "City":"Beersheba Springs",
        "County":"Grundy",
        "ZipCode":"37305",
        "Latitude":35.4652,
        "Longitude":-85.6942
    },
    {
        "State":"Tennessee",
        "StateAbbr":"TN",
        "City":"Coalmont",
        "County":"Grundy",
        "ZipCode":"37313",
        "Latitude":35.3516,
        "Longitude":-85.7003
    },
    {
        "State":"Tennessee",
        "StateAbbr":"TN",
        "City":"Gruetli Laager",
        "County":"Grundy",
        "ZipCode":"37339",
        "Latitude":35.3723,
        "Longitude":-85.618
    },
    {
        "State":"Tennessee",
        "StateAbbr":"TN",
        "City":"Monteagle",
        "County":"Grundy",
        "ZipCode":"37356",
        "Latitude":35.2402,
        "Longitude":-85.8228
    },
    {
        "State":"Tennessee",
        "StateAbbr":"TN",
        "City":"Palmer",
        "County":"Grundy",
        "ZipCode":"37365",
        "Latitude":35.3741,
        "Longitude":-85.5643
    },
    {
        "State":"Tennessee",
        "StateAbbr":"TN",
        "City":"Pelham",
        "County":"Grundy",
        "ZipCode":"37366",
        "Latitude":35.314,
        "Longitude":-85.8441
    },
    {
        "State":"Tennessee",
        "StateAbbr":"TN",
        "City":"Tracy City",
        "County":"Grundy",
        "ZipCode":"37387",
        "Latitude":35.2721,
        "Longitude":-85.7362
    },
    {
        "State":"Tennessee",
        "StateAbbr":"TN",
        "City":"Lowland",
        "County":"Hamblen",
        "ZipCode":"37778",
        "Latitude":36.2133,
        "Longitude":-83.2752
    },
    {
        "State":"Tennessee",
        "StateAbbr":"TN",
        "City":"Morristown",
        "County":"Hamblen",
        "ZipCode":"37813",
        "Latitude":36.1957,
        "Longitude":-83.2755
    },
    {
        "State":"Tennessee",
        "StateAbbr":"TN",
        "City":"Morristown",
        "County":"Hamblen",
        "ZipCode":"37814",
        "Latitude":36.2248,
        "Longitude":-83.3119
    },
    {
        "State":"Tennessee",
        "StateAbbr":"TN",
        "City":"Morristown",
        "County":"Hamblen",
        "ZipCode":"37815",
        "Latitude":36.2133,
        "Longitude":-83.2752
    },
    {
        "State":"Tennessee",
        "StateAbbr":"TN",
        "City":"Morristown",
        "County":"Hamblen",
        "ZipCode":"37816",
        "Latitude":36.2133,
        "Longitude":-83.2752
    },
    {
        "State":"Tennessee",
        "StateAbbr":"TN",
        "City":"Russellville",
        "County":"Hamblen",
        "ZipCode":"37860",
        "Latitude":36.2567,
        "Longitude":-83.1914
    },
    {
        "State":"Tennessee",
        "StateAbbr":"TN",
        "City":"Talbott",
        "County":"Hamblen",
        "ZipCode":"37877",
        "Latitude":36.16,
        "Longitude":-83.4129
    },
    {
        "State":"Tennessee",
        "StateAbbr":"TN",
        "City":"Whitesburg",
        "County":"Hamblen",
        "ZipCode":"37891",
        "Latitude":36.2621,
        "Longitude":-83.1458
    },
    {
        "State":"Tennessee",
        "StateAbbr":"TN",
        "City":"Apison",
        "County":"Hamilton",
        "ZipCode":"37302",
        "Latitude":35.0149,
        "Longitude":-85.0164
    },
    {
        "State":"Tennessee",
        "StateAbbr":"TN",
        "City":"Bakewell",
        "County":"Hamilton",
        "ZipCode":"37304",
        "Latitude":35.3452,
        "Longitude":-85.138
    },
    {
        "State":"Tennessee",
        "StateAbbr":"TN",
        "City":"Birchwood",
        "County":"Hamilton",
        "ZipCode":"37308",
        "Latitude":35.352,
        "Longitude":-84.9618
    },
    {
        "State":"Tennessee",
        "StateAbbr":"TN",
        "City":"Collegedale",
        "County":"Hamilton",
        "ZipCode":"37315",
        "Latitude":35.0479,
        "Longitude":-85.0574
    },
    {
        "State":"Tennessee",
        "StateAbbr":"TN",
        "City":"Harrison",
        "County":"Hamilton",
        "ZipCode":"37341",
        "Latitude":35.1679,
        "Longitude":-85.0945
    },
    {
        "State":"Tennessee",
        "StateAbbr":"TN",
        "City":"Hixson",
        "County":"Hamilton",
        "ZipCode":"37343",
        "Latitude":35.1591,
        "Longitude":-85.2182
    },
    {
        "State":"Tennessee",
        "StateAbbr":"TN",
        "City":"Lookout Mountain",
        "County":"Hamilton",
        "ZipCode":"37350",
        "Latitude":34.9948,
        "Longitude":-85.3506
    },
    {
        "State":"Tennessee",
        "StateAbbr":"TN",
        "City":"Lupton City",
        "County":"Hamilton",
        "ZipCode":"37351",
        "Latitude":35.1045,
        "Longitude":-85.2631
    },
    {
        "State":"Tennessee",
        "StateAbbr":"TN",
        "City":"Ooltewah",
        "County":"Hamilton",
        "ZipCode":"37363",
        "Latitude":35.0781,
        "Longitude":-85.0635
    },
    {
        "State":"Tennessee",
        "StateAbbr":"TN",
        "City":"Sale Creek",
        "County":"Hamilton",
        "ZipCode":"37373",
        "Latitude":35.3858,
        "Longitude":-85.1023
    },
    {
        "State":"Tennessee",
        "StateAbbr":"TN",
        "City":"Signal Mountain",
        "County":"Hamilton",
        "ZipCode":"37377",
        "Latitude":35.1494,
        "Longitude":-85.3362
    },
    {
        "State":"Tennessee",
        "StateAbbr":"TN",
        "City":"Soddy Daisy",
        "County":"Hamilton",
        "ZipCode":"37379",
        "Latitude":35.2527,
        "Longitude":-85.163
    },
    {
        "State":"Tennessee",
        "StateAbbr":"TN",
        "City":"Soddy Daisy",
        "County":"Hamilton",
        "ZipCode":"37384",
        "Latitude":35.2211,
        "Longitude":-85.2091
    },
    {
        "State":"Tennessee",
        "StateAbbr":"TN",
        "City":"Chattanooga",
        "County":"Hamilton",
        "ZipCode":"37401",
        "Latitude":35.0456,
        "Longitude":-85.3097
    },
    {
        "State":"Tennessee",
        "StateAbbr":"TN",
        "City":"Chattanooga",
        "County":"Hamilton",
        "ZipCode":"37402",
        "Latitude":35.0463,
        "Longitude":-85.3161
    },
    {
        "State":"Tennessee",
        "StateAbbr":"TN",
        "City":"Chattanooga",
        "County":"Hamilton",
        "ZipCode":"37403",
        "Latitude":35.045,
        "Longitude":-85.2965
    },
    {
        "State":"Tennessee",
        "StateAbbr":"TN",
        "City":"Chattanooga",
        "County":"Hamilton",
        "ZipCode":"37404",
        "Latitude":35.0306,
        "Longitude":-85.2722
    },
    {
        "State":"Tennessee",
        "StateAbbr":"TN",
        "City":"Chattanooga",
        "County":"Hamilton",
        "ZipCode":"37405",
        "Latitude":35.0768,
        "Longitude":-85.3082
    },
    {
        "State":"Tennessee",
        "StateAbbr":"TN",
        "City":"Chattanooga",
        "County":"Hamilton",
        "ZipCode":"37406",
        "Latitude":35.0614,
        "Longitude":-85.2478
    },
    {
        "State":"Tennessee",
        "StateAbbr":"TN",
        "City":"Chattanooga",
        "County":"Hamilton",
        "ZipCode":"37407",
        "Latitude":35.0024,
        "Longitude":-85.2849
    },
    {
        "State":"Tennessee",
        "StateAbbr":"TN",
        "City":"Chattanooga",
        "County":"Hamilton",
        "ZipCode":"37408",
        "Latitude":35.0292,
        "Longitude":-85.3068
    },
    {
        "State":"Tennessee",
        "StateAbbr":"TN",
        "City":"Chattanooga",
        "County":"Hamilton",
        "ZipCode":"37409",
        "Latitude":34.9981,
        "Longitude":-85.331
    },
    {
        "State":"Tennessee",
        "StateAbbr":"TN",
        "City":"Chattanooga",
        "County":"Hamilton",
        "ZipCode":"37410",
        "Latitude":35.0018,
        "Longitude":-85.3138
    },
    {
        "State":"Tennessee",
        "StateAbbr":"TN",
        "City":"Chattanooga",
        "County":"Hamilton",
        "ZipCode":"37411",
        "Latitude":35.0271,
        "Longitude":-85.2356
    },
    {
        "State":"Tennessee",
        "StateAbbr":"TN",
        "City":"Chattanooga",
        "County":"Hamilton",
        "ZipCode":"37412",
        "Latitude":35.0015,
        "Longitude":-85.2384
    },
    {
        "State":"Tennessee",
        "StateAbbr":"TN",
        "City":"Chattanooga",
        "County":"Hamilton",
        "ZipCode":"37414",
        "Latitude":35.0456,
        "Longitude":-85.3097
    },
    {
        "State":"Tennessee",
        "StateAbbr":"TN",
        "City":"Chattanooga",
        "County":"Hamilton",
        "ZipCode":"37415",
        "Latitude":35.1273,
        "Longitude":-85.2802
    },
    {
        "State":"Tennessee",
        "StateAbbr":"TN",
        "City":"Chattanooga",
        "County":"Hamilton",
        "ZipCode":"37416",
        "Latitude":35.0942,
        "Longitude":-85.1757
    },
    {
        "State":"Tennessee",
        "StateAbbr":"TN",
        "City":"Chattanooga",
        "County":"Hamilton",
        "ZipCode":"37419",
        "Latitude":35.0331,
        "Longitude":-85.3687
    },
    {
        "State":"Tennessee",
        "StateAbbr":"TN",
        "City":"Chattanooga",
        "County":"Hamilton",
        "ZipCode":"37421",
        "Latitude":35.025,
        "Longitude":-85.1459
    },
    {
        "State":"Tennessee",
        "StateAbbr":"TN",
        "City":"Chattanooga",
        "County":"Hamilton",
        "ZipCode":"37422",
        "Latitude":35.0456,
        "Longitude":-85.3097
    },
    {
        "State":"Tennessee",
        "StateAbbr":"TN",
        "City":"Chattanooga",
        "County":"Hamilton",
        "ZipCode":"37424",
        "Latitude":35.0456,
        "Longitude":-85.3097
    },
    {
        "State":"Tennessee",
        "StateAbbr":"TN",
        "City":"Chattanooga",
        "County":"Hamilton",
        "ZipCode":"37450",
        "Latitude":35.0456,
        "Longitude":-85.3097
    },
    {
        "State":"Tennessee",
        "StateAbbr":"TN",
        "City":"Kyles Ford",
        "County":"Hancock",
        "ZipCode":"37765",
        "Latitude":36.5721,
        "Longitude":-83.0507
    },
    {
        "State":"Tennessee",
        "StateAbbr":"TN",
        "City":"Sneedville",
        "County":"Hancock",
        "ZipCode":"37869",
        "Latitude":36.5275,
        "Longitude":-83.2529
    },
    {
        "State":"Tennessee",
        "StateAbbr":"TN",
        "City":"Bolivar",
        "County":"Hardeman",
        "ZipCode":"38008",
        "Latitude":35.2461,
        "Longitude":-89.0007
    },
    {
        "State":"Tennessee",
        "StateAbbr":"TN",
        "City":"Grand Junction",
        "County":"Hardeman",
        "ZipCode":"38039",
        "Latitude":35.049,
        "Longitude":-89.187
    },
    {
        "State":"Tennessee",
        "StateAbbr":"TN",
        "City":"Hickory Valley",
        "County":"Hardeman",
        "ZipCode":"38042",
        "Latitude":35.158,
        "Longitude":-89.1309
    },
    {
        "State":"Tennessee",
        "StateAbbr":"TN",
        "City":"Hornsby",
        "County":"Hardeman",
        "ZipCode":"38044",
        "Latitude":35.2197,
        "Longitude":-88.8263
    },
    {
        "State":"Tennessee",
        "StateAbbr":"TN",
        "City":"Middleton",
        "County":"Hardeman",
        "ZipCode":"38052",
        "Latitude":35.0818,
        "Longitude":-88.9046
    },
    {
        "State":"Tennessee",
        "StateAbbr":"TN",
        "City":"Pocahontas",
        "County":"Hardeman",
        "ZipCode":"38061",
        "Latitude":35.0315,
        "Longitude":-88.8116
    },
    {
        "State":"Tennessee",
        "StateAbbr":"TN",
        "City":"Saulsbury",
        "County":"Hardeman",
        "ZipCode":"38067",
        "Latitude":35.0498,
        "Longitude":-89.0769
    },
    {
        "State":"Tennessee",
        "StateAbbr":"TN",
        "City":"Whiteville",
        "County":"Hardeman",
        "ZipCode":"38075",
        "Latitude":35.3191,
        "Longitude":-89.1337
    },
    {
        "State":"Tennessee",
        "StateAbbr":"TN",
        "City":"Silerton",
        "County":"Hardeman",
        "ZipCode":"38377",
        "Latitude":35.356,
        "Longitude":-88.8269
    },
    {
        "State":"Tennessee",
        "StateAbbr":"TN",
        "City":"Toone",
        "County":"Hardeman",
        "ZipCode":"38381",
        "Latitude":35.3574,
        "Longitude":-88.9353
    },
    {
        "State":"Tennessee",
        "StateAbbr":"TN",
        "City":"Counce",
        "County":"Hardin",
        "ZipCode":"38326",
        "Latitude":35.0394,
        "Longitude":-88.2936
    },
    {
        "State":"Tennessee",
        "StateAbbr":"TN",
        "City":"Crump",
        "County":"Hardin",
        "ZipCode":"38327",
        "Latitude":35.2191,
        "Longitude":-88.3192
    },
    {
        "State":"Tennessee",
        "StateAbbr":"TN",
        "City":"Morris Chapel",
        "County":"Hardin",
        "ZipCode":"38361",
        "Latitude":35.3026,
        "Longitude":-88.3176
    },
    {
        "State":"Tennessee",
        "StateAbbr":"TN",
        "City":"Pickwick Dam",
        "County":"Hardin",
        "ZipCode":"38365",
        "Latitude":35.0383,
        "Longitude":-88.2256
    },
    {
        "State":"Tennessee",
        "StateAbbr":"TN",
        "City":"Saltillo",
        "County":"Hardin",
        "ZipCode":"38370",
        "Latitude":35.3815,
        "Longitude":-88.2472
    },
    {
        "State":"Tennessee",
        "StateAbbr":"TN",
        "City":"Savannah",
        "County":"Hardin",
        "ZipCode":"38372",
        "Latitude":35.2023,
        "Longitude":-88.2005
    },
    {
        "State":"Tennessee",
        "StateAbbr":"TN",
        "City":"Shiloh",
        "County":"Hardin",
        "ZipCode":"38376",
        "Latitude":35.1154,
        "Longitude":-88.3617
    },
    {
        "State":"Tennessee",
        "StateAbbr":"TN",
        "City":"Olivehill",
        "County":"Hardin",
        "ZipCode":"38475",
        "Latitude":35.2667,
        "Longitude":-88.039
    },
    {
        "State":"Tennessee",
        "StateAbbr":"TN",
        "City":"Church Hill",
        "County":"Hawkins",
        "ZipCode":"37642",
        "Latitude":36.5399,
        "Longitude":-82.7252
    },
    {
        "State":"Tennessee",
        "StateAbbr":"TN",
        "City":"Mount Carmel",
        "County":"Hawkins",
        "ZipCode":"37645",
        "Latitude":36.5629,
        "Longitude":-82.6532
    },
    {
        "State":"Tennessee",
        "StateAbbr":"TN",
        "City":"Bulls Gap",
        "County":"Hawkins",
        "ZipCode":"37711",
        "Latitude":36.2832,
        "Longitude":-83.0374
    },
    {
        "State":"Tennessee",
        "StateAbbr":"TN",
        "City":"Eidson",
        "County":"Hawkins",
        "ZipCode":"37731",
        "Latitude":36.4995,
        "Longitude":-83.0827
    },
    {
        "State":"Tennessee",
        "StateAbbr":"TN",
        "City":"Mooresburg",
        "County":"Hawkins",
        "ZipCode":"37811",
        "Latitude":36.3621,
        "Longitude":-83.2095
    },
    {
        "State":"Tennessee",
        "StateAbbr":"TN",
        "City":"Rogersville",
        "County":"Hawkins",
        "ZipCode":"37857",
        "Latitude":36.4162,
        "Longitude":-83.0108
    },
    {
        "State":"Tennessee",
        "StateAbbr":"TN",
        "City":"Surgoinsville",
        "County":"Hawkins",
        "ZipCode":"37873",
        "Latitude":36.4741,
        "Longitude":-82.8306
    },
    {
        "State":"Tennessee",
        "StateAbbr":"TN",
        "City":"Brownsville",
        "County":"Haywood",
        "ZipCode":"38012",
        "Latitude":35.61,
        "Longitude":-89.2624
    },
    {
        "State":"Tennessee",
        "StateAbbr":"TN",
        "City":"Stanton",
        "County":"Haywood",
        "ZipCode":"38069",
        "Latitude":35.4482,
        "Longitude":-89.3326
    },
    {
        "State":"Tennessee",
        "StateAbbr":"TN",
        "City":"Darden",
        "County":"Henderson",
        "ZipCode":"38328",
        "Latitude":35.663,
        "Longitude":-88.2177
    },
    {
        "State":"Tennessee",
        "StateAbbr":"TN",
        "City":"Huron",
        "County":"Henderson",
        "ZipCode":"38345",
        "Latitude":35.6144,
        "Longitude":-88.5195
    },
    {
        "State":"Tennessee",
        "StateAbbr":"TN",
        "City":"Lexington",
        "County":"Henderson",
        "ZipCode":"38351",
        "Latitude":35.6512,
        "Longitude":-88.3927
    },
    {
        "State":"Tennessee",
        "StateAbbr":"TN",
        "City":"Reagan",
        "County":"Henderson",
        "ZipCode":"38368",
        "Latitude":35.5096,
        "Longitude":-88.3508
    },
    {
        "State":"Tennessee",
        "StateAbbr":"TN",
        "City":"Sardis",
        "County":"Henderson",
        "ZipCode":"38371",
        "Latitude":35.4386,
        "Longitude":-88.3058
    },
    {
        "State":"Tennessee",
        "StateAbbr":"TN",
        "City":"Wildersville",
        "County":"Henderson",
        "ZipCode":"38388",
        "Latitude":35.7698,
        "Longitude":-88.4388
    },
    {
        "State":"Tennessee",
        "StateAbbr":"TN",
        "City":"Buchanan",
        "County":"Henry",
        "ZipCode":"38222",
        "Latitude":36.4146,
        "Longitude":-88.1515
    },
    {
        "State":"Tennessee",
        "StateAbbr":"TN",
        "City":"Como",
        "County":"Henry",
        "ZipCode":"38223",
        "Latitude":36.2931,
        "Longitude":-88.5123
    },
    {
        "State":"Tennessee",
        "StateAbbr":"TN",
        "City":"Cottage Grove",
        "County":"Henry",
        "ZipCode":"38224",
        "Latitude":36.3479,
        "Longitude":-88.4614
    },
    {
        "State":"Tennessee",
        "StateAbbr":"TN",
        "City":"Henry",
        "County":"Henry",
        "ZipCode":"38231",
        "Latitude":36.2039,
        "Longitude":-88.4198
    },
    {
        "State":"Tennessee",
        "StateAbbr":"TN",
        "City":"Mansfield",
        "County":"Henry",
        "ZipCode":"38236",
        "Latitude":36.1847,
        "Longitude":-88.2859
    },
    {
        "State":"Tennessee",
        "StateAbbr":"TN",
        "City":"Paris",
        "County":"Henry",
        "ZipCode":"38242",
        "Latitude":36.3005,
        "Longitude":-88.3093
    },
    {
        "State":"Tennessee",
        "StateAbbr":"TN",
        "City":"Puryear",
        "County":"Henry",
        "ZipCode":"38251",
        "Latitude":36.4456,
        "Longitude":-88.3472
    },
    {
        "State":"Tennessee",
        "StateAbbr":"TN",
        "City":"Springville",
        "County":"Henry",
        "ZipCode":"38256",
        "Latitude":36.265,
        "Longitude":-88.1459
    },
    {
        "State":"Tennessee",
        "StateAbbr":"TN",
        "City":"Bon Aqua",
        "County":"Hickman",
        "ZipCode":"37025",
        "Latitude":35.9471,
        "Longitude":-87.2996
    },
    {
        "State":"Tennessee",
        "StateAbbr":"TN",
        "City":"Centerville",
        "County":"Hickman",
        "ZipCode":"37033",
        "Latitude":35.7797,
        "Longitude":-87.4775
    },
    {
        "State":"Tennessee",
        "StateAbbr":"TN",
        "City":"Lyles",
        "County":"Hickman",
        "ZipCode":"37098",
        "Latitude":35.8502,
        "Longitude":-87.3127
    },
    {
        "State":"Tennessee",
        "StateAbbr":"TN",
        "City":"Nunnelly",
        "County":"Hickman",
        "ZipCode":"37137",
        "Latitude":35.8763,
        "Longitude":-87.5067
    },
    {
        "State":"Tennessee",
        "StateAbbr":"TN",
        "City":"Only",
        "County":"Hickman",
        "ZipCode":"37140",
        "Latitude":35.8679,
        "Longitude":-87.6655
    },
    {
        "State":"Tennessee",
        "StateAbbr":"TN",
        "City":"Duck River",
        "County":"Hickman",
        "ZipCode":"38454",
        "Latitude":35.748,
        "Longitude":-87.3577
    },
    {
        "State":"Tennessee",
        "StateAbbr":"TN",
        "City":"Primm Springs",
        "County":"Hickman",
        "ZipCode":"38476",
        "Latitude":35.8104,
        "Longitude":-87.253
    },
    {
        "State":"Tennessee",
        "StateAbbr":"TN",
        "City":"Erin",
        "County":"Houston",
        "ZipCode":"37061",
        "Latitude":36.3067,
        "Longitude":-87.679
    },
    {
        "State":"Tennessee",
        "StateAbbr":"TN",
        "City":"Stewart",
        "County":"Houston",
        "ZipCode":"37175",
        "Latitude":36.3241,
        "Longitude":-87.8725
    },
    {
        "State":"Tennessee",
        "StateAbbr":"TN",
        "City":"Tennessee Ridge",
        "County":"Houston",
        "ZipCode":"37178",
        "Latitude":36.3297,
        "Longitude":-87.7808
    },
    {
        "State":"Tennessee",
        "StateAbbr":"TN",
        "City":"Hurricane Mills",
        "County":"Humphreys",
        "ZipCode":"37078",
        "Latitude":35.924,
        "Longitude":-87.8105
    },
    {
        "State":"Tennessee",
        "StateAbbr":"TN",
        "City":"Mc Ewen",
        "County":"Humphreys",
        "ZipCode":"37101",
        "Latitude":36.1185,
        "Longitude":-87.6422
    },
    {
        "State":"Tennessee",
        "StateAbbr":"TN",
        "City":"New Johnsonville",
        "County":"Humphreys",
        "ZipCode":"37134",
        "Latitude":36.0088,
        "Longitude":-87.9547
    },
    {
        "State":"Tennessee",
        "StateAbbr":"TN",
        "City":"Waverly",
        "County":"Humphreys",
        "ZipCode":"37185",
        "Latitude":36.0997,
        "Longitude":-87.7991
    },
    {
        "State":"Tennessee",
        "StateAbbr":"TN",
        "City":"Gainesboro",
        "County":"Jackson",
        "ZipCode":"38562",
        "Latitude":36.3438,
        "Longitude":-85.6355
    },
    {
        "State":"Tennessee",
        "StateAbbr":"TN",
        "City":"Granville",
        "County":"Jackson",
        "ZipCode":"38564",
        "Latitude":36.2768,
        "Longitude":-85.7475
    },
    {
        "State":"Tennessee",
        "StateAbbr":"TN",
        "City":"Whitleyville",
        "County":"Jackson",
        "ZipCode":"38588",
        "Latitude":36.5158,
        "Longitude":-85.6899
    },
    {
        "State":"Tennessee",
        "StateAbbr":"TN",
        "City":"Dandridge",
        "County":"Jefferson",
        "ZipCode":"37725",
        "Latitude":36.0008,
        "Longitude":-83.4233
    },
    {
        "State":"Tennessee",
        "StateAbbr":"TN",
        "City":"Jefferson City",
        "County":"Jefferson",
        "ZipCode":"37760",
        "Latitude":36.1163,
        "Longitude":-83.481
    },
    {
        "State":"Tennessee",
        "StateAbbr":"TN",
        "City":"New Market",
        "County":"Jefferson",
        "ZipCode":"37820",
        "Latitude":36.081,
        "Longitude":-83.5673
    },
    {
        "State":"Tennessee",
        "StateAbbr":"TN",
        "City":"Strawberry Plains",
        "County":"Jefferson",
        "ZipCode":"37871",
        "Latitude":36.0687,
        "Longitude":-83.6568
    },
    {
        "State":"Tennessee",
        "StateAbbr":"TN",
        "City":"White Pine",
        "County":"Jefferson",
        "ZipCode":"37890",
        "Latitude":36.0776,
        "Longitude":-83.2998
    },
    {
        "State":"Tennessee",
        "StateAbbr":"TN",
        "City":"Butler",
        "County":"Johnson",
        "ZipCode":"37640",
        "Latitude":36.3282,
        "Longitude":-81.9856
    },
    {
        "State":"Tennessee",
        "StateAbbr":"TN",
        "City":"Laurel Bloomery",
        "County":"Johnson",
        "ZipCode":"37680",
        "Latitude":36.5793,
        "Longitude":-81.7254
    },
    {
        "State":"Tennessee",
        "StateAbbr":"TN",
        "City":"Mountain City",
        "County":"Johnson",
        "ZipCode":"37683",
        "Latitude":36.4657,
        "Longitude":-81.814
    },
    {
        "State":"Tennessee",
        "StateAbbr":"TN",
        "City":"Shady Valley",
        "County":"Johnson",
        "ZipCode":"37688",
        "Latitude":36.5272,
        "Longitude":-81.9068
    },
    {
        "State":"Tennessee",
        "StateAbbr":"TN",
        "City":"Trade",
        "County":"Johnson",
        "ZipCode":"37691",
        "Latitude":36.3683,
        "Longitude":-81.7572
    },
    {
        "State":"Tennessee",
        "StateAbbr":"TN",
        "City":"Corryton",
        "County":"Knox",
        "ZipCode":"37721",
        "Latitude":36.12,
        "Longitude":-83.813
    },
    {
        "State":"Tennessee",
        "StateAbbr":"TN",
        "City":"Heiskell",
        "County":"Knox",
        "ZipCode":"37754",
        "Latitude":36.115,
        "Longitude":-84.0438
    },
    {
        "State":"Tennessee",
        "StateAbbr":"TN",
        "City":"Mascot",
        "County":"Knox",
        "ZipCode":"37806",
        "Latitude":36.0844,
        "Longitude":-83.7411
    },
    {
        "State":"Tennessee",
        "StateAbbr":"TN",
        "City":"Powell",
        "County":"Knox",
        "ZipCode":"37849",
        "Latitude":36.0435,
        "Longitude":-84.04
    },
    {
        "State":"Tennessee",
        "StateAbbr":"TN",
        "City":"Knoxville",
        "County":"Knox",
        "ZipCode":"37901",
        "Latitude":36.0323,
        "Longitude":-83.8848
    },
    {
        "State":"Tennessee",
        "StateAbbr":"TN",
        "City":"Knoxville",
        "County":"Knox",
        "ZipCode":"37902",
        "Latitude":35.9625,
        "Longitude":-83.9209
    },
    {
        "State":"Tennessee",
        "StateAbbr":"TN",
        "City":"Knoxville",
        "County":"Knox",
        "ZipCode":"37909",
        "Latitude":35.946,
        "Longitude":-84.0235
    },
    {
        "State":"Tennessee",
        "StateAbbr":"TN",
        "City":"Knoxville",
        "County":"Knox",
        "ZipCode":"37912",
        "Latitude":36.0055,
        "Longitude":-83.9773
    },
    {
        "State":"Tennessee",
        "StateAbbr":"TN",
        "City":"Knoxville",
        "County":"Knox",
        "ZipCode":"37914",
        "Latitude":35.9918,
        "Longitude":-83.8496
    },
    {
        "State":"Tennessee",
        "StateAbbr":"TN",
        "City":"Knoxville",
        "County":"Knox",
        "ZipCode":"37915",
        "Latitude":35.9721,
        "Longitude":-83.901
    },
    {
        "State":"Tennessee",
        "StateAbbr":"TN",
        "City":"Knoxville",
        "County":"Knox",
        "ZipCode":"37916",
        "Latitude":35.9556,
        "Longitude":-83.9336
    },
    {
        "State":"Tennessee",
        "StateAbbr":"TN",
        "City":"Knoxville",
        "County":"Knox",
        "ZipCode":"37917",
        "Latitude":35.998,
        "Longitude":-83.9152
    },
    {
        "State":"Tennessee",
        "StateAbbr":"TN",
        "City":"Knoxville",
        "County":"Knox",
        "ZipCode":"37918",
        "Latitude":36.0501,
        "Longitude":-83.9226
    },
    {
        "State":"Tennessee",
        "StateAbbr":"TN",
        "City":"Knoxville",
        "County":"Knox",
        "ZipCode":"37919",
        "Latitude":35.9244,
        "Longitude":-84.0015
    },
    {
        "State":"Tennessee",
        "StateAbbr":"TN",
        "City":"Knoxville",
        "County":"Knox",
        "ZipCode":"37920",
        "Latitude":35.8929,
        "Longitude":-83.9387
    },
    {
        "State":"Tennessee",
        "StateAbbr":"TN",
        "City":"Knoxville",
        "County":"Knox",
        "ZipCode":"37921",
        "Latitude":35.9793,
        "Longitude":-84.003
    },
    {
        "State":"Tennessee",
        "StateAbbr":"TN",
        "City":"Knoxville",
        "County":"Knox",
        "ZipCode":"37922",
        "Latitude":35.858,
        "Longitude":-84.1194
    },
    {
        "State":"Tennessee",
        "StateAbbr":"TN",
        "City":"Knoxville",
        "County":"Knox",
        "ZipCode":"37923",
        "Latitude":35.9331,
        "Longitude":-84.0761
    },
    {
        "State":"Tennessee",
        "StateAbbr":"TN",
        "City":"Knoxville",
        "County":"Knox",
        "ZipCode":"37924",
        "Latitude":36.032,
        "Longitude":-83.8021
    },
    {
        "State":"Tennessee",
        "StateAbbr":"TN",
        "City":"Knoxville",
        "County":"Knox",
        "ZipCode":"37927",
        "Latitude":35.9901,
        "Longitude":-83.9622
    },
    {
        "State":"Tennessee",
        "StateAbbr":"TN",
        "City":"Knoxville",
        "County":"Knox",
        "ZipCode":"37928",
        "Latitude":35.9901,
        "Longitude":-83.9622
    },
    {
        "State":"Tennessee",
        "StateAbbr":"TN",
        "City":"Knoxville",
        "County":"Knox",
        "ZipCode":"37929",
        "Latitude":35.9606,
        "Longitude":-83.9207
    },
    {
        "State":"Tennessee",
        "StateAbbr":"TN",
        "City":"Knoxville",
        "County":"Knox",
        "ZipCode":"37930",
        "Latitude":35.9029,
        "Longitude":-83.9536
    },
    {
        "State":"Tennessee",
        "StateAbbr":"TN",
        "City":"Knoxville",
        "County":"Knox",
        "ZipCode":"37931",
        "Latitude":35.9924,
        "Longitude":-84.1201
    },
    {
        "State":"Tennessee",
        "StateAbbr":"TN",
        "City":"Knoxville",
        "County":"Knox",
        "ZipCode":"37932",
        "Latitude":35.9335,
        "Longitude":-84.1481
    },
    {
        "State":"Tennessee",
        "StateAbbr":"TN",
        "City":"Knoxville",
        "County":"Knox",
        "ZipCode":"37933",
        "Latitude":35.9901,
        "Longitude":-83.9622
    },
    {
        "State":"Tennessee",
        "StateAbbr":"TN",
        "City":"Knoxville",
        "County":"Knox",
        "ZipCode":"37934",
        "Latitude":35.8762,
        "Longitude":-84.1746
    },
    {
        "State":"Tennessee",
        "StateAbbr":"TN",
        "City":"Knoxville",
        "County":"Knox",
        "ZipCode":"37938",
        "Latitude":36.1055,
        "Longitude":-83.946
    },
    {
        "State":"Tennessee",
        "StateAbbr":"TN",
        "City":"Knoxville",
        "County":"Knox",
        "ZipCode":"37939",
        "Latitude":35.9901,
        "Longitude":-83.9622
    },
    {
        "State":"Tennessee",
        "StateAbbr":"TN",
        "City":"Knoxville",
        "County":"Knox",
        "ZipCode":"37940",
        "Latitude":35.9901,
        "Longitude":-83.9622
    },
    {
        "State":"Tennessee",
        "StateAbbr":"TN",
        "City":"Knoxville",
        "County":"Knox",
        "ZipCode":"37950",
        "Latitude":35.9901,
        "Longitude":-83.9622
    },
    {
        "State":"Tennessee",
        "StateAbbr":"TN",
        "City":"Knoxville",
        "County":"Knox",
        "ZipCode":"37995",
        "Latitude":35.9606,
        "Longitude":-83.9207
    },
    {
        "State":"Tennessee",
        "StateAbbr":"TN",
        "City":"Knoxville",
        "County":"Knox",
        "ZipCode":"37996",
        "Latitude":35.9901,
        "Longitude":-83.9622
    },
    {
        "State":"Tennessee",
        "StateAbbr":"TN",
        "City":"Knoxville",
        "County":"Knox",
        "ZipCode":"37997",
        "Latitude":35.9901,
        "Longitude":-83.9622
    },
    {
        "State":"Tennessee",
        "StateAbbr":"TN",
        "City":"Knoxville",
        "County":"Knox",
        "ZipCode":"37998",
        "Latitude":35.9351,
        "Longitude":-83.7503
    },
    {
        "State":"Tennessee",
        "StateAbbr":"TN",
        "City":"Wynnburg",
        "County":"Lake",
        "ZipCode":"38077",
        "Latitude":36.3281,
        "Longitude":-89.4744
    },
    {
        "State":"Tennessee",
        "StateAbbr":"TN",
        "City":"Tiptonville",
        "County":"Lake",
        "ZipCode":"38079",
        "Latitude":36.3846,
        "Longitude":-89.4649
    },
    {
        "State":"Tennessee",
        "StateAbbr":"TN",
        "City":"Ridgely",
        "County":"Lake",
        "ZipCode":"38080",
        "Latitude":36.2638,
        "Longitude":-89.4858
    },
    {
        "State":"Tennessee",
        "StateAbbr":"TN",
        "City":"Gates",
        "County":"Lauderdale",
        "ZipCode":"38037",
        "Latitude":35.796,
        "Longitude":-89.3938
    },
    {
        "State":"Tennessee",
        "StateAbbr":"TN",
        "City":"Halls",
        "County":"Lauderdale",
        "ZipCode":"38040",
        "Latitude":35.8862,
        "Longitude":-89.4147
    },
    {
        "State":"Tennessee",
        "StateAbbr":"TN",
        "City":"Henning",
        "County":"Lauderdale",
        "ZipCode":"38041",
        "Latitude":35.6593,
        "Longitude":-89.6962
    },
    {
        "State":"Tennessee",
        "StateAbbr":"TN",
        "City":"Ripley",
        "County":"Lauderdale",
        "ZipCode":"38063",
        "Latitude":35.7527,
        "Longitude":-89.535
    },
    {
        "State":"Tennessee",
        "StateAbbr":"TN",
        "City":"Ethridge",
        "County":"Lawrence",
        "ZipCode":"38456",
        "Latitude":35.3326,
        "Longitude":-87.3039
    },
    {
        "State":"Tennessee",
        "StateAbbr":"TN",
        "City":"Five Points",
        "County":"Lawrence",
        "ZipCode":"38457",
        "Latitude":35.031,
        "Longitude":-87.2961
    },
    {
        "State":"Tennessee",
        "StateAbbr":"TN",
        "City":"Iron City",
        "County":"Lawrence",
        "ZipCode":"38463",
        "Latitude":35.0563,
        "Longitude":-87.6473
    },
    {
        "State":"Tennessee",
        "StateAbbr":"TN",
        "City":"Lawrenceburg",
        "County":"Lawrence",
        "ZipCode":"38464",
        "Latitude":35.2507,
        "Longitude":-87.3526
    },
    {
        "State":"Tennessee",
        "StateAbbr":"TN",
        "City":"Leoma",
        "County":"Lawrence",
        "ZipCode":"38468",
        "Latitude":35.1382,
        "Longitude":-87.3168
    },
    {
        "State":"Tennessee",
        "StateAbbr":"TN",
        "City":"Loretto",
        "County":"Lawrence",
        "ZipCode":"38469",
        "Latitude":35.0728,
        "Longitude":-87.427
    },
    {
        "State":"Tennessee",
        "StateAbbr":"TN",
        "City":"Saint Joseph",
        "County":"Lawrence",
        "ZipCode":"38481",
        "Latitude":35.0376,
        "Longitude":-87.5018
    },
    {
        "State":"Tennessee",
        "StateAbbr":"TN",
        "City":"Summertown",
        "County":"Lawrence",
        "ZipCode":"38483",
        "Latitude":35.4307,
        "Longitude":-87.3198
    },
    {
        "State":"Tennessee",
        "StateAbbr":"TN",
        "City":"Westpoint",
        "County":"Lawrence",
        "ZipCode":"38486",
        "Latitude":35.1393,
        "Longitude":-87.538
    },
    {
        "State":"Tennessee",
        "StateAbbr":"TN",
        "City":"Hohenwald",
        "County":"Lewis",
        "ZipCode":"38462",
        "Latitude":35.5266,
        "Longitude":-87.4891
    },
    {
        "State":"Tennessee",
        "StateAbbr":"TN",
        "City":"Petersburg",
        "County":"Lincoln",
        "ZipCode":"37144",
        "Latitude":35.2924,
        "Longitude":-86.6447
    },
    {
        "State":"Tennessee",
        "StateAbbr":"TN",
        "City":"Elora",
        "County":"Lincoln",
        "ZipCode":"37328",
        "Latitude":35.0295,
        "Longitude":-86.3481
    },
    {
        "State":"Tennessee",
        "StateAbbr":"TN",
        "City":"Fayetteville",
        "County":"Lincoln",
        "ZipCode":"37334",
        "Latitude":35.1527,
        "Longitude":-86.5664
    },
    {
        "State":"Tennessee",
        "StateAbbr":"TN",
        "City":"Flintville",
        "County":"Lincoln",
        "ZipCode":"37335",
        "Latitude":35.0581,
        "Longitude":-86.413
    },
    {
        "State":"Tennessee",
        "StateAbbr":"TN",
        "City":"Kelso",
        "County":"Lincoln",
        "ZipCode":"37348",
        "Latitude":35.1024,
        "Longitude":-86.4683
    },
    {
        "State":"Tennessee",
        "StateAbbr":"TN",
        "City":"Mulberry",
        "County":"Lincoln",
        "ZipCode":"37359",
        "Latitude":35.1941,
        "Longitude":-86.4217
    },
    {
        "State":"Tennessee",
        "StateAbbr":"TN",
        "City":"Dellrose",
        "County":"Lincoln",
        "ZipCode":"38453",
        "Latitude":35.1214,
        "Longitude":-86.8121
    },
    {
        "State":"Tennessee",
        "StateAbbr":"TN",
        "City":"Taft",
        "County":"Lincoln",
        "ZipCode":"38488",
        "Latitude":35.0517,
        "Longitude":-86.6447
    },
    {
        "State":"Tennessee",
        "StateAbbr":"TN",
        "City":"Greenback",
        "County":"Loudon",
        "ZipCode":"37742",
        "Latitude":35.6567,
        "Longitude":-84.171
    },
    {
        "State":"Tennessee",
        "StateAbbr":"TN",
        "City":"Lenoir City",
        "County":"Loudon",
        "ZipCode":"37771",
        "Latitude":35.8104,
        "Longitude":-84.2665
    },
    {
        "State":"Tennessee",
        "StateAbbr":"TN",
        "City":"Lenoir City",
        "County":"Loudon",
        "ZipCode":"37772",
        "Latitude":35.7883,
        "Longitude":-84.2188
    },
    {
        "State":"Tennessee",
        "StateAbbr":"TN",
        "City":"Loudon",
        "County":"Loudon",
        "ZipCode":"37774",
        "Latitude":35.7292,
        "Longitude":-84.3436
    },
    {
        "State":"Tennessee",
        "StateAbbr":"TN",
        "City":"Philadelphia",
        "County":"Loudon",
        "ZipCode":"37846",
        "Latitude":35.6781,
        "Longitude":-84.4312
    },
    {
        "State":"Tennessee",
        "StateAbbr":"TN",
        "City":"Athens",
        "County":"McMinn",
        "ZipCode":"37303",
        "Latitude":35.4574,
        "Longitude":-84.6043
    },
    {
        "State":"Tennessee",
        "StateAbbr":"TN",
        "City":"Calhoun",
        "County":"McMinn",
        "ZipCode":"37309",
        "Latitude":35.3228,
        "Longitude":-84.7364
    },
    {
        "State":"Tennessee",
        "StateAbbr":"TN",
        "City":"Englewood",
        "County":"McMinn",
        "ZipCode":"37329",
        "Latitude":35.4272,
        "Longitude":-84.4833
    },
    {
        "State":"Tennessee",
        "StateAbbr":"TN",
        "City":"Etowah",
        "County":"McMinn",
        "ZipCode":"37331",
        "Latitude":35.3314,
        "Longitude":-84.5283
    },
    {
        "State":"Tennessee",
        "StateAbbr":"TN",
        "City":"Riceville",
        "County":"McMinn",
        "ZipCode":"37370",
        "Latitude":35.3731,
        "Longitude":-84.6951
    },
    {
        "State":"Tennessee",
        "StateAbbr":"TN",
        "City":"Athens",
        "County":"McMinn",
        "ZipCode":"37371",
        "Latitude":35.4429,
        "Longitude":-84.593
    },
    {
        "State":"Tennessee",
        "StateAbbr":"TN",
        "City":"Niota",
        "County":"McMinn",
        "ZipCode":"37826",
        "Latitude":35.5819,
        "Longitude":-84.5721
    },
    {
        "State":"Tennessee",
        "StateAbbr":"TN",
        "City":"Adamsville",
        "County":"McNairy",
        "ZipCode":"38310",
        "Latitude":35.2556,
        "Longitude":-88.4134
    },
    {
        "State":"Tennessee",
        "StateAbbr":"TN",
        "City":"Bethel Springs",
        "County":"McNairy",
        "ZipCode":"38315",
        "Latitude":35.2289,
        "Longitude":-88.644
    },
    {
        "State":"Tennessee",
        "StateAbbr":"TN",
        "City":"Finger",
        "County":"McNairy",
        "ZipCode":"38334",
        "Latitude":35.3544,
        "Longitude":-88.5876
    },
    {
        "State":"Tennessee",
        "StateAbbr":"TN",
        "City":"Guys",
        "County":"McNairy",
        "ZipCode":"38339",
        "Latitude":35.0142,
        "Longitude":-88.5208
    },
    {
        "State":"Tennessee",
        "StateAbbr":"TN",
        "City":"Michie",
        "County":"McNairy",
        "ZipCode":"38357",
        "Latitude":35.0603,
        "Longitude":-88.4405
    },
    {
        "State":"Tennessee",
        "StateAbbr":"TN",
        "City":"Milledgeville",
        "County":"McNairy",
        "ZipCode":"38359",
        "Latitude":35.3729,
        "Longitude":-88.3675
    },
    {
        "State":"Tennessee",
        "StateAbbr":"TN",
        "City":"Ramer",
        "County":"McNairy",
        "ZipCode":"38367",
        "Latitude":35.0642,
        "Longitude":-88.6017
    },
    {
        "State":"Tennessee",
        "StateAbbr":"TN",
        "City":"Selmer",
        "County":"McNairy",
        "ZipCode":"38375",
        "Latitude":35.1691,
        "Longitude":-88.5958
    },
    {
        "State":"Tennessee",
        "StateAbbr":"TN",
        "City":"Stantonville",
        "County":"McNairy",
        "ZipCode":"38379",
        "Latitude":35.1809,
        "Longitude":-88.4364
    },
    {
        "State":"Tennessee",
        "StateAbbr":"TN",
        "City":"Chewalla",
        "County":"McNairy",
        "ZipCode":"38393",
        "Latitude":34.9969,
        "Longitude":-88.6456
    },
    {
        "State":"Tennessee",
        "StateAbbr":"TN",
        "City":"Lafayette",
        "County":"Macon",
        "ZipCode":"37083",
        "Latitude":36.539,
        "Longitude":-86.0242
    },
    {
        "State":"Tennessee",
        "StateAbbr":"TN",
        "City":"Red Boiling Springs",
        "County":"Macon",
        "ZipCode":"37150",
        "Latitude":36.5177,
        "Longitude":-85.8662
    },
    {
        "State":"Tennessee",
        "StateAbbr":"TN",
        "City":"Jackson",
        "County":"Madison",
        "ZipCode":"38301",
        "Latitude":35.6102,
        "Longitude":-88.814
    },
    {
        "State":"Tennessee",
        "StateAbbr":"TN",
        "City":"Jackson",
        "County":"Madison",
        "ZipCode":"38302",
        "Latitude":35.6124,
        "Longitude":-88.8412
    },
    {
        "State":"Tennessee",
        "StateAbbr":"TN",
        "City":"Jackson",
        "County":"Madison",
        "ZipCode":"38303",
        "Latitude":35.6124,
        "Longitude":-88.8412
    },
    {
        "State":"Tennessee",
        "StateAbbr":"TN",
        "City":"Jackson",
        "County":"Madison",
        "ZipCode":"38305",
        "Latitude":35.6829,
        "Longitude":-88.8281
    },
    {
        "State":"Tennessee",
        "StateAbbr":"TN",
        "City":"Jackson",
        "County":"Madison",
        "ZipCode":"38308",
        "Latitude":35.6124,
        "Longitude":-88.8412
    },
    {
        "State":"Tennessee",
        "StateAbbr":"TN",
        "City":"Beech Bluff",
        "County":"Madison",
        "ZipCode":"38313",
        "Latitude":35.5922,
        "Longitude":-88.6396
    },
    {
        "State":"Tennessee",
        "StateAbbr":"TN",
        "City":"Jackson",
        "County":"Madison",
        "ZipCode":"38314",
        "Latitude":35.6124,
        "Longitude":-88.8412
    },
    {
        "State":"Tennessee",
        "StateAbbr":"TN",
        "City":"Medon",
        "County":"Madison",
        "ZipCode":"38356",
        "Latitude":35.4345,
        "Longitude":-88.8953
    },
    {
        "State":"Tennessee",
        "StateAbbr":"TN",
        "City":"Oakfield",
        "County":"Madison",
        "ZipCode":"38362",
        "Latitude":35.7242,
        "Longitude":-88.7801
    },
    {
        "State":"Tennessee",
        "StateAbbr":"TN",
        "City":"Pinson",
        "County":"Madison",
        "ZipCode":"38366",
        "Latitude":35.4781,
        "Longitude":-88.7304
    },
    {
        "State":"Tennessee",
        "StateAbbr":"TN",
        "City":"Spring Creek",
        "County":"Madison",
        "ZipCode":"38378",
        "Latitude":35.7668,
        "Longitude":-88.6839
    },
    {
        "State":"Tennessee",
        "StateAbbr":"TN",
        "City":"Denmark",
        "County":"Madison",
        "ZipCode":"38391",
        "Latitude":35.5571,
        "Longitude":-88.9759
    },
    {
        "State":"Tennessee",
        "StateAbbr":"TN",
        "City":"Mercer",
        "County":"Madison",
        "ZipCode":"38392",
        "Latitude":35.4816,
        "Longitude":-89.0271
    },
    {
        "State":"Tennessee",
        "StateAbbr":"TN",
        "City":"Guild",
        "County":"Marion",
        "ZipCode":"37340",
        "Latitude":35.0178,
        "Longitude":-85.5116
    },
    {
        "State":"Tennessee",
        "StateAbbr":"TN",
        "City":"Jasper",
        "County":"Marion",
        "ZipCode":"37347",
        "Latitude":35.097,
        "Longitude":-85.5897
    },
    {
        "State":"Tennessee",
        "StateAbbr":"TN",
        "City":"Sequatchie",
        "County":"Marion",
        "ZipCode":"37374",
        "Latitude":35.1634,
        "Longitude":-85.6371
    },
    {
        "State":"Tennessee",
        "StateAbbr":"TN",
        "City":"South Pittsburg",
        "County":"Marion",
        "ZipCode":"37380",
        "Latitude":35.028,
        "Longitude":-85.7225
    },
    {
        "State":"Tennessee",
        "StateAbbr":"TN",
        "City":"Whiteside",
        "County":"Marion",
        "ZipCode":"37396",
        "Latitude":34.9873,
        "Longitude":-85.4977
    },
    {
        "State":"Tennessee",
        "StateAbbr":"TN",
        "City":"Whitwell",
        "County":"Marion",
        "ZipCode":"37397",
        "Latitude":35.1972,
        "Longitude":-85.5011
    },
    {
        "State":"Tennessee",
        "StateAbbr":"TN",
        "City":"Belfast",
        "County":"Marshall",
        "ZipCode":"37019",
        "Latitude":35.4069,
        "Longitude":-86.7095
    },
    {
        "State":"Tennessee",
        "StateAbbr":"TN",
        "City":"Chapel Hill",
        "County":"Marshall",
        "ZipCode":"37034",
        "Latitude":35.6354,
        "Longitude":-86.6836
    },
    {
        "State":"Tennessee",
        "StateAbbr":"TN",
        "City":"Cornersville",
        "County":"Marshall",
        "ZipCode":"37047",
        "Latitude":35.3409,
        "Longitude":-86.8286
    },
    {
        "State":"Tennessee",
        "StateAbbr":"TN",
        "City":"Lewisburg",
        "County":"Marshall",
        "ZipCode":"37091",
        "Latitude":35.4596,
        "Longitude":-86.7812
    },
    {
        "State":"Tennessee",
        "StateAbbr":"TN",
        "City":"Spring Hill",
        "County":"Maury",
        "ZipCode":"37174",
        "Latitude":35.7173,
        "Longitude":-86.9048
    },
    {
        "State":"Tennessee",
        "StateAbbr":"TN",
        "City":"Columbia",
        "County":"Maury",
        "ZipCode":"38401",
        "Latitude":35.6156,
        "Longitude":-87.038
    },
    {
        "State":"Tennessee",
        "StateAbbr":"TN",
        "City":"Columbia",
        "County":"Maury",
        "ZipCode":"38402",
        "Latitude":35.6151,
        "Longitude":-87.0353
    },